~Version Information Block
VERS .                 2.00:  CWLS LOG ASCII STANDARD - VERSION 2.00
WRAP .                   NO:  One line per depth step
~Well Information Block
#MNEM.UNIT        Data Type   Information
#---------- ----------------  -----------
STRT .M          3141.11640:  START DEPTH
STOP .M          4189.93320:  STOP DEPTH
STEP .M             0.15240:  STEP
NULL .              -999.25:  NULL VALUE
COMP .                     :  COMPANY
WELL .             Pukeko-1:  WELL
FLD  .                     :  FIELD
LOC  .                     :  LOCATION
CTRY .                     :  COUNTRY
STAT .                     :  STATE
CNTY .                     :  COUNTY
SRVC .     New Zealand Overseas Petroleum Ltd:  SERVICE COMPANY
DATE .                     :  DATE
API  .                     :  API NUMBER
UWI  .         100000502205:  UNIQUE WELL ID
LATI .          -39.9215617:  LATITUDE
LONG .          172.9374089:  LONGITUDE
~Curve Information Block
#MNEM.UNIT         API CODE   Curve Description
#---------- ----------------  -----------------
DEPTH.M                    :  
BS   .IN                   :  Bit Size (Created in Geolog)
CALI .IN                   :  HRCC Cal. Caliper (HCAL)
DENS .G/C3                 :  HRDD High Resolution Formation Density (RHO8)
DRHO .G/C3                 :  HRDD Density Correction (HDRA)
DTC  .US/F                 :  Delta-T Compressional (DTCO)
DTS  .US/F                 :  Delta-T Shear (DTSM)
GR   .GAPI                 :  HiRes Gamma-Ray (HGR)
NEUT .V/V                  :  HiRes Thermal Neutron Porosity (HTNP)
NEUT_CORR.V/V                  :  Corrected NPHI (limestone units)
PEF  .B/E                  :  HRDD High Resolution Formation Photoelectric Factor (PEF8)
RESD .OHMM                 :  HRLT Borehole Corrected Resistivity 5 (RLA5)
RESM .OHMM                 :  HRLT Borehole Corrected Resistivity 3 (RLA3)
RESS .OHMM                 :  HRLT Borehole Corrected Resistivity 1 (RLA1)
SP   .MV                   :  SP Shifted (SP)
TEMP .DEGC                 :  Cartridge Temperature (CTEM)
TENS .KGF                  :  Cable Tension (TENS)
~Parameter Information Block
#MNEM.UNIT            Value   Description
#---------- ----------------  -----------
CUR_INT_BOT.M                4190:  Current interpolated bottom
PROJECT.     New Zealand Log QC Project:  
SET  .     A0_FINAL_INTER_REF_D:  
ELEVATION_AMSL.M                  25:  Elevation above mean sea level
ELEVATION_REF.                   KB:  Measurement reference
FORMATION_AT_TD.             Basement:  Formation at TD
LICENCE_NUMBER.             PEP38460:  Licence number
ONSHORE_OR_OFFSHORE.             Offshore:  Onshore/offshore
PR_NUMBER.               PR2928:  Petroleum report number
SEAFLOOR_ELEVATION_BMSL.M            157.3000:  Seafloor elevation below mean sea level
SPUD_DATE.           28/04/2004:  Spud date
STATUS_AT_COMPLETION.     Temporary suspended:  Status at completion
TD_DATE.           26/05/2004:  Total depth date
TOTAL_DEPTH_DRILLED.M                4190:  Total depth drilled
WATER_DEPTH.M               132.3:  Water depth
~Other Information Block
# 
~A       DEPTH             BS           CALI           DENS           DRHO            DTC            DTS             GR           NEUT      NEUT_CORR            PEF           RESD           RESM           RESS             SP           TEMP           TENS 
# ...
    3779.97720         8.5000         8.3031         2.4794       0.002608        68.1447       114.7718        70.4268         0.1767         0.1739         2.6229         5.7249         5.8093         5.7865      -150.6481       125.8040      2357.4814
    3780.12960         8.5000         8.3038         2.4858       0.003458        68.7143       115.9715        70.7738         0.1813         0.1783         2.6675         5.5918         5.7291         5.7478      -150.6043       125.8040      2354.8435
    3780.28200         8.5000         8.3045         2.4947       0.004712        69.2818       117.2853        70.8998         0.1861         0.1828         2.7263         5.4241         5.6109         5.6745      -150.5103       125.8040      2353.2700
    3780.43440         8.5000         8.3053         2.5036       0.005966        69.8493       118.5992        71.0258         0.1909         0.1873         2.7850         5.2563         5.4928         5.6012      -150.4163       125.8040      2351.6963
    3780.58680         8.5000         8.3162         2.5030       0.007387        70.5254       119.8837        72.2393         0.2011         0.1973         2.8578         4.9038         5.1566         5.3461      -150.4651       125.8040      2347.8667
    3780.73920         8.5000         8.3347         2.4954       0.008935        71.2835       121.1459        74.2747         0.2154         0.2113         2.9412         4.4117         4.6556         4.9534      -150.6219       125.8040      2342.3320
    3780.89160         8.5000         8.3532         2.4877       0.010483        72.0416       122.4081        76.3101         0.2297         0.2253         3.0246         3.9196         4.1547         4.5608      -150.7787       125.8040      2336.7976
    3781.04400         8.5000         8.3704         2.4895       0.011568        72.2333       122.4572        77.9705         0.2418         0.2370         3.1160         5.2385         5.5703         5.9770      -150.9833       125.8040      2333.7649
    3781.19640         8.5000         8.3843         2.5150       0.011515        71.0294       119.5179        78.7072         0.2482         0.2430         3.2272        11.0193        11.7080        11.8498      -151.3056       125.8040      2336.8953
    3781.34880         8.5000         8.3982         2.5404       0.011461        69.8255       116.5785        79.4439         0.2545         0.2489         3.3384        16.8001        17.8456        17.7225      -151.6280       125.8040      2340.0254
    3781.50120         8.5000         8.4118         2.5656       0.011438        68.6252       113.6580        80.1460         0.2607         0.2546         3.4479        22.4996        23.8974        23.5125      -151.9477       125.8040      2343.1875
    3781.65360         8.5000         8.3825         2.5671       0.015163        67.8804       113.1121        76.4918         0.2371         0.2320         3.3382        17.9486        19.1401        18.8662      -151.9268       125.8040      2350.3572
    3781.80600         8.5000         8.3531         2.5687       0.018889        67.1357       112.5661        72.8376         0.2135         0.2094         3.2284        13.3976        14.3828        14.2200      -151.9059       125.8040      2357.5269
    3781.95840         8.5000         8.3238         2.5702       0.022614        66.3910       112.0201        69.1834         0.1899         0.1868         3.1187         8.8466         9.6255         9.5737      -151.8849       125.8040      2364.6965
    3782.11080         8.5000         8.3103         2.5558       0.021835        66.2639       112.2294        68.7072         0.1825         0.1797         3.0527         7.0461         7.6994         7.7710      -151.9217       125.8040      2369.6262
    3782.26320         8.5000         8.3029         2.5354       0.019364        66.3689       112.7222        69.4243         0.1812         0.1783         3.0031         6.2783         6.8363         7.0360      -151.9801       125.8040      2373.7151
    3782.41560         8.5000         8.2954         2.5150       0.016894        66.4738       113.2149        70.1414         0.1798         0.1770         2.9535         5.5105         5.9732         6.3009      -152.0385       125.8040      2377.8040
    3782.56800         8.5000         8.3056         2.5118       0.014982        66.3630       113.2376        72.4403         0.1808         0.1778         2.9252         6.0932         6.5073         6.7627      -152.1345       125.8040      2375.0813
    3782.72040         8.5000         8.3379         2.5300       0.013763        65.9843       112.6769        76.7027         0.1847         0.1815         2.9233         8.3520         8.7756         8.7102      -152.2772       125.8040      2363.9048
    3782.87280         8.5000         8.3701         2.5482       0.012544        65.6056       112.1161        80.9651         0.1886         0.1851         2.9214        10.6109        11.0439        10.6576      -152.4199       125.8040      2352.7280
    3783.02520         8.5000         8.4092         2.5639       0.010988        65.1339       111.5388        84.0164         0.1931         0.1892         2.9242        12.5071        12.9248        12.2849      -152.5130       125.8040      2343.6362
    3783.17760         8.5000         8.4828         2.5665       0.007728        64.1929       110.8779        80.9550         0.2007         0.1962         2.9512        12.5732        12.8506        12.2964      -152.3560       125.8040      2345.0691
    3783.33000         8.5000         8.5565         2.5692       0.004467        63.2520       110.2171        77.8935         0.2083         0.2031         2.9782        12.6392        12.7764        12.3079      -152.1990       125.8040      2346.5020
    3783.48240         8.5000         8.6301         2.5718       0.001207        62.3110       109.5562        74.8321         0.2160         0.2100         3.0051        12.7053        12.7021        12.3195      -152.0420       125.8040      2347.9348
    3783.63480         8.5000         8.6657         2.5770       0.000005        62.0311       108.8299        72.6613         0.2097         0.2043         3.0205        14.3102        14.0155        13.6879      -152.1184       125.8040      2348.9658
    3783.78720         8.5000         8.6964         2.5825      -0.000928        61.8375       108.0950        70.6067         0.2017         0.1970         3.0343        16.1161        15.5100        15.2335      -152.2252       125.8040      2349.9443
    3783.93960         8.5000         8.7270         2.5881      -0.001861        61.6440       107.3601        68.5521         0.1936         0.1897         3.0482        17.9219        17.0045        16.7791      -152.3320       125.8040      2350.9229
    3784.09200         8.5000         8.7523         2.5921      -0.001852        61.6528       106.7943        68.6094         0.1944         0.1902         3.0628        18.0826        17.0425        16.8501      -152.5046       125.8040      2351.6191
    3784.24440         8.5000         8.7740         2.5952      -0.001224        61.7945       106.3395        70.0530         0.2010         0.1960         3.0778        17.1633        16.1242        15.9529      -152.7205       125.8040      2352.1304
    3784.39680         8.5000         8.7958         2.5983      -0.000596        61.9362       105.8848        71.4966         0.2076         0.2017         3.0928        16.2440        15.2059        15.0557      -152.9363       125.8040      2352.6414
    3784.54920         8.5000         8.8190         2.5999       0.000727        62.0850       105.4948        71.5090         0.2105         0.2042         3.1026        15.5707        14.5389        14.3419      -153.1840       125.8040      2354.6572
    3784.70160         8.5000         8.8454         2.5983       0.003510        62.2487       105.2409        68.5192         0.2057         0.2000         3.1015        15.4137        14.3993        14.0126      -153.4987       125.8040      2359.8296
