~Version Information Block
VERS .                 2.00:  CWLS LOG ASCII STANDARD - VERSION 2.00
WRAP .                   NO:  One line per depth step
~Well Information Block
#MNEM.UNIT        Data Type   Information
#---------- ----------------  -----------
STRT .M          3141.11640:  START DEPTH
STOP .M          4189.93320:  STOP DEPTH
STEP .M             0.15240:  STEP
NULL .              -999.25:  NULL VALUE
COMP .                     :  COMPANY
WELL .             Pukeko-1:  WELL
FLD  .                     :  FIELD
LOC  .                     :  LOCATION
CTRY .                     :  COUNTRY
STAT .                     :  STATE
CNTY .                     :  COUNTY
SRVC .     New Zealand Overseas Petroleum Ltd:  SERVICE COMPANY
DATE .                     :  DATE
API  .                     :  API NUMBER
UWI  .         100000502205:  UNIQUE WELL ID
LATI .          -39.9215617:  LATITUDE
LONG .          172.9374089:  LONGITUDE
~Curve Information Block
#MNEM.UNIT         API CODE   Curve Description
#---------- ----------------  -----------------
DEPTH.M                    :  
BS   .IN                   :  Bit Size (Created in Geolog)
CALI .IN                   :  HRCC Cal. Caliper (HCAL)
DENS .G/C3                 :  HRDD High Resolution Formation Density (RHO8)
DRHO .G/C3                 :  HRDD Density Correction (HDRA)
DTC  .US/F                 :  Delta-T Compressional (DTCO)
DTS  .US/F                 :  Delta-T Shear (DTSM)
GR   .GAPI                 :  HiRes Gamma-Ray (HGR)
NEUT .V/V                  :  HiRes Thermal Neutron Porosity (HTNP)
NEUT_CORR.V/V                  :  Corrected NPHI (limestone units)
PEF  .B/E                  :  HRDD High Resolution Formation Photoelectric Factor (PEF8)
RESD .OHMM                 :  HRLT Borehole Corrected Resistivity 5 (RLA5)
RESM .OHMM                 :  HRLT Borehole Corrected Resistivity 3 (RLA3)
RESS .OHMM                 :  HRLT Borehole Corrected Resistivity 1 (RLA1)
SP   .MV                   :  SP Shifted (SP)
TEMP .DEGC                 :  Cartridge Temperature (CTEM)
TENS .KGF                  :  Cable Tension (TENS)
~Parameter Information Block
#MNEM.UNIT            Value   Description
#---------- ----------------  -----------
CUR_INT_BOT.M                4190:  Current interpolated bottom
PROJECT.     New Zealand Log QC Project:  
SET  .     A0_FINAL_INTER_REF_D:  
ELEVATION_AMSL.M                  25:  Elevation above mean sea level
ELEVATION_REF.                   KB:  Measurement reference
FORMATION_AT_TD.             Basement:  Formation at TD
LICENCE_NUMBER.             PEP38460:  Licence number
ONSHORE_OR_OFFSHORE.             Offshore:  Onshore/offshore
PR_NUMBER.               PR2928:  Petroleum report number
SEAFLOOR_ELEVATION_BMSL.M            157.3000:  Seafloor elevation below mean sea level
SPUD_DATE.           28/04/2004:  Spud date
STATUS_AT_COMPLETION.     Temporary suspended:  Status at completion
TD_DATE.           26/05/2004:  Total depth date
TOTAL_DEPTH_DRILLED.M                4190:  Total depth drilled
WATER_DEPTH.M               132.3:  Water depth
~Other Information Block
# 
~A       DEPTH             BS           CALI           DENS           DRHO            DTC            DTS             GR           NEUT      NEUT_CORR            PEF           RESD           RESM           RESS             SP           TEMP           TENS 
# ...
    3648.30360         8.5000         8.4786         2.5672       0.011154        65.5632       110.4847        82.8878         0.2363         0.2313         3.2770        15.5857        16.3183        14.9075      -154.6751       122.5099      2320.5352
    3648.45600         8.5000         8.4367         2.5478       0.010697        66.3754       110.4583        83.0728         0.2296         0.2247         3.1046        15.7476        16.7506        15.2286      -153.4617       122.5099      2325.1636
    3648.60840         8.5000         8.4016         2.5292       0.009757        66.9385       111.0271        81.0565         0.2245         0.2194         3.0097        13.8032        14.7511        13.6053      -152.7123       122.5099      2330.7734
    3648.76080         8.5000         8.3692         2.5108       0.008621        67.4004       111.8375        78.1468         0.2201         0.2146         2.9461        11.0037        11.7647        11.1929      -152.1512       122.5099      2336.7820
    3648.91320         8.5000         8.3369         2.4925       0.007485        67.8624       112.6479        75.2371         0.2157         0.2098         2.8826         8.2042         8.7782         8.7804      -151.5901       122.5099      2342.7903
    3649.06560         8.5000         8.3225         2.4858       0.006063        67.6457       112.7043        74.4051         0.2146         0.2086         2.8347         6.7995         7.2658         7.5716      -151.3425       122.5099      2343.5654
    3649.21800         8.5000         8.3319         2.4946       0.004261        66.5309       111.7631        76.3223         0.2180         0.2123         2.8074         7.2404         7.7038         7.9552      -151.5097       122.5099      2337.4163
    3649.37040         8.5000         8.3413         2.5033       0.002460        65.4162       110.8219        78.2395         0.2214         0.2160         2.7802         7.6813         8.1418         8.3389      -151.6768       122.5099      2331.2668
    3649.52280         8.5000         8.3531         2.5150       0.000764        64.3092       109.6831        79.5274         0.2232         0.2180         2.7888         9.2225         9.6447         9.6872      -151.8830       122.5099      2325.3367
    3649.67520         8.5000         8.3781         2.5433      -0.000329        63.2462       107.4207        77.2375         0.2155         0.2104         3.0019        17.0182        17.2001        16.5185      -152.3108       122.5099      2320.6509
    3649.82760         8.5000         8.4031         2.5715      -0.001422        62.1831       105.1584        74.9476         0.2078         0.2028         3.2149        24.8140        24.7556        23.3499      -152.7386       122.5099      2315.9651
    3649.98000         8.5000         8.4281         2.5997      -0.002515        61.1201       102.8961        72.6578         0.2001         0.1952         3.4279        32.6097        32.3110        30.1813      -153.1664       122.5099      2311.2795
    3650.13240         8.5000         8.4253         2.6050      -0.002397        60.7218       102.1534        71.0288         0.1926         0.1883         3.4915        34.8164        34.1154        32.6801      -153.2824       122.5099      2311.2803
    3650.28480         8.5000         8.4183         2.6068      -0.002095        60.4239       101.6402        69.4997         0.1853         0.1815         3.5324        36.1788        35.0511        34.5245      -153.3513       122.5099      2311.9893
    3650.43720         8.5000         8.4113         2.6087      -0.001793        60.1261       101.1271        67.9705         0.1779         0.1746         3.5734        37.5412        35.9868        36.3689      -153.4203       122.5099      2312.6982
    3650.58960         8.5000         8.4145         2.6173      -0.000430        60.2416       101.2393        66.3853         0.1776         0.1745         3.6314        44.4106        42.1473        42.0384      -153.1775       122.5099      2311.6558
    3650.74200         8.5000         8.4248         2.6307       0.001678        60.6468       101.7897        64.7608         0.1823         0.1790         3.7014        55.1400        51.9699        50.3888      -152.7162       122.5099      2309.3860
    3650.89440         8.5000         8.4351         2.6441       0.003786        61.0520       102.3402        63.1362         0.1870         0.1835         3.7714        65.8693        61.7924        58.7392      -152.2549       122.5099      2307.1162
    3651.04680         8.5000         8.4328         2.6376       0.006549        61.8395       103.4265        64.4480         0.1937         0.1900         3.7462        67.2086        62.9334        59.2631      -151.7788       122.5099      2307.5742
    3651.19920         8.5000         8.4023         2.5861       0.010788        63.4896       105.7217        72.3853         0.2049         0.2007         3.5064        47.3601        44.4851        42.1269      -151.2696       122.5099      2314.1870
    3651.35160         8.5000         8.3718         2.5345       0.015028        65.1398       108.0169        80.3225         0.2160         0.2115         3.2666        27.5117        26.0368        24.9908      -150.7604       122.5099      2320.7998
    3651.50400         8.5000         8.3417         2.4844       0.019193        66.7530       110.2922        88.0385         0.2269         0.2221         3.0322         8.1765         8.0672         8.2968      -150.2606       122.5099      2327.1980
    3651.65640         8.5000         8.3240         2.4876       0.020624        66.9965       111.8307        87.5442         0.2274         0.2226         2.9971         7.8873         7.8546         8.0089      -150.1128       122.5099      2325.6353
    3651.80880         8.5000         8.3064         2.4908       0.022055        67.2399       113.3691        87.0499         0.2279         0.2232         2.9621         7.5980         7.6420         7.7210      -149.9650       122.5099      2324.0725
    3651.96120         8.5000         8.2887         2.4939       0.023486        67.4833       114.9076        86.5556         0.2284         0.2237         2.9270         7.3087         7.4294         7.4331      -149.8172       122.5099      2322.5098
    3652.11360         8.5000         8.2884         2.4955       0.020838        67.6417       115.4129        85.0933         0.2270         0.2222         2.8765         7.3877         7.5771         7.4015      -149.8808       122.5099      2319.5215
    3652.26600         8.5000         8.2941         2.4964       0.016798        67.7710       115.5654        83.3004         0.2249         0.2198         2.8208         7.5924         7.8478         7.4574      -150.0166       122.5099      2316.0464
    3652.41840         8.5000         8.2998         2.4974       0.012757        67.9004       115.7179        81.5075         0.2228         0.2175         2.7651         7.7971         8.1186         7.5133      -150.1524       122.5099      2312.5713
    3652.57080         8.5000         8.3009         2.4963       0.010932        68.0376       115.8726        80.9905         0.2240         0.2188         2.7594         7.8214         8.1939         7.4548      -150.3604       122.5099      2308.8987
    3652.72320         8.5000         8.2970         2.4930       0.011661        68.1841       116.0301        81.9440         0.2290         0.2242         2.8116         7.6376         8.0439         7.2643      -150.6516       122.5099      2304.9980
    3652.87560         8.5000         8.2930         2.4896       0.012390        68.3306       116.1875        82.8975         0.2340         0.2296         2.8637         7.4539         7.8939         7.0738      -150.9429       122.5099      2301.0974
    3653.02800         8.5000         8.2880         2.4874       0.013061        68.5153       116.3283        83.6610         0.2381         0.2340         2.9051         7.1580         7.6113         6.8054      -151.1548       122.5099      2298.1736
