~Version Information Block
VERS .                 2.00:  CWLS LOG ASCII STANDARD - VERSION 2.00
WRAP .                   NO:  One line per depth step
~Well Information Block
#MNEM.UNIT        Data Type   Information
#---------- ----------------  -----------
STRT .M          3141.11640:  START DEPTH
STOP .M          4189.93320:  STOP DEPTH
STEP .M             0.15240:  STEP
NULL .              -999.25:  NULL VALUE
COMP .                     :  COMPANY
WELL .             Pukeko-1:  WELL
FLD  .                     :  FIELD
LOC  .                     :  LOCATION
CTRY .                     :  COUNTRY
STAT .                     :  STATE
CNTY .                     :  COUNTY
SRVC .     New Zealand Overseas Petroleum Ltd:  SERVICE COMPANY
DATE .                     :  DATE
API  .                     :  API NUMBER
UWI  .         100000502205:  UNIQUE WELL ID
LATI .          -39.9215617:  LATITUDE
LONG .          172.9374089:  LONGITUDE
~Curve Information Block
#MNEM.UNIT         API CODE   Curve Description
#---------- ----------------  -----------------
DEPTH.M                    :  
BS   .IN                   :  Bit Size (Created in Geolog)
CALI .IN                   :  HRCC Cal. Caliper (HCAL)
DENS .G/C3                 :  HRDD High Resolution Formation Density (RHO8)
DRHO .G/C3                 :  HRDD Density Correction (HDRA)
DTC  .US/F                 :  Delta-T Compressional (DTCO)
DTS  .US/F                 :  Delta-T Shear (DTSM)
GR   .GAPI                 :  HiRes Gamma-Ray (HGR)
NEUT .V/V                  :  HiRes Thermal Neutron Porosity (HTNP)
NEUT_CORR.V/V                  :  Corrected NPHI (limestone units)
PEF  .B/E                  :  HRDD High Resolution Formation Photoelectric Factor (PEF8)
RESD .OHMM                 :  HRLT Borehole Corrected Resistivity 5 (RLA5)
RESM .OHMM                 :  HRLT Borehole Corrected Resistivity 3 (RLA3)
RESS .OHMM                 :  HRLT Borehole Corrected Resistivity 1 (RLA1)
SP   .MV                   :  SP Shifted (SP)
TEMP .DEGC                 :  Cartridge Temperature (CTEM)
TENS .KGF                  :  Cable Tension (TENS)
~Parameter Information Block
#MNEM.UNIT            Value   Description
#---------- ----------------  -----------
CUR_INT_BOT.M                4190:  Current interpolated bottom
PROJECT.     New Zealand Log QC Project:  
SET  .     A0_FINAL_INTER_REF_D:  
ELEVATION_AMSL.M                  25:  Elevation above mean sea level
ELEVATION_REF.                   KB:  Measurement reference
FORMATION_AT_TD.             Basement:  Formation at TD
LICENCE_NUMBER.             PEP38460:  Licence number
ONSHORE_OR_OFFSHORE.             Offshore:  Onshore/offshore
PR_NUMBER.               PR2928:  Petroleum report number
SEAFLOOR_ELEVATION_BMSL.M            157.3000:  Seafloor elevation below mean sea level
SPUD_DATE.           28/04/2004:  Spud date
STATUS_AT_COMPLETION.     Temporary suspended:  Status at completion
TD_DATE.           26/05/2004:  Total depth date
TOTAL_DEPTH_DRILLED.M                4190:  Total depth drilled
WATER_DEPTH.M               132.3:  Water depth
~Other Information Block
# 
~A       DEPTH             BS           CALI           DENS           DRHO            DTC            DTS             GR           NEUT      NEUT_CORR            PEF           RESD           RESM           RESS             SP           TEMP           TENS 
# ...
    3384.95640         8.5000         8.3377         2.3856       0.006186        75.4604       134.1415        55.2508         0.2223         0.2170         2.2384         2.0914         1.8116         1.6203      -144.5908       117.0197      2222.3708
    3385.10880         8.5000         8.3384         2.3903       0.005742        75.2362       133.3460        56.3942         0.2179         0.2124         2.2540         2.1715         1.8973         1.6732      -144.7521       117.0197      2231.4194
    3385.26120         8.5000         8.3388         2.3961       0.005553        75.0599       132.3836        58.5921         0.2133         0.2075         2.2782         2.2776         2.0034         1.7605      -144.8425       117.0197      2243.8840
    3385.41360         8.5000         8.3393         2.4020       0.005363        74.8837       131.4212        60.7900         0.2086         0.2027         2.3023         2.3836         2.1096         1.8478      -144.9330       117.0197      2256.3486
    3385.56600         8.5000         8.3401         2.4021       0.004372        74.7520       130.5391        60.9318         0.2080         0.2020         2.3124         2.4257         2.1452         1.9031      -145.0349       117.0197      2258.1304
    3385.71840         8.5000         8.3413         2.3947       0.002330        74.6788       129.7619        58.3818         0.2126         0.2068         2.3040         2.3839         2.0884         1.9166      -145.1517       117.0197      2245.9280
    3385.87080         8.5000         8.3426         2.3874       0.000288        74.6057       128.9848        55.8318         0.2172         0.2115         2.2956         2.3422         2.0315         1.9300      -145.2685       117.0197      2233.7253
    3386.02320         8.5000         8.3435         2.3838      -0.001009        74.5199       128.3607        54.4791         0.2211         0.2156         2.3028         2.3376         2.0186         1.9911      -145.3444       117.0197      2222.1475
    3386.17560         8.5000         8.3420         2.4013       0.001844        74.3641       128.5889        59.7939         0.2214         0.2160         2.3968         2.5400         2.2498         2.3173      -145.1930       117.0197      2214.0481
    3386.32800         8.5000         8.3406         2.4187       0.004696        74.2084       128.8170        65.1086         0.2217         0.2163         2.4909         2.7423         2.4811         2.6436      -145.0416       117.0197      2205.9487
    3386.48040         8.5000         8.3392         2.4362       0.007549        74.0526       129.0453        70.4234         0.2220         0.2166         2.5849         2.9447         2.7123         2.9698      -144.8902       117.0197      2197.8496
    3386.63280         8.5000         8.3407         2.4393       0.008516        74.0149       129.1032        73.1367         0.2265         0.2214         2.6046         3.0940         2.9102         3.0717      -144.8580       117.0197      2201.9292
    3386.78520         8.5000         8.3425         2.4403       0.009204        73.9947       129.1361        75.4661         0.2316         0.2269         2.6134         3.2355         3.1032         3.1405      -144.8434       117.0197      2207.8064
    3386.93760         8.5000         8.3444         2.4413       0.009893        73.9744       129.1689        77.7956         0.2367         0.2324         2.6221         3.3770         3.2962         3.2092      -144.8288       117.0197      2213.6833
    3387.09000         8.5000         8.3481         2.4402       0.008739        74.0886       129.1512        78.5421         0.2386         0.2344         2.6219         3.3429         3.3445         3.1748      -144.9565       117.0197      2224.5271
    3387.24240         8.5000         8.3530         2.4376       0.006308        74.2960       129.0984        78.1911         0.2383         0.2342         2.6155         3.1872         3.2924         3.0688      -145.1829       117.0197      2238.8142
    3387.39480         8.5000         8.3579         2.4350       0.003876        74.5034       129.0455        77.8402         0.2381         0.2340         2.6091         3.0314         3.2404         2.9628      -145.4093       117.0197      2253.1011
    3387.54720         8.5000         8.3583         2.4318       0.002976        74.8727       130.2376        76.9601         0.2376         0.2335         2.5971         2.8941         3.1728         2.8885      -145.6236       117.0197      2263.1973
    3387.69960         8.5000         8.3485         2.4272       0.005487        75.6031       134.2044        74.9005         0.2366         0.2324         2.5726         2.7977         3.0702         2.8850      -145.8110       117.0197      2263.9529
    3387.85200         8.5000         8.3387         2.4226       0.007999        76.3334       138.1711        72.8409         0.2355         0.2314         2.5480         2.7013         2.9676         2.8815      -145.9983       117.0197      2264.7085
    3388.00440         8.5000         8.3298         2.4178       0.010435        77.0603       142.0774        70.8590         0.2352         0.2311         2.5243         2.6178         2.8776         2.8879      -146.1921       117.0197      2265.3674
    3388.15680         8.5000         8.3510         2.4033       0.010341        77.6743       143.9501        71.4881         0.2590         0.2547         2.5275         2.9681         3.2113         3.2261      -146.6032       117.0197      2262.7769
    3388.30920         8.5000         8.3721         2.3889       0.010247        78.2882       145.8229        72.1171         0.2828         0.2783         2.5307         3.3184         3.5450         3.5642      -147.0144       117.0197      2260.1863
    3388.46160         8.5000         8.3932         2.3744       0.010152        78.9022       147.6957        72.7462         0.3066         0.3019         2.5339         3.6686         3.8788         3.9024      -147.4256       117.0197      2257.5959
    3388.61400         8.5000         8.4159         2.4213       0.009912        78.0127       144.7080        84.1389         0.3417         0.3372         2.5647         7.3424         7.6825         8.1764      -147.6722       117.0197      2253.0413
    3388.76640         8.5000         8.4392         2.4888       0.009622        76.6168       140.0830        99.1572         0.3805         0.3764         2.6049        12.1357        12.6552        13.7761      -147.8635       117.0197      2247.8250
    3388.91880         8.5000         8.4624         2.5564       0.009332        75.2209       135.4581       114.1755         0.4193         0.4156         2.6451        16.9290        17.6278        19.3759      -148.0548       117.0197      2242.6089
    3389.07120         8.5000         8.4801         2.5819       0.009297        74.3780       131.8204       120.3780         0.4290         0.4255         2.6640        17.4722        18.2025        19.9947      -148.0317       117.0197      2239.9297
    3389.22360         8.5000         8.4914         2.5596       0.009553        74.1658       129.3086       116.5266         0.4055         0.4018         2.6586        13.1684        13.7618        14.9329      -147.7643       117.0197      2240.1438
    3389.37600         8.5000         8.5028         2.5372       0.009808        73.9536       126.7968       112.6752         0.3820         0.3782         2.6531         8.8645         9.3210         9.8710      -147.4968       117.0197      2240.3582
    3389.52840         8.5000         8.5029         2.5125       0.009935        73.9023       124.9698       107.2167         0.3559         0.3519         2.6273         5.2220         5.5603         5.6196      -147.1874       117.0197      2240.1301
    3389.68080         8.5000         8.4542         2.4778       0.009502        74.5534       126.1327        94.7415         0.3182         0.3141         2.5128         4.4668         4.7692         4.9066      -146.6950       117.0197      2237.9714
