~Version Information Block
VERS .                 2.00:  CWLS LOG ASCII STANDARD - VERSION 2.00
WRAP .                   NO:  One line per depth step
~Well Information Block
#MNEM.UNIT        Data Type   Information
#---------- ----------------  -----------
STRT .M          3141.11640:  START DEPTH
STOP .M          4189.93320:  STOP DEPTH
STEP .M             0.15240:  STEP
NULL .              -999.25:  NULL VALUE
COMP .                     :  COMPANY
WELL .             Pukeko-1:  WELL
FLD  .                     :  FIELD
LOC  .                     :  LOCATION
CTRY .                     :  COUNTRY
STAT .                     :  STATE
CNTY .                     :  COUNTY
SRVC .     New Zealand Overseas Petroleum Ltd:  SERVICE COMPANY
DATE .                     :  DATE
API  .                     :  API NUMBER
UWI  .         100000502205:  UNIQUE WELL ID
LATI .          -39.9215617:  LATITUDE
LONG .          172.9374089:  LONGITUDE
~Curve Information Block
#MNEM.UNIT         API CODE   Curve Description
#---------- ----------------  -----------------
DEPTH.M                    :  
BS   .IN                   :  Bit Size (Created in Geolog)
CALI .IN                   :  HRCC Cal. Caliper (HCAL)
DENS .G/C3                 :  HRDD High Resolution Formation Density (RHO8)
DRHO .G/C3                 :  HRDD Density Correction (HDRA)
DTC  .US/F                 :  Delta-T Compressional (DTCO)
DTS  .US/F                 :  Delta-T Shear (DTSM)
GR   .GAPI                 :  HiRes Gamma-Ray (HGR)
NEUT .V/V                  :  HiRes Thermal Neutron Porosity (HTNP)
NEUT_CORR.V/V                  :  Corrected NPHI (limestone units)
PEF  .B/E                  :  HRDD High Resolution Formation Photoelectric Factor (PEF8)
RESD .OHMM                 :  HRLT Borehole Corrected Resistivity 5 (RLA5)
RESM .OHMM                 :  HRLT Borehole Corrected Resistivity 3 (RLA3)
RESS .OHMM                 :  HRLT Borehole Corrected Resistivity 1 (RLA1)
SP   .MV                   :  SP Shifted (SP)
TEMP .DEGC                 :  Cartridge Temperature (CTEM)
TENS .KGF                  :  Cable Tension (TENS)
~Parameter Information Block
#MNEM.UNIT            Value   Description
#---------- ----------------  -----------
CUR_INT_BOT.M                4190:  Current interpolated bottom
PROJECT.     New Zealand Log QC Project:  
SET  .     A0_FINAL_INTER_REF_D:  
ELEVATION_AMSL.M                  25:  Elevation above mean sea level
ELEVATION_REF.                   KB:  Measurement reference
FORMATION_AT_TD.             Basement:  Formation at TD
LICENCE_NUMBER.             PEP38460:  Licence number
ONSHORE_OR_OFFSHORE.             Offshore:  Onshore/offshore
PR_NUMBER.               PR2928:  Petroleum report number
SEAFLOOR_ELEVATION_BMSL.M            157.3000:  Seafloor elevation below mean sea level
SPUD_DATE.           28/04/2004:  Spud date
STATUS_AT_COMPLETION.     Temporary suspended:  Status at completion
TD_DATE.           26/05/2004:  Total depth date
TOTAL_DEPTH_DRILLED.M                4190:  Total depth drilled
WATER_DEPTH.M               132.3:  Water depth
~Other Information Block
# 
~A       DEPTH             BS           CALI           DENS           DRHO            DTC            DTS             GR           NEUT      NEUT_CORR            PEF           RESD           RESM           RESS             SP           TEMP           TENS 
# ...
    4179.87480         8.5000         8.4153         2.4391      -0.040245        64.4626       112.4154      -999.2500      -999.2500      -999.2500         3.0798        11.1738        10.5245         9.1792      -153.2892       130.1962      2560.8804
    4180.02720         8.5000         8.4114         2.4395      -0.039617        65.0543       113.1074      -999.2500      -999.2500      -999.2500         3.0735        10.8058        10.1815         8.9027      -153.1276       130.1962      2554.6299
    4180.17960         8.5000         8.4079         2.4373      -0.037849        63.7759       113.5119      -999.2500      -999.2500      -999.2500         3.0776        10.5846        10.0575         8.7277      -153.2201       130.1962      2551.2517
    4180.33200         8.5000         8.4044         2.4351      -0.036081        62.4975       113.9164      -999.2500      -999.2500      -999.2500         3.0817        10.3635         9.9335         8.5526      -153.3126       130.1962      2547.8738
    4180.48440         8.5000         8.4009         2.4329      -0.034312        61.2190       114.3209      -999.2500      -999.2500      -999.2500         3.0858        10.1423         9.8095         8.3776      -153.4050       130.1962      2544.4956
    4180.63680         8.5000         8.3991         2.4314      -0.032391        61.3327       114.3662      -999.2500      -999.2500      -999.2500         3.0907         9.7648         9.4481         8.0994      -153.2133       130.1962      2553.4575
    4180.78920         8.5000         8.3975         2.4300      -0.030452        61.6052       114.3704      -999.2500      -999.2500      -999.2500         3.0956         9.3695         9.0597         7.8093      -152.9892       130.1962      2563.8267
    4180.94160         8.5000         8.3958         2.4285      -0.028513        61.8776       114.3747      -999.2500      -999.2500      -999.2500         3.1005         8.9742         8.6712         7.5193      -152.7651       130.1962      2574.1958
    4181.09400         8.5000      -999.2500      -999.2500    -999.250000      -999.2500      -999.2500      -999.2500      -999.2500      -999.2500      -999.2500         8.6238         8.3010         7.1545      -152.6275       130.1962      2576.7849
    4181.24640         8.5000      -999.2500      -999.2500    -999.250000      -999.2500      -999.2500      -999.2500      -999.2500      -999.2500      -999.2500         8.3015         7.9421         6.7431      -152.5438       130.1962      2574.5405
    4181.39880         8.5000      -999.2500      -999.2500    -999.250000      -999.2500      -999.2500      -999.2500      -999.2500      -999.2500      -999.2500         7.9791         7.5832         6.3318      -152.4601       130.1962      2572.2961
    4181.55120         8.5000      -999.2500      -999.2500    -999.250000      -999.2500      -999.2500      -999.2500      -999.2500      -999.2500      -999.2500         8.2225         7.7554         6.3451      -152.6181       130.1962      2568.3286
    4181.70360         8.5000      -999.2500      -999.2500    -999.250000      -999.2500      -999.2500      -999.2500      -999.2500      -999.2500      -999.2500         9.5842         8.9776         7.1977      -153.2540       130.1962      2560.9546
    4181.85600         8.5000      -999.2500      -999.2500    -999.250000      -999.2500      -999.2500      -999.2500      -999.2500      -999.2500      -999.2500        10.9458        10.1997         8.0503      -153.8899       130.1962      2553.5808
    4182.00840         8.5000      -999.2500      -999.2500    -999.250000      -999.2500      -999.2500      -999.2500      -999.2500      -999.2500      -999.2500        12.2848        11.3893         8.8486      -154.4968       130.1962      2546.7698
    4182.16080         8.5000      -999.2500      -999.2500    -999.250000      -999.2500      -999.2500      -999.2500      -999.2500      -999.2500      -999.2500        13.2342        12.0231         8.7158      -154.6074       130.1962      2549.6108
    4182.31320         8.5000      -999.2500      -999.2500    -999.250000      -999.2500      -999.2500      -999.2500      -999.2500      -999.2500      -999.2500        14.1837        12.6568         8.5829      -154.7180       130.1962      2552.4519
    4182.46560         8.5000      -999.2500      -999.2500    -999.250000      -999.2500      -999.2500      -999.2500      -999.2500      -999.2500      -999.2500        15.1331        13.2906         8.4501      -154.8286       130.1962      2555.2930
    4182.61800         8.5000      -999.2500      -999.2500    -999.250000      -999.2500      -999.2500      -999.2500      -999.2500      -999.2500      -999.2500        15.5813        13.5797         7.7078      -154.9840       130.1962      2558.7437
    4182.77040         8.5000      -999.2500      -999.2500    -999.250000      -999.2500      -999.2500      -999.2500      -999.2500      -999.2500      -999.2500        15.8834        13.7683         6.7879      -155.1524       130.1962      2562.3718
    4182.92280         8.5000      -999.2500      -999.2500    -999.250000      -999.2500      -999.2500      -999.2500      -999.2500      -999.2500      -999.2500        16.1855        13.9569         5.8680      -155.3209       130.1962      2566.0000
    4183.07520         8.5000      -999.2500      -999.2500    -999.250000      -999.2500      -999.2500      -999.2500      -999.2500      -999.2500      -999.2500        16.2654        14.1190         5.2052      -155.4405       130.1962      2567.8035
    4183.22760         8.5000      -999.2500      -999.2500    -999.250000      -999.2500      -999.2500      -999.2500      -999.2500      -999.2500      -999.2500        16.1173        14.2539         4.8063      -155.5099       130.1962      2567.7334
    4183.38000         8.5000      -999.2500      -999.2500    -999.250000      -999.2500      -999.2500      -999.2500      -999.2500      -999.2500      -999.2500        15.9691        14.3888         4.4074      -155.5793       130.1962      2567.6636
    4183.53240         8.5000      -999.2500      -999.2500    -999.250000      -999.2500      -999.2500      -999.2500      -999.2500      -999.2500      -999.2500        15.8011        14.4851         4.1318      -155.5855       130.1962      2566.1277
    4183.68480         8.5000      -999.2500      -999.2500    -999.250000      -999.2500      -999.2500      -999.2500      -999.2500      -999.2500      -999.2500        15.5596        14.4383         4.3131      -155.3576       130.1962      2559.1621
    4183.83720         8.5000      -999.2500      -999.2500    -999.250000      -999.2500      -999.2500      -999.2500      -999.2500      -999.2500      -999.2500        15.3181        14.3915         4.4943      -155.1296       130.1962      2552.1968
    4183.98960         8.5000      -999.2500      -999.2500    -999.250000      -999.2500      -999.2500      -999.2500      -999.2500      -999.2500      -999.2500        15.0767        14.3447         4.6755      -154.9017       130.1962      2545.2314
    4184.14200         8.5000      -999.2500      -999.2500    -999.250000      -999.2500      -999.2500      -999.2500      -999.2500      -999.2500      -999.2500        14.6975        14.0966         5.3126      -155.0950       130.1962      2545.9888
    4184.29440         8.5000      -999.2500      -999.2500    -999.250000      -999.2500      -999.2500      -999.2500      -999.2500      -999.2500      -999.2500        14.3084        13.8338         5.9831      -155.3191       130.1962      2547.3118
    4184.44680         8.5000      -999.2500      -999.2500    -999.250000      -999.2500      -999.2500      -999.2500      -999.2500      -999.2500      -999.2500        13.9192        13.5710         6.6536      -155.5432       130.1962      2548.6348
    4184.59920         8.5000      -999.2500      -999.2500    -999.250000      -999.2500      -999.2500      -999.2500      -999.2500      -999.2500      -999.2500        13.9269        13.6522         7.3884      -155.8837       130.1962      2551.3911
