~Version Information Block
VERS .                 2.00:  CWLS LOG ASCII STANDARD - VERSION 2.00
WRAP .                   NO:  One line per depth step
~Well Information Block
#MNEM.UNIT        Data Type   Information
#---------- ----------------  -----------
STRT .M          3141.11640:  START DEPTH
STOP .M          4189.93320:  STOP DEPTH
STEP .M             0.15240:  STEP
NULL .              -999.25:  NULL VALUE
COMP .                     :  COMPANY
WELL .             Pukeko-1:  WELL
FLD  .                     :  FIELD
LOC  .                     :  LOCATION
CTRY .                     :  COUNTRY
STAT .                     :  STATE
CNTY .                     :  COUNTY
SRVC .     New Zealand Overseas Petroleum Ltd:  SERVICE COMPANY
DATE .                     :  DATE
API  .                     :  API NUMBER
UWI  .         100000502205:  UNIQUE WELL ID
LATI .          -39.9215617:  LATITUDE
LONG .          172.9374089:  LONGITUDE
~Curve Information Block
#MNEM.UNIT         API CODE   Curve Description
#---------- ----------------  -----------------
DEPTH.M                    :  
BS   .IN                   :  Bit Size (Created in Geolog)
CALI .IN                   :  HRCC Cal. Caliper (HCAL)
DENS .G/C3                 :  HRDD High Resolution Formation Density (RHO8)
DRHO .G/C3                 :  HRDD Density Correction (HDRA)
DTC  .US/F                 :  Delta-T Compressional (DTCO)
DTS  .US/F                 :  Delta-T Shear (DTSM)
GR   .GAPI                 :  HiRes Gamma-Ray (HGR)
NEUT .V/V                  :  HiRes Thermal Neutron Porosity (HTNP)
NEUT_CORR.V/V                  :  Corrected NPHI (limestone units)
PEF  .B/E                  :  HRDD High Resolution Formation Photoelectric Factor (PEF8)
RESD .OHMM                 :  HRLT Borehole Corrected Resistivity 5 (RLA5)
RESM .OHMM                 :  HRLT Borehole Corrected Resistivity 3 (RLA3)
RESS .OHMM                 :  HRLT Borehole Corrected Resistivity 1 (RLA1)
SP   .MV                   :  SP Shifted (SP)
TEMP .DEGC                 :  Cartridge Temperature (CTEM)
TENS .KGF                  :  Cable Tension (TENS)
~Parameter Information Block
#MNEM.UNIT            Value   Description
#---------- ----------------  -----------
CUR_INT_BOT.M                4190:  Current interpolated bottom
PROJECT.     New Zealand Log QC Project:  
SET  .     A0_FINAL_INTER_REF_D:  
ELEVATION_AMSL.M                  25:  Elevation above mean sea level
ELEVATION_REF.                   KB:  Measurement reference
FORMATION_AT_TD.             Basement:  Formation at TD
LICENCE_NUMBER.             PEP38460:  Licence number
ONSHORE_OR_OFFSHORE.             Offshore:  Onshore/offshore
PR_NUMBER.               PR2928:  Petroleum report number
SEAFLOOR_ELEVATION_BMSL.M            157.3000:  Seafloor elevation below mean sea level
SPUD_DATE.           28/04/2004:  Spud date
STATUS_AT_COMPLETION.     Temporary suspended:  Status at completion
TD_DATE.           26/05/2004:  Total depth date
TOTAL_DEPTH_DRILLED.M                4190:  Total depth drilled
WATER_DEPTH.M               132.3:  Water depth
~Other Information Block
# 
~A       DEPTH             BS           CALI           DENS           DRHO            DTC            DTS             GR           NEUT      NEUT_CORR            PEF           RESD           RESM           RESS             SP           TEMP           TENS 
# ...
    3516.63000         8.5000         8.3257         2.3785       0.005258        73.1607       128.7304        68.6929         0.2001         0.1951         2.4206         1.9975         1.9977         1.8818      -146.8929       119.2158      2303.4194
    3516.78240         8.5000         8.3267         2.3950       0.007052        71.9687       127.1861        70.2433         0.1960         0.1916         2.4591         2.2326         2.2044         2.0087      -147.0739       119.2158      2309.4128
    3516.93480         8.5000         8.3277         2.4116       0.008846        70.7766       125.6418        71.7937         0.1918         0.1882         2.4977         2.4677         2.4111         2.1356      -147.2550       119.2158      2315.4063
    3517.08720         8.5000         8.3348         2.4341       0.010707        70.2452       123.9312        73.3385         0.1934         0.1896         2.5001         2.9885         2.8655         2.5486      -147.5429       119.2158      2320.4646
    3517.23960         8.5000         8.3466         2.4609       0.012618        70.2077       122.0962        74.8791         0.1992         0.1946         2.4754         3.7230         3.5052         3.1755      -147.9109       119.2158      2324.8237
    3517.39200         8.5000         8.3583         2.4878       0.014529        70.1702       120.2612        76.4196         0.2050         0.1996         2.4508         4.4576         4.1450         3.8023      -148.2788       119.2158      2329.1829
    3517.54440         8.5000         8.3642         2.5060       0.015214        70.1885       119.1402        77.5295         0.2098         0.2038         2.4381         4.8971         4.5150         4.2032      -148.5732       119.2158      2330.3914
    3517.69680         8.5000         8.3562         2.5034       0.012917        70.3426       119.7561        77.5920         0.2121         0.2062         2.4548         4.6190         4.2289         4.0543      -148.6887       119.2158      2323.9360
    3517.84920         8.5000         8.3482         2.5008       0.010620        70.4967       120.3721        77.6544         0.2145         0.2086         2.4714         4.3408         3.9429         3.9054      -148.8043       119.2158      2317.4807
    3518.00160         8.5000         8.3402         2.4981       0.008323        70.6513       120.9857        77.7148         0.2168         0.2110         2.4874         4.0647         3.6592         3.7574      -148.9167       119.2158      2311.1211
    3518.15400         8.5000         8.3396         2.4943       0.006011        70.8600       121.3767        77.5812         0.2195         0.2139         2.4470         3.9740         3.5948         3.6918      -148.7423       119.2158      2313.7725
    3518.30640         8.5000         8.3390         2.4905       0.003700        71.0686       121.7678        77.4475         0.2222         0.2168         2.4065         3.8833         3.5304         3.6262      -148.5678       119.2158      2316.4241
    3518.45880         8.5000         8.3384         2.4867       0.001388        71.2772       122.1589        77.3138         0.2248         0.2197         2.3661         3.7926         3.4660         3.5607      -148.3933       119.2158      2319.0754
    3518.61120         8.5000         8.3402         2.4851       0.002353        71.2220       122.2558        78.7366         0.2289         0.2241         2.3679         3.9456         3.6433         3.7402      -148.3662       119.2158      2310.3015
    3518.76360         8.5000         8.3429         2.4843       0.004532        71.0690       122.2437        80.7361         0.2335         0.2289         2.3853         4.1889         3.9101         4.0106      -148.3937       119.2158      2297.2944
    3518.91600         8.5000         8.3455         2.4835       0.006712        70.9160       122.2315        82.7356         0.2382         0.2338         2.4028         4.4322         4.1769         4.2809      -148.4212       119.2158      2284.2874
    3519.06840         8.5000         8.3491         2.4895       0.009739        71.0478       122.6103        85.4782         0.2416         0.2373         2.4193         4.7637         4.5429         4.5947      -148.3669       119.2158      2279.6873
    3519.22080         8.5000         8.3539         2.5040       0.013809        71.5294       123.4693        89.1334         0.2437         0.2393         2.4348         5.2036         5.0307         4.9616      -148.2124       119.2158      2285.4114
    3519.37320         8.5000         8.3587         2.5185       0.017878        72.0109       124.3282        92.7886         0.2458         0.2412         2.4502         5.6435         5.5186         5.3286      -148.0579       119.2158      2291.1355
    3519.52560         8.5000         8.3617         2.5266       0.020520        72.5144       125.2630        95.0984         0.2471         0.2424         2.4670         5.8580         5.7796         5.5123      -147.9796       119.2158      2296.2703
    3519.67800         8.5000         8.3563         2.5030       0.016091        73.1261       126.5739        90.7436         0.2445         0.2399         2.4905         4.9557         4.9171         4.7876      -148.2792       119.2158      2298.4844
    3519.83040         8.5000         8.3509         2.4794       0.011662        73.7379       127.8847        86.3888         0.2418         0.2374         2.5140         4.0535         4.0545         4.0629      -148.5788       119.2158      2300.6987
    3519.98280         8.5000         8.3456         2.4558       0.007233        74.3497       129.1955        82.0341         0.2391         0.2349         2.5375         3.1512         3.1919         3.3383      -148.8784       119.2158      2302.9128
    3520.13520         8.5000         8.3486         2.4502       0.007288        74.0424       127.9736        87.4009         0.2467         0.2421         2.5511         3.0725         3.1138         3.2504      -148.9093       119.2158      2312.5681
    3520.28760         8.5000         8.3527         2.4468       0.007913        73.6182       126.4295        94.0046         0.2556         0.2505         2.5636         3.0985         3.1355         3.2435      -148.9060       119.2158      2323.1697
    3520.44000         8.5000         8.3568         2.4435       0.008538        73.1940       124.8855       100.6082         0.2644         0.2589         2.5760         3.1245         3.1572         3.2366      -148.9027       119.2158      2333.7715
    3520.59240         8.5000         8.3759         2.4593       0.008254        72.2068       123.0027       101.4018         0.2680         0.2622         2.5521         3.7944         3.7712         3.8457      -148.9068       119.3438      2335.7598
    3520.74480         8.5000         8.4048         2.4876       0.007380        70.8541       120.9001        98.4227         0.2682         0.2623         2.5047         4.8824         4.7699         4.8547      -148.9159       119.5550      2332.1550
    3520.89720         8.5000         8.4336         2.5159       0.006506        69.5014       118.7974        95.4437         0.2683         0.2624         2.4572         5.9705         5.7685         5.8637      -148.9250       119.7661      2328.5503
    3521.04960         8.5000         8.4536         2.5349       0.005805        68.5677       117.1768        93.5954         0.2686         0.2627         2.4264         6.8702         6.5686         6.6798      -148.8925       119.8531      2325.2026
    3521.20200         8.5000         8.4550         2.5350       0.005461        68.5026       116.5554        94.0907         0.2690         0.2632         2.4301         7.3797         6.9571         7.0960      -148.7738       119.6829      2322.3872
    3521.35440         8.5000         8.4564         2.5350       0.005118        68.4374       115.9339        94.5861         0.2694         0.2636         2.4338         7.8892         7.3457         7.5123      -148.6552       119.5127      2319.5720
