~Version Information Block
VERS .                 2.00:  CWLS LOG ASCII STANDARD - VERSION 2.00
WRAP .                   NO:  One line per depth step
~Well Information Block
#MNEM.UNIT        Data Type   Information
#---------- ----------------  -----------
STRT .M          3141.11640:  START DEPTH
STOP .M          4189.93320:  STOP DEPTH
STEP .M             0.15240:  STEP
NULL .              -999.25:  NULL VALUE
COMP .                     :  COMPANY
WELL .             Pukeko-1:  WELL
FLD  .                     :  FIELD
LOC  .                     :  LOCATION
CTRY .                     :  COUNTRY
STAT .                     :  STATE
CNTY .                     :  COUNTY
SRVC .     New Zealand Overseas Petroleum Ltd:  SERVICE COMPANY
DATE .                     :  DATE
API  .                     :  API NUMBER
UWI  .         100000502205:  UNIQUE WELL ID
LATI .          -39.9215617:  LATITUDE
LONG .          172.9374089:  LONGITUDE
~Curve Information Block
#MNEM.UNIT         API CODE   Curve Description
#---------- ----------------  -----------------
DEPTH.M                    :  
BS   .IN                   :  Bit Size (Created in Geolog)
CALI .IN                   :  HRCC Cal. Caliper (HCAL)
DENS .G/C3                 :  HRDD High Resolution Formation Density (RHO8)
DRHO .G/C3                 :  HRDD Density Correction (HDRA)
DTC  .US/F                 :  Delta-T Compressional (DTCO)
DTS  .US/F                 :  Delta-T Shear (DTSM)
GR   .GAPI                 :  HiRes Gamma-Ray (HGR)
NEUT .V/V                  :  HiRes Thermal Neutron Porosity (HTNP)
NEUT_CORR.V/V                  :  Corrected NPHI (limestone units)
PEF  .B/E                  :  HRDD High Resolution Formation Photoelectric Factor (PEF8)
RESD .OHMM                 :  HRLT Borehole Corrected Resistivity 5 (RLA5)
RESM .OHMM                 :  HRLT Borehole Corrected Resistivity 3 (RLA3)
RESS .OHMM                 :  HRLT Borehole Corrected Resistivity 1 (RLA1)
SP   .MV                   :  SP Shifted (SP)
TEMP .DEGC                 :  Cartridge Temperature (CTEM)
TENS .KGF                  :  Cable Tension (TENS)
~Parameter Information Block
#MNEM.UNIT            Value   Description
#---------- ----------------  -----------
CUR_INT_BOT.M                4190:  Current interpolated bottom
PROJECT.     New Zealand Log QC Project:  
SET  .     A0_FINAL_INTER_REF_D:  
ELEVATION_AMSL.M                  25:  Elevation above mean sea level
ELEVATION_REF.                   KB:  Measurement reference
FORMATION_AT_TD.             Basement:  Formation at TD
LICENCE_NUMBER.             PEP38460:  Licence number
ONSHORE_OR_OFFSHORE.             Offshore:  Onshore/offshore
PR_NUMBER.               PR2928:  Petroleum report number
SEAFLOOR_ELEVATION_BMSL.M            157.3000:  Seafloor elevation below mean sea level
SPUD_DATE.           28/04/2004:  Spud date
STATUS_AT_COMPLETION.     Temporary suspended:  Status at completion
TD_DATE.           26/05/2004:  Total depth date
TOTAL_DEPTH_DRILLED.M                4190:  Total depth drilled
WATER_DEPTH.M               132.3:  Water depth
~Other Information Block
# 
~A       DEPTH             BS           CALI           DENS           DRHO            DTC            DTS             GR           NEUT      NEUT_CORR            PEF           RESD           RESM           RESS             SP           TEMP           TENS 
# ...
    3253.28280         8.5000         8.6012         2.5822       0.000320        87.7447       173.9674       107.5631         0.4052         0.4030         3.6786         3.2586         3.2509         3.4107      -167.2794       113.7256      2206.3918
    3253.43520         8.5000         8.6027         2.5839      -0.003458        87.7140       173.8010       109.4738         0.3978         0.3956         3.7010         3.2440         3.2421         3.4087      -167.5957       113.7256      2206.7617
    3253.58760         8.5000         8.5988         2.5858      -0.004309        87.6607       173.8041       111.0954         0.3932         0.3908         3.7114         3.2486         3.2507         3.4238      -167.9331       113.7256      2208.4290
    3253.74000         8.5000         8.5910         2.5878      -0.002996        87.5907       173.9325       112.5031         0.3906         0.3878         3.7128         3.2674         3.2722         3.4516      -168.2861       113.7256      2211.0559
    3253.89240         8.5000         8.5833         2.5898      -0.001683        87.5206       174.0609       113.9108         0.3880         0.3849         3.7142         3.2862         3.2936         3.4793      -168.6391       113.7256      2213.6826
    3254.04480         8.5000         8.5787         2.5904      -0.001332        87.3815       173.9748       113.6875         0.3877         0.3845         3.7197         3.3031         3.3126         3.5033      -168.8271       113.7256      2215.1624
    3254.19720         8.5000         8.5819         2.5879      -0.003292        87.0767       173.3734       109.5466         0.3931         0.3900         3.7352         3.3153         3.3256         3.5183      -168.6187       113.7256      2213.8879
    3254.34960         8.5000         8.5851         2.5854      -0.005251        86.7718       172.7720       105.4058         0.3984         0.3955         3.7507         3.3275         3.3387         3.5332      -168.4104       113.7256      2212.6135
    3254.50200         8.5000         8.5882         2.5830      -0.007159        86.4696       172.1654       101.3750         0.4037         0.4010         3.7659         3.3399         3.3518         3.5482      -168.2029       113.7256      2211.3113
    3254.65440         8.5000         8.5899         2.5856      -0.005163        86.3680       171.1758       105.6143         0.4076         0.4049         3.7556         3.3588         3.3699         3.5602      -168.0626       113.7256      2207.9280
    3254.80680         8.5000         8.5915         2.5882      -0.003166        86.2664       170.1861       109.8537         0.4116         0.4088         3.7452         3.3778         3.3881         3.5721      -167.9222       113.7256      2204.5449
    3254.95920         8.5000         8.5931         2.5908      -0.001169        86.1648       169.1965       114.0930         0.4155         0.4127         3.7349         3.3968         3.4062         3.5841      -167.7819       113.7256      2201.1616
    3255.11160         8.5000         8.5967         2.5920       0.001882        86.0446       168.7790       115.1788         0.4145         0.4117         3.7724         3.4335         3.4416         3.6099      -167.6568       113.7256      2193.3669
    3255.26400         8.5000         8.6008         2.5926       0.005318        85.9176       168.5708       115.1116         0.4117         0.4089         3.8276         3.4767         3.4834         3.6407      -167.5373       113.7256      2183.9595
    3255.41640         8.5000         8.6050         2.5933       0.008755        85.7907       168.3625       115.0444         0.4089         0.4060         3.8827         3.5198         3.5252         3.6715      -167.4178       113.7256      2174.5520
    3255.56880         8.5000         8.6056         2.5943       0.010102        85.5909       168.1129       114.2988         0.4064         0.4037         3.8732         3.5645         3.5683         3.7076      -167.0948       113.7256      2172.4119
    3255.72120         8.5000         8.6019         2.5957       0.008911        85.3028       167.8132       112.7290         0.4044         0.4019         3.7854         3.6111         3.6131         3.7501      -166.5246       113.7256      2179.1023
    3255.87360         8.5000         8.5981         2.5971       0.007720        85.0147       167.5135       111.1593         0.4024         0.4001         3.6975         3.6577         3.6579         3.7927      -165.9544       113.7256      2185.7930
    3256.02600         8.5000         8.5951         2.5983       0.006384        84.6829       167.2016       109.5661         0.4017         0.3996         3.6303         3.7025         3.7018         3.8342      -165.4480       113.7256      2190.7717
    3256.17840         8.5000         8.5960         2.5981       0.004343        84.1387       166.8304       107.8594         0.4077         0.4053         3.6637         3.7389         3.7413         3.8707      -165.2520       113.7256      2187.4292
    3256.33080         8.5000         8.5969         2.5979       0.002303        83.5944       166.4592       106.1527         0.4136         0.4109         3.6970         3.7752         3.7809         3.9073      -165.0559       113.7256      2184.0864
    3256.48320         8.5000         8.5978         2.5978       0.000263        83.0501       166.0880       104.4460         0.4196         0.4165         3.7303         3.8116         3.8205         3.9438      -164.8598       113.7256      2180.7437
    3256.63560         8.5000         8.5965         2.5942      -0.001092        82.9767       165.7881       107.0140         0.4111         0.4079         3.7439         3.7320         3.7476         3.8808      -164.8770       113.7256      2176.9934
    3256.78800         8.5000         8.5949         2.5903      -0.002362        82.9615       165.4972       110.1116         0.4007         0.3976         3.7549         3.6379         3.6608         3.8055      -164.9206       113.7256      2173.1926
    3256.94040         8.5000         8.5933         2.5863      -0.003632        82.9464       165.2062       113.2093         0.3904         0.3872         3.7660         3.5439         3.5739         3.7302      -164.9642       113.7256      2169.3916
    3257.09280         8.5000         8.5934         2.5920      -0.003020        83.0995       164.9795       114.8647         0.3896         0.3865         3.7989         3.5170         3.5533         3.7120      -164.7320       113.7256      2168.6389
    3257.24520         8.5000         8.5945         2.6040      -0.001200        83.3607       164.7940       115.5938         0.3948         0.3919         3.8460         3.5331         3.5751         3.7305      -164.3226       113.7256      2169.8438
    3257.39760         8.5000         8.5956         2.6159       0.000620        83.6219       164.6085       116.3229         0.4001         0.3973         3.8930         3.5493         3.5970         3.7490      -163.9132       113.7256      2171.0483
    3257.55000         8.5000         8.5955         2.6203       0.001525        83.7907       164.0202       116.7686         0.4029         0.4003         3.9069         3.5802         3.6332         3.7749      -163.5772       113.7256      2173.4106
    3257.70240         8.5000         8.5932         2.6093       0.000559        83.7703       162.6070       116.6338         0.4009         0.3984         3.8531         3.6414         3.6987         3.8159      -163.3915       113.7256      2178.1433
    3257.85480         8.5000         8.5908         2.5982      -0.000408        83.7498       161.1939       116.4990         0.3988         0.3966         3.7994         3.7026         3.7643         3.8570      -163.2058       113.7256      2182.8760
    3258.00720         8.5000         8.5888         2.5877      -0.001267        83.7132       159.8896       116.2407         0.3969         0.3948         3.7480         3.7593         3.8252         3.8955      -163.0307       113.7256      2187.4531
