~Version Information Block
VERS .                 2.00:  CWLS LOG ASCII STANDARD - VERSION 2.00
WRAP .                   NO:  One line per depth step
~Well Information Block
#MNEM.UNIT        Data Type   Information
#---------- ----------------  -----------
STRT .M          3141.11640:  START DEPTH
STOP .M          4189.93320:  STOP DEPTH
STEP .M             0.15240:  STEP
NULL .              -999.25:  NULL VALUE
COMP .                     :  COMPANY
WELL .             Pukeko-1:  WELL
FLD  .                     :  FIELD
LOC  .                     :  LOCATION
CTRY .                     :  COUNTRY
STAT .                     :  STATE
CNTY .                     :  COUNTY
SRVC .     New Zealand Overseas Petroleum Ltd:  SERVICE COMPANY
DATE .                     :  DATE
API  .                     :  API NUMBER
UWI  .         100000502205:  UNIQUE WELL ID
LATI .          -39.9215617:  LATITUDE
LONG .          172.9374089:  LONGITUDE
~Curve Information Block
#MNEM.UNIT         API CODE   Curve Description
#---------- ----------------  -----------------
DEPTH.M                    :  
BS   .IN                   :  Bit Size (Created in Geolog)
CALI .IN                   :  HRCC Cal. Caliper (HCAL)
DENS .G/C3                 :  HRDD High Resolution Formation Density (RHO8)
DRHO .G/C3                 :  HRDD Density Correction (HDRA)
DTC  .US/F                 :  Delta-T Compressional (DTCO)
DTS  .US/F                 :  Delta-T Shear (DTSM)
GR   .GAPI                 :  HiRes Gamma-Ray (HGR)
NEUT .V/V                  :  HiRes Thermal Neutron Porosity (HTNP)
NEUT_CORR.V/V                  :  Corrected NPHI (limestone units)
PEF  .B/E                  :  HRDD High Resolution Formation Photoelectric Factor (PEF8)
RESD .OHMM                 :  HRLT Borehole Corrected Resistivity 5 (RLA5)
RESM .OHMM                 :  HRLT Borehole Corrected Resistivity 3 (RLA3)
RESS .OHMM                 :  HRLT Borehole Corrected Resistivity 1 (RLA1)
SP   .MV                   :  SP Shifted (SP)
TEMP .DEGC                 :  Cartridge Temperature (CTEM)
TENS .KGF                  :  Cable Tension (TENS)
~Parameter Information Block
#MNEM.UNIT            Value   Description
#---------- ----------------  -----------
CUR_INT_BOT.M                4190:  Current interpolated bottom
PROJECT.     New Zealand Log QC Project:  
SET  .     A0_FINAL_INTER_REF_D:  
ELEVATION_AMSL.M                  25:  Elevation above mean sea level
ELEVATION_REF.                   KB:  Measurement reference
FORMATION_AT_TD.             Basement:  Formation at TD
LICENCE_NUMBER.             PEP38460:  Licence number
ONSHORE_OR_OFFSHORE.             Offshore:  Onshore/offshore
PR_NUMBER.               PR2928:  Petroleum report number
SEAFLOOR_ELEVATION_BMSL.M            157.3000:  Seafloor elevation below mean sea level
SPUD_DATE.           28/04/2004:  Spud date
STATUS_AT_COMPLETION.     Temporary suspended:  Status at completion
TD_DATE.           26/05/2004:  Total depth date
TOTAL_DEPTH_DRILLED.M                4190:  Total depth drilled
WATER_DEPTH.M               132.3:  Water depth
~Other Information Block
# 
~A       DEPTH             BS           CALI           DENS           DRHO            DTC            DTS             GR           NEUT      NEUT_CORR            PEF           RESD           RESM           RESS             SP           TEMP           TENS 
# ...
    4111.59960         8.5000         8.5248         2.5756       0.007757        69.1261       121.0090       103.9632         0.2265         0.2215         3.2397         9.1670         8.3577         8.2143      -156.3647       132.3923      2549.9924
    4111.75200         8.5000         8.5174         2.5753       0.006335        68.6598       119.9921       102.8990         0.2213         0.2158         3.2119         9.7347         8.9152         8.8681      -156.4519       132.3923      2552.0374
    4111.90440         8.5000         8.5101         2.5749       0.004912        68.1934       118.9752       101.8348         0.2161         0.2102         3.1842        10.3023         9.4727         9.5219      -156.5390       132.3923      2554.0825
    4112.05680         8.5000         8.5050         2.5778       0.003431        67.8072       118.2031       100.1977         0.2139         0.2077         3.1779        10.7149         9.9086        10.0508      -156.5474       132.3923      2552.8816
    4112.20920         8.5000         8.5038         2.5865       0.001850        67.5560       117.8432        97.5964         0.2166         0.2106         3.2076        10.8666        10.1398        10.3698      -156.4232       132.3923      2546.2168
    4112.36160         8.5000         8.5026         2.5951       0.000268        67.3048       117.4832        94.9951         0.2192         0.2135         3.2374        11.0183        10.3710        10.6887      -156.2990       132.3923      2539.5522
    4112.51400         8.5000         8.5018         2.6026      -0.001071        67.0831       117.1458        93.0857         0.2215         0.2159         3.2621        11.1406        10.5738        10.9765      -156.2213       132.3923      2533.7168
    4112.66640         8.5000         8.5045         2.5998      -0.000019        67.1532       117.0314        98.0164         0.2193         0.2136         3.2361        10.9732        10.4966        10.9568      -156.6032       132.3923      2536.0784
    4112.81880         8.5000         8.5072         2.5969       0.001034        67.2233       116.9171       102.9470         0.2172         0.2113         3.2101        10.8057        10.4194        10.9371      -156.9850       132.3923      2538.4399
    4112.97120         8.5000         8.5099         2.5940       0.002086        67.2935       116.8028       107.8776         0.2150         0.2090         3.1840        10.6382        10.3422        10.9175      -157.3669       132.3923      2540.8015
    4113.12360         8.5000         8.5087         2.5946       0.002239        67.0903       116.4148       105.1502         0.2179         0.2122         3.1915        10.7106        10.4985        11.0961      -157.5533       132.3923      2542.7751
    4113.27600         8.5000         8.5066         2.5960       0.002182        66.8234       115.9631       100.6385         0.2220         0.2166         3.2067        10.8389        10.7093        11.3209      -157.6942       132.3923      2544.6587
    4113.42840         8.5000         8.5045         2.5975       0.002125        66.5565       115.5113        96.1267         0.2261         0.2210         3.2219        10.9672        10.9201        11.5457      -157.8350       132.3923      2546.5420
    4113.58080         8.5000         8.5026         2.5998       0.002253        66.3031       115.2551        94.7798         0.2257         0.2207         3.2515        11.0829        11.1270        11.7434      -158.1100       132.3923      2547.6748
    4113.73320         8.5000         8.5009         2.6029       0.002545        66.0617       115.1721        96.2374         0.2215         0.2160         3.2937        11.1873        11.3305        11.9170      -158.5038       132.3923      2548.1428
    4113.88560         8.5000         8.4992         2.6060       0.002836        65.8202       115.0891        97.6949         0.2172         0.2114         3.3359        11.2918        11.5339        12.0906      -158.8977       132.3923      2548.6106
    4114.03800         8.5000         8.4976         2.6073       0.003416        65.7304       115.0680        99.1405         0.2151         0.2091         3.3504        11.2815        11.6031        12.1457      -159.1530       132.3922      2548.7000
    4114.19040         8.5000         8.4962         2.6032       0.004864        66.0972       115.2330       100.5503         0.2193         0.2137         3.2812        10.9258        11.2678        11.8441      -158.9914       132.3917      2547.6494
    4114.34280         8.5000         8.4948         2.5991       0.006311        66.4640       115.3979       101.9601         0.2236         0.2183         3.2120        10.5702        10.9325        11.5425      -158.8298       132.3913      2546.5989
    4114.49520         8.5000         8.4934         2.5950       0.007759        66.8308       115.5629       103.3699         0.2278         0.2229         3.1427        10.2145        10.5972        11.2409      -158.6682       132.3908      2545.5483
    4114.64760         8.5000         8.4893         2.5950       0.006819        66.7667       115.5384       106.0197         0.2249         0.2197         3.1371        10.3602        10.7531        11.3583      -158.7619       132.0714      2547.6707
    4114.80000         8.5000         8.4850         2.5951       0.005801        66.6885       115.5077       108.7098         0.2217         0.2162         3.1335        10.5222        10.9250        11.4894      -158.8640       131.7416      2549.8960
    4114.95240         8.5000         8.4808         2.5953       0.004783        66.6104       115.4769       111.4000         0.2185         0.2128         3.1300        10.6841        11.0968        11.6205      -158.9660       131.4118      2552.1216
    4115.10480         8.5000         8.4796         2.5935       0.002505        66.6392       115.5286       110.4948         0.2170         0.2111         3.1177        10.8145        11.2191        11.7295      -159.2343       131.4012      2555.6599
    4115.25720         8.5000         8.4797         2.5908      -0.000345        66.7165       115.6176       107.9565         0.2162         0.2103         3.1015        10.9306        11.3189        11.8285      -159.5782       131.5356      2559.7944
    4115.40960         8.5000         8.4799         2.5880      -0.003195        66.7938       115.7067       105.4182         0.2155         0.2095         3.0854        11.0466        11.4187        11.9275      -159.9220       131.6700      2563.9290
    4115.56200         8.5000         8.4807         2.5867      -0.004303        66.9598       115.9098       103.5103         0.2171         0.2113         3.0781        10.9616        11.3073        11.8252      -160.2541       131.6932      2568.6902
    4115.71440         8.5000         8.4824         2.5875      -0.002872        67.2549       116.2792       102.5215         0.2223         0.2170         3.0840        10.5835        10.8878        11.4293      -160.5691       131.5544      2574.3647
    4115.86680         8.5000         8.4842         2.5883      -0.001441        67.5501       116.6485       101.5328         0.2275         0.2226         3.0898        10.2053        10.4683        11.0334      -160.8841       131.4156      2580.0396
    4116.01920         8.5000         8.4863         2.5892       0.000308        67.8171       117.0102       100.9688         0.2318         0.2273         3.1019         9.9068        10.1300        10.7121      -161.1748       131.2942      2583.3105
    4116.17160         8.5000         8.4908         2.5914       0.004260        67.8895       117.3181       103.3517         0.2303         0.2256         3.1577        10.1605        10.3549        10.9081      -161.2968       131.2942      2569.9058
    4116.32400         8.5000         8.4953         2.5936       0.008211        67.9618       117.6260       105.7347         0.2287         0.2239         3.2134        10.4143        10.5797        11.1042      -161.4188       131.2942      2556.5012
