~Version Information Block
VERS .                 2.00:  CWLS LOG ASCII STANDARD - VERSION 2.00
WRAP .                   NO:  One line per depth step
~Well Information Block
#MNEM.UNIT        Data Type   Information
#---------- ----------------  -----------
STRT .M          3141.11640:  START DEPTH
STOP .M          4189.93320:  STOP DEPTH
STEP .M             0.15240:  STEP
NULL .              -999.25:  NULL VALUE
COMP .                     :  COMPANY
WELL .             Pukeko-1:  WELL
FLD  .                     :  FIELD
LOC  .                     :  LOCATION
CTRY .                     :  COUNTRY
STAT .                     :  STATE
CNTY .                     :  COUNTY
SRVC .     New Zealand Overseas Petroleum Ltd:  SERVICE COMPANY
DATE .                     :  DATE
API  .                     :  API NUMBER
UWI  .         100000502205:  UNIQUE WELL ID
LATI .          -39.9215617:  LATITUDE
LONG .          172.9374089:  LONGITUDE
~Curve Information Block
#MNEM.UNIT         API CODE   Curve Description
#---------- ----------------  -----------------
DEPTH.M                    :  
BS   .IN                   :  Bit Size (Created in Geolog)
CALI .IN                   :  HRCC Cal. Caliper (HCAL)
DENS .G/C3                 :  HRDD High Resolution Formation Density (RHO8)
DRHO .G/C3                 :  HRDD Density Correction (HDRA)
DTC  .US/F                 :  Delta-T Compressional (DTCO)
DTS  .US/F                 :  Delta-T Shear (DTSM)
GR   .GAPI                 :  HiRes Gamma-Ray (HGR)
NEUT .V/V                  :  HiRes Thermal Neutron Porosity (HTNP)
NEUT_CORR.V/V                  :  Corrected NPHI (limestone units)
PEF  .B/E                  :  HRDD High Resolution Formation Photoelectric Factor (PEF8)
RESD .OHMM                 :  HRLT Borehole Corrected Resistivity 5 (RLA5)
RESM .OHMM                 :  HRLT Borehole Corrected Resistivity 3 (RLA3)
RESS .OHMM                 :  HRLT Borehole Corrected Resistivity 1 (RLA1)
SP   .MV                   :  SP Shifted (SP)
TEMP .DEGC                 :  Cartridge Temperature (CTEM)
TENS .KGF                  :  Cable Tension (TENS)
~Parameter Information Block
#MNEM.UNIT            Value   Description
#---------- ----------------  -----------
CUR_INT_BOT.M                4190:  Current interpolated bottom
PROJECT.     New Zealand Log QC Project:  
SET  .     A0_FINAL_INTER_REF_D:  
ELEVATION_AMSL.M                  25:  Elevation above mean sea level
ELEVATION_REF.                   KB:  Measurement reference
FORMATION_AT_TD.             Basement:  Formation at TD
LICENCE_NUMBER.             PEP38460:  Licence number
ONSHORE_OR_OFFSHORE.             Offshore:  Onshore/offshore
PR_NUMBER.               PR2928:  Petroleum report number
SEAFLOOR_ELEVATION_BMSL.M            157.3000:  Seafloor elevation below mean sea level
SPUD_DATE.           28/04/2004:  Spud date
STATUS_AT_COMPLETION.     Temporary suspended:  Status at completion
TD_DATE.           26/05/2004:  Total depth date
TOTAL_DEPTH_DRILLED.M                4190:  Total depth drilled
WATER_DEPTH.M               132.3:  Water depth
~Other Information Block
# 
~A       DEPTH             BS           CALI           DENS           DRHO            DTC            DTS             GR           NEUT      NEUT_CORR            PEF           RESD           RESM           RESS             SP           TEMP           TENS 
# ...
    4048.20120         8.5000         8.4258         2.5420       0.012254        73.8369       126.0693       101.0977         0.2388         0.2331         2.9644         6.0747         5.8973         6.0223      -157.5449       132.3923      2493.6638
    4048.35360         8.5000         8.4635         2.5739       0.013389        74.2432       128.5242       105.0297         0.2515         0.2456         3.1343         6.9698         6.8150         6.8805      -158.2283       132.3923      2494.1401
    4048.50600         8.5000         8.4993         2.6044       0.014396        74.6260       130.9158       108.6976         0.2636         0.2575         3.2958         7.8353         7.7014         7.7152      -158.8911       132.3923      2494.7837
    4048.65840         8.5000         8.4886         2.5987       0.012302        74.4360       131.7640       105.9218         0.2609         0.2549         3.2507         7.9745         7.8219         7.9782      -159.0528       132.3923      2499.5063
    4048.81080         8.5000         8.4780         2.5929       0.010208        74.2460       132.6122       103.1461         0.2581         0.2523         3.2057         8.1138         7.9425         8.2412      -159.2145       132.3923      2504.2290
    4048.96320         8.5000         8.4674         2.5872       0.008115        74.0561       133.4603       100.3703         0.2553         0.2496         3.1607         8.2531         8.0630         8.5043      -159.3762       132.3923      2508.9519
    4049.11560         8.5000         8.4685         2.5883       0.005060        73.9307       133.1774       101.2807         0.2563         0.2505         3.1738         8.6479         8.4188         8.9167      -159.6452       132.3923      2510.7249
    4049.26800         8.5000         8.4735         2.5917       0.001699        73.8259       132.5345       103.3645         0.2585         0.2526         3.2055         9.1241         8.8496         9.3767      -159.9483       132.3923      2511.5586
    4049.42040         8.5000         8.4784         2.5950      -0.001662        73.7210       131.8916       105.4483         0.2607         0.2546         3.2372         9.6003         9.2804         9.8367      -160.2514       132.3923      2512.3923
    4049.57280         8.5000         8.4791         2.5983      -0.003305        73.4820       130.8882       104.7685         0.2603         0.2542         3.2428         9.9063         9.5770        10.0994      -160.3259       132.3923      2514.3342
    4049.72520         8.5000         8.4751         2.6015      -0.003069        73.0963       129.4906       101.0670         0.2570         0.2513         3.2199        10.0261         9.7269        10.1464      -160.1505       132.3923      2517.4880
    4049.87760         8.5000         8.4711         2.6046      -0.002834        72.7106       128.0929        97.3655         0.2538         0.2483         3.1970        10.1460         9.8768        10.1934      -159.9751       132.3923      2520.6416
    4050.03000         8.5000         8.4674         2.6047      -0.002242        72.3225       126.6614        95.0752         0.2507         0.2454         3.1698        10.2343        10.0129        10.2270      -159.8060       132.3923      2520.9233
    4050.18240         8.5000         8.4646         2.5924      -0.000198        71.9249       125.0917        98.5430         0.2480         0.2430         3.1252        10.1940        10.0930        10.2059      -159.6629       132.3923      2509.4883
    4050.33480         8.5000         8.4619         2.5800       0.001847        71.5272       123.5220       102.0107         0.2453         0.2406         3.0806        10.1537        10.1730        10.1848      -159.5197       132.3923      2498.0532
    4050.48720         8.5000         8.4591         2.5676       0.003892        71.1296       121.9522       105.4785         0.2426         0.2382         3.0359        10.1134        10.2531        10.1637      -159.3766       132.3923      2486.6182
    4050.63960         8.5000         8.4566         2.5591       0.006718        71.0286       121.5421       103.9479         0.2380         0.2334         3.0082         9.2362         9.3922         9.4640      -159.1507       132.3923      2481.9822
    4050.79200         8.5000         8.4542         2.5509       0.009615        70.9548       121.2384       101.9590         0.2331         0.2283         2.9821         8.2822         8.4450         8.7020      -158.9172       132.3923      2477.9695
    4050.94440         8.5000         8.4517         2.5426       0.012512        70.8810       120.9346        99.9701         0.2283         0.2233         2.9560         7.3283         7.4978         7.9400      -158.6837       132.3923      2473.9568
    4051.09680         8.5000         8.4440         2.5448       0.015096        71.0145       121.0613        98.5098         0.2257         0.2206         2.9657         7.8066         8.0175         8.5130      -158.3387       132.3923      2479.2246
    4051.24920         8.5000         8.4332         2.5530       0.017499        71.2671       121.4352        97.3533         0.2245         0.2193         2.9959         9.1075         9.3799         9.8527      -157.9297       132.3923      2489.8230
    4051.40160         8.5000         8.4224         2.5612       0.019903        71.5198       121.8092        96.1967         0.2233         0.2179         3.0262        10.4085        10.7422        11.1925      -157.5206       132.3923      2500.4211
    4051.55400         8.5000         8.4227         2.5693       0.018721        71.4910       122.1988        96.3867         0.2246         0.2193         3.0440        11.4578        11.8335        12.2285      -157.3287       132.3923      2508.9434
    4051.70640         8.5000         8.4434         2.5773       0.011006        70.9494       122.6171        99.0303         0.2308         0.2258         3.0391        12.0488        12.4308        12.7109      -157.5326       132.3923      2513.6826
    4051.85880         8.5000         8.4641         2.5854       0.003291        70.4079       123.0354       101.6739         0.2370         0.2322         3.0342        12.6397        13.0281        13.1934      -157.7365       132.3923      2518.4219
    4052.01120         8.5000         8.4835         2.5927      -0.003816        69.8825       123.3369       103.9295         0.2428         0.2383         3.0339        13.1687        13.5537        13.6285      -157.9477       132.3923      2522.5227
    4052.16360         8.5000         8.4857         2.5904      -0.003262        69.5605       122.1655       101.2934         0.2443         0.2397         3.0918        12.9169        13.1752        13.4679      -158.2509       132.3923      2518.5767
    4052.31600         8.5000         8.4879         2.5881      -0.002708        69.2385       120.9940        98.6572         0.2458         0.2411         3.1497        12.6651        12.7967        13.3073      -158.5542       132.3923      2514.6304
    4052.46840         8.5000         8.4902         2.5858      -0.002155        68.9165       119.8226        96.0211         0.2474         0.2425         3.2077        12.4133        12.4182        13.1466      -158.8574       132.3923      2510.6841
    4052.62080         8.5000         8.4881         2.5840      -0.001294        68.8242       119.0574        95.3364         0.2459         0.2411         3.2226        12.8039        12.8313        13.6161      -159.2097       132.3923      2508.1299
    4052.77320         8.5000         8.4848         2.5823      -0.000353        68.7919       118.3984        95.1623         0.2436         0.2389         3.2263        13.3625        13.4514        14.2504      -159.5747       132.3923      2505.9397
    4052.92560         8.5000         8.4815         2.5805       0.000588        68.7596       117.7394        94.9881         0.2413         0.2368         3.2299        13.9211        14.0715        14.8846      -159.9398       132.3923      2503.7495
