~Version Information Block
VERS .                 2.00:  CWLS LOG ASCII STANDARD - VERSION 2.00
WRAP .                   NO:  One line per depth step
~Well Information Block
#MNEM.UNIT        Data Type   Information
#---------- ----------------  -----------
STRT .M          3141.11640:  START DEPTH
STOP .M          4189.93320:  STOP DEPTH
STEP .M             0.15240:  STEP
NULL .              -999.25:  NULL VALUE
COMP .                     :  COMPANY
WELL .             Pukeko-1:  WELL
FLD  .                     :  FIELD
LOC  .                     :  LOCATION
CTRY .                     :  COUNTRY
STAT .                     :  STATE
CNTY .                     :  COUNTY
SRVC .     New Zealand Overseas Petroleum Ltd:  SERVICE COMPANY
DATE .                     :  DATE
API  .                     :  API NUMBER
UWI  .         100000502205:  UNIQUE WELL ID
LATI .          -39.9215617:  LATITUDE
LONG .          172.9374089:  LONGITUDE
~Curve Information Block
#MNEM.UNIT         API CODE   Curve Description
#---------- ----------------  -----------------
DEPTH.M                    :  
BS   .IN                   :  Bit Size (Created in Geolog)
CALI .IN                   :  HRCC Cal. Caliper (HCAL)
DENS .G/C3                 :  HRDD High Resolution Formation Density (RHO8)
DRHO .G/C3                 :  HRDD Density Correction (HDRA)
DTC  .US/F                 :  Delta-T Compressional (DTCO)
DTS  .US/F                 :  Delta-T Shear (DTSM)
GR   .GAPI                 :  HiRes Gamma-Ray (HGR)
NEUT .V/V                  :  HiRes Thermal Neutron Porosity (HTNP)
NEUT_CORR.V/V                  :  Corrected NPHI (limestone units)
PEF  .B/E                  :  HRDD High Resolution Formation Photoelectric Factor (PEF8)
RESD .OHMM                 :  HRLT Borehole Corrected Resistivity 5 (RLA5)
RESM .OHMM                 :  HRLT Borehole Corrected Resistivity 3 (RLA3)
RESS .OHMM                 :  HRLT Borehole Corrected Resistivity 1 (RLA1)
SP   .MV                   :  SP Shifted (SP)
TEMP .DEGC                 :  Cartridge Temperature (CTEM)
TENS .KGF                  :  Cable Tension (TENS)
~Parameter Information Block
#MNEM.UNIT            Value   Description
#---------- ----------------  -----------
CUR_INT_BOT.M                4190:  Current interpolated bottom
PROJECT.     New Zealand Log QC Project:  
SET  .     A0_FINAL_INTER_REF_D:  
ELEVATION_AMSL.M                  25:  Elevation above mean sea level
ELEVATION_REF.                   KB:  Measurement reference
FORMATION_AT_TD.             Basement:  Formation at TD
LICENCE_NUMBER.             PEP38460:  Licence number
ONSHORE_OR_OFFSHORE.             Offshore:  Onshore/offshore
PR_NUMBER.               PR2928:  Petroleum report number
SEAFLOOR_ELEVATION_BMSL.M            157.3000:  Seafloor elevation below mean sea level
SPUD_DATE.           28/04/2004:  Spud date
STATUS_AT_COMPLETION.     Temporary suspended:  Status at completion
TD_DATE.           26/05/2004:  Total depth date
TOTAL_DEPTH_DRILLED.M                4190:  Total depth drilled
WATER_DEPTH.M               132.3:  Water depth
~Other Information Block
# 
~A       DEPTH             BS           CALI           DENS           DRHO            DTC            DTS             GR           NEUT      NEUT_CORR            PEF           RESD           RESM           RESS             SP           TEMP           TENS 
# ...
    3848.25240         8.5000         8.2734         2.4963       0.013342        67.7544       115.8997        86.2841         0.1881         0.1850         2.6488         6.8478         6.1542         5.6871      -151.7094       128.0001      2405.1963
    3848.40480         8.5000         8.2755         2.4953       0.012445        67.4833       115.2139        89.3023         0.1882         0.1851         2.6187         7.3775         6.5506         6.1346      -151.5489       128.0001      2407.1736
    3848.55720         8.5000         8.2763         2.4929       0.011714        67.2609       114.6204        90.4603         0.1877         0.1847         2.6033         7.6566         6.7577         6.4017      -151.5251       128.0001      2409.8237
    3848.70960         8.5000         8.2748         2.4882       0.011260        67.1197       114.1804        88.5224         0.1863         0.1834         2.6124         7.5185         6.6500         6.3686      -151.7287       128.0001      2413.5938
    3848.86200         8.5000         8.2733         2.4836       0.010806        66.9784       113.7405        86.5845         0.1849         0.1821         2.6215         7.3805         6.5422         6.3356      -151.9322       128.0001      2417.3640
    3849.01440         8.5000         8.2720         2.4804       0.010293        66.8293       113.3832        85.0728         0.1835         0.1808         2.6298         7.2196         6.4222         6.2792      -152.1477       128.0001      2420.8110
    3849.16680         8.5000         8.2728         2.4917       0.009207        66.6048       113.8187        87.6459         0.1825         0.1797         2.6308         6.8398         6.1846         5.9993      -152.4771       128.0001      2421.1621
    3849.31920         8.5000         8.2735         2.5030       0.008121        66.3803       114.2542        90.2189         0.1814         0.1787         2.6318         6.4600         5.9469         5.7194      -152.8066       128.0001      2421.5132
    3849.47160         8.5000         8.2742         2.5144       0.007036        66.1557       114.6897        92.7920         0.1804         0.1776         2.6328         6.0802         5.7092         5.4395      -153.1360       128.0001      2421.8643
    3849.62400         8.5000         8.2739         2.5162       0.009743        66.3873       114.9180        93.5876         0.1797         0.1769         2.6480         6.1078         5.8799         5.5373      -153.4000       128.0001      2416.2883
    3849.77640         8.5000         8.2733         2.5158       0.013320        66.7232       115.0988        93.9762         0.1791         0.1763         2.6664         6.2287         6.1442         5.7217      -153.6490       128.0001      2409.3547
    3849.92880         8.5000         8.2727         2.5155       0.016896        67.0592       115.2796        94.3648         0.1785         0.1757         2.6848         6.3496         6.4084         5.9061      -153.8979       128.0001      2402.4214
    3850.08120         8.5000         8.2726         2.5127       0.015826        67.9432       118.4009        93.7995         0.1796         0.1767         2.6825         6.2762         6.3954         5.9664      -154.1824       128.0001      2399.1897
    3850.23360         8.5000         8.2728         2.5078       0.010681        69.3077       124.1006        92.3978         0.1821         0.1792         2.6621         6.0324         6.1393         5.9180      -154.4980       128.0001      2399.2036
    3850.38600         8.5000         8.2730         2.5029       0.005535        70.6722       129.8003        90.9960         0.1847         0.1817         2.6416         5.7885         5.8832         5.8696      -154.8135       128.0001      2399.2178
    3850.53840         8.5000         8.2748         2.4982       0.003609        72.8189       136.5860        89.6281         0.1914         0.1883         2.6293         5.5918         5.6798         5.8369      -155.0476       128.0001      2400.3435
    3850.69080         8.5000         8.2810         2.4940       0.011240        77.2880       146.5954        88.3608         0.2106         0.2070         2.6413         5.5350         5.6330         5.8509      -155.0396       128.0001      2404.7695
    3850.84320         8.5000         8.2872         2.4898       0.018870        81.7571       156.6048        87.0934         0.2298         0.2256         2.6533         5.4782         5.5861         5.8649      -155.0316       128.0001      2409.1956
    3850.99560         8.5000         8.2934         2.4856       0.026501        86.2262       166.6143        85.8261         0.2490         0.2443         2.6653         5.4213         5.5393         5.8789      -155.0237       128.0001      2413.6216
    3851.14800         8.5000         8.3183         2.4140       0.018527        86.8020       166.8268        95.9521         0.3121         0.3078         2.6935        14.6477        15.7903        18.2647      -155.2428       128.0001      2419.4485
    3851.30040         8.5000         8.3438         2.3405       0.010090        87.2621       166.7480       106.4169         0.3766         0.3727         2.7222        24.1501        26.3476        31.0184      -155.4688       128.0001      2425.3171
    3851.45280         8.5000         8.3693         2.2670       0.001652        87.7221       166.6692       116.8816         0.4411         0.4375         2.7509        33.6525        36.9048        43.7721      -155.6947       128.0001      2431.1858
    3851.60520         8.5000         8.3777         2.2917       0.000161        87.1346       164.2841       119.7683         0.4553         0.4521         2.7540        33.9665        37.5915        45.1836      -155.9821       128.0001      2428.3936
    3851.75760         8.5000         8.3784         2.3605       0.001786        86.0770       160.8643       119.2549         0.4470         0.4441         2.7457        30.1581        33.8495        41.5062      -156.2972       128.0001      2421.7156
    3851.91000         8.5000         8.3791         2.4292       0.003410        85.0193       157.4445       118.7415         0.4387         0.4360         2.7373        26.3496        30.1076        37.8289      -156.6123       128.0001      2415.0376
    3852.06240         8.5000         8.3799         2.4819       0.004439        83.1811       153.4692       118.4352         0.4332         0.4305         2.7675        24.8210        28.4279        35.6691      -156.8882       128.0001      2408.1631
    3852.21480         8.5000         8.3809         2.5115       0.004609        80.2170       148.6928       118.4275         0.4315         0.4287         2.8535        26.5807        29.7228        35.6982      -157.1077       128.0001      2401.0054
    3852.36720         8.5000         8.3819         2.5410       0.004778        77.2529       143.9165       118.4198         0.4298         0.4268         2.9395        28.3403        31.0177        35.7273      -157.3271       128.0001      2393.8477
    3852.51960         8.5000         8.3825         2.5685       0.004898        74.3078       138.8759       118.5078         0.4221         0.4187         3.0118        29.4507        31.6746        35.1857      -157.5166       128.0001      2387.5447
    3852.67200         8.5000         8.3806         2.5820       0.004679        71.4917       132.0446       119.2450         0.3729         0.3688         2.9916        26.1619        28.0087        30.7773      -157.5038       128.0001      2387.0332
    3852.82440         8.5000         8.3787         2.5954       0.004461        68.6756       125.2134       119.9821         0.3237         0.3188         2.9714        22.8731        24.3428        26.3688      -157.4909       128.0001      2386.5217
    3852.97680         8.5000         8.3768         2.6089       0.004243        65.8595       118.3822       120.7192         0.2746         0.2689         2.9512        19.5843        20.6769        21.9604      -157.4781       128.0001      2386.0103
