~Version Information Block
VERS .                 2.00:  CWLS LOG ASCII STANDARD - VERSION 2.00
WRAP .                   NO:  One line per depth step
~Well Information Block
#MNEM.UNIT        Data Type   Information
#---------- ----------------  -----------
STRT .M          3141.11640:  START DEPTH
STOP .M          4189.93320:  STOP DEPTH
STEP .M             0.15240:  STEP
NULL .              -999.25:  NULL VALUE
COMP .                     :  COMPANY
WELL .             Pukeko-1:  WELL
FLD  .                     :  FIELD
LOC  .                     :  LOCATION
CTRY .                     :  COUNTRY
STAT .                     :  STATE
CNTY .                     :  COUNTY
SRVC .     New Zealand Overseas Petroleum Ltd:  SERVICE COMPANY
DATE .                     :  DATE
API  .                     :  API NUMBER
UWI  .         100000502205:  UNIQUE WELL ID
LATI .          -39.9215617:  LATITUDE
LONG .          172.9374089:  LONGITUDE
~Curve Information Block
#MNEM.UNIT         API CODE   Curve Description
#---------- ----------------  -----------------
DEPTH.M                    :  
BS   .IN                   :  Bit Size (Created in Geolog)
CALI .IN                   :  HRCC Cal. Caliper (HCAL)
DENS .G/C3                 :  HRDD High Resolution Formation Density (RHO8)
DRHO .G/C3                 :  HRDD Density Correction (HDRA)
DTC  .US/F                 :  Delta-T Compressional (DTCO)
DTS  .US/F                 :  Delta-T Shear (DTSM)
GR   .GAPI                 :  HiRes Gamma-Ray (HGR)
NEUT .V/V                  :  HiRes Thermal Neutron Porosity (HTNP)
NEUT_CORR.V/V                  :  Corrected NPHI (limestone units)
PEF  .B/E                  :  HRDD High Resolution Formation Photoelectric Factor (PEF8)
RESD .OHMM                 :  HRLT Borehole Corrected Resistivity 5 (RLA5)
RESM .OHMM                 :  HRLT Borehole Corrected Resistivity 3 (RLA3)
RESS .OHMM                 :  HRLT Borehole Corrected Resistivity 1 (RLA1)
SP   .MV                   :  SP Shifted (SP)
TEMP .DEGC                 :  Cartridge Temperature (CTEM)
TENS .KGF                  :  Cable Tension (TENS)
~Parameter Information Block
#MNEM.UNIT            Value   Description
#---------- ----------------  -----------
CUR_INT_BOT.M                4190:  Current interpolated bottom
PROJECT.     New Zealand Log QC Project:  
SET  .     A0_FINAL_INTER_REF_D:  
ELEVATION_AMSL.M                  25:  Elevation above mean sea level
ELEVATION_REF.                   KB:  Measurement reference
FORMATION_AT_TD.             Basement:  Formation at TD
LICENCE_NUMBER.             PEP38460:  Licence number
ONSHORE_OR_OFFSHORE.             Offshore:  Onshore/offshore
PR_NUMBER.               PR2928:  Petroleum report number
SEAFLOOR_ELEVATION_BMSL.M            157.3000:  Seafloor elevation below mean sea level
SPUD_DATE.           28/04/2004:  Spud date
STATUS_AT_COMPLETION.     Temporary suspended:  Status at completion
TD_DATE.           26/05/2004:  Total depth date
TOTAL_DEPTH_DRILLED.M                4190:  Total depth drilled
WATER_DEPTH.M               132.3:  Water depth
~Other Information Block
# 
~A       DEPTH             BS           CALI           DENS           DRHO            DTC            DTS             GR           NEUT      NEUT_CORR            PEF           RESD           RESM           RESS             SP           TEMP           TENS 
# ...
    3916.52760         8.5000         8.2608         2.4336       0.009518        68.5858       116.2456        82.1906         0.1895         0.1861         2.4524         6.9503         6.5943         6.1342      -157.8794       130.1962      2463.5063
    3916.68000         8.5000         8.2647         2.4520       0.012395        68.2897       116.9465        81.2391         0.1852         0.1819         2.5334         6.7250         6.4141         5.9381      -158.0184       130.1962      2463.2134
    3916.83240         8.5000         8.2687         2.4704       0.015273        67.9936       117.6473        80.2877         0.1809         0.1778         2.6143         6.4997         6.2339         5.7420      -158.1573       130.1962      2462.9207
    3916.98480         8.5000         8.2727         2.4888       0.018150        67.6974       118.3482        79.3363         0.1766         0.1737         2.6952         6.2744         6.0536         5.5459      -158.2963       130.1962      2462.6279
    3917.13720         8.5000         8.2708         2.4759       0.018051        69.7861       122.3397        82.2427         0.1844         0.1812         2.6882         6.6334         6.3191         5.8197      -158.2340       130.1962      2465.6951
    3917.28960         8.5000         8.2683         2.4595       0.017623        72.1390       126.6958        85.5765         0.1936         0.1899         2.6714         7.0571         6.6339         6.1454      -158.1493       130.1962      2469.1345
    3917.44200         8.5000         8.2658         2.4432       0.017194        74.4918       131.0519        88.9104         0.2028         0.1986         2.6546         7.4809         6.9487         6.4712      -158.0647       130.1962      2472.5737
    3917.59440         8.5000         8.2941         2.4523       0.013266        75.7609       133.6332        95.8137         0.2345         0.2303         2.7062        10.1088         9.6379         9.2500      -158.0438       130.1962      2472.5483
    3917.74680         8.5000         8.3413         2.4770       0.007187        76.3640       135.1240       104.9100         0.2800         0.2761         2.7998        14.0911        13.7858        13.5358      -158.0621       130.1962      2470.3940
    3917.89920         8.5000         8.3885         2.5017       0.001108        76.9671       136.6148       114.0064         0.3255         0.3220         2.8934        18.0733        17.9338        17.8217      -158.0804       130.1962      2468.2397
    3918.05160         8.5000         8.4054         2.5196      -0.002439        76.7845       136.9296       118.4477         0.3489         0.3455         2.9632        19.1177        19.1065        19.1759      -157.9754       130.1962      2466.4790
    3918.20400         8.5000         8.3630         2.5242      -0.001038        75.0670       134.9471       113.7952         0.3288         0.3252         2.9864        14.4231        14.4671        14.8032      -157.6298       130.1962      2465.4873
    3918.35640         8.5000         8.3207         2.5288       0.000362        73.3495       132.9647       109.1428         0.3088         0.3050         3.0096         9.7285         9.8277        10.4305      -157.2841       130.1962      2464.4956
    3918.50880         8.5000         8.2810         2.5327       0.001654        71.7430       131.0578       104.8543         0.2898         0.2858         3.0299         5.3502         5.5030         6.3533      -156.9415       130.1962      2463.5813
    3918.66120         8.5000         8.2852         2.5241       0.001173        71.9475       130.3840       106.5061         0.2882         0.2841         3.0013         6.1346         6.3123         7.0993      -156.6485       130.1962      2463.9270
    3918.81360         8.5000         8.2894         2.5155       0.000692        72.1521       129.7103       108.1578         0.2865         0.2823         2.9727         6.9189         7.1216         7.8452      -156.3555       130.1962      2464.2727
    3918.96600         8.5000         8.2936         2.5068       0.000210        72.3567       129.0365       109.8096         0.2849         0.2806         2.9441         7.7032         7.9309         8.5912      -156.0625       130.1962      2464.6184
    3919.11840         8.5000         8.2921         2.4950       0.003516        72.4876       127.8464       105.3556         0.2741         0.2698         2.8844         7.5954         7.8021         8.4043      -155.6377       130.1962      2462.0964
    3919.27080         8.5000         8.2890         2.4823       0.007908        72.5974       126.5081        99.1483         0.2607         0.2564         2.8157         7.2315         7.4040         7.9495      -155.1751       130.1962      2458.7510
    3919.42320         8.5000         8.2858         2.4695       0.012300        72.7072       125.1698        92.9410         0.2473         0.2429         2.7471         6.8675         7.0059         7.4947      -154.7125       130.1962      2455.4055
    3919.57560         8.5000         8.2824         2.4651       0.014743        72.4917       124.1528        91.7557         0.2399         0.2356         2.7238         6.5716         6.6583         7.0848      -154.3776       130.1962      2458.0098
    3919.72800         8.5000         8.2787         2.4691       0.015205        71.9457       123.4624        95.6722         0.2387         0.2344         2.7465         6.3449         6.3621         6.7205      -154.1725       130.1962      2466.6584
    3919.88040         8.5000         8.2750         2.4731       0.015666        71.3997       122.7719        99.5887         0.2375         0.2331         2.7693         6.1182         6.0659         6.3561      -153.9674       130.1962      2475.3071
    3920.03280         8.5000         8.2718         2.4766       0.015969        70.7530       121.8531       101.8383         0.2353         0.2309         2.7877         6.0187         5.8915         6.1241      -153.8263       130.1962      2479.3806
    3920.18520         8.5000         8.2708         2.4787       0.015691        69.7392       120.1018        98.0099         0.2296         0.2247         2.7904         6.3826         6.1611         6.3743      -153.9187       130.1962      2466.7712
    3920.33760         8.5000         8.2697         2.4808       0.015412        68.7254       118.3505        94.1815         0.2238         0.2186         2.7931         6.7464         6.4307         6.6245      -154.0110       130.1962      2454.1619
    3920.49000         8.5000         8.2687         2.4829       0.015134        67.7116       116.5992        90.3530         0.2181         0.2124         2.7957         7.1103         6.7003         6.8747      -154.1034       130.1962      2441.5525
    3920.64240         8.5000         8.2699         2.4901       0.014737        67.6299       115.8776        90.6466         0.2207         0.2153         2.8115         8.0254         7.3929         7.5842      -154.2831       130.1962      2442.0540
    3920.79480         8.5000         8.2712         2.4976       0.014332        67.6137       115.2283        91.2297         0.2240         0.2189         2.8282         8.9792         8.1152         8.3261      -154.4689       130.1962      2443.4761
    3920.94720         8.5000         8.2726         2.5051       0.013927        67.5975       114.5789        91.8127         0.2273         0.2225         2.8449         9.9330         8.8374         9.0679      -154.6547       130.1962      2444.8982
    3921.09960         8.5000         8.2745         2.5084       0.014645        67.5133       114.1855        92.1868         0.2288         0.2242         2.8539         9.6817         8.5408         8.8060      -154.5563       130.1962      2443.9548
    3921.25200         8.5000         8.2766         2.5093       0.015959        67.3931       113.9278        92.4501         0.2295         0.2250         2.8588         8.7917         7.7041         8.0120      -154.3073       130.1962      2441.7578
