~Version Information Block
VERS .                 2.00:  CWLS LOG ASCII STANDARD - VERSION 2.00
WRAP .                   NO:  One line per depth step
~Well Information Block
#MNEM.UNIT        Data Type   Information
#---------- ----------------  -----------
STRT .M          3141.11640:  START DEPTH
STOP .M          4189.93320:  STOP DEPTH
STEP .M             0.15240:  STEP
NULL .              -999.25:  NULL VALUE
COMP .                     :  COMPANY
WELL .             Pukeko-1:  WELL
FLD  .                     :  FIELD
LOC  .                     :  LOCATION
CTRY .                     :  COUNTRY
STAT .                     :  STATE
CNTY .                     :  COUNTY
SRVC .     New Zealand Overseas Petroleum Ltd:  SERVICE COMPANY
DATE .                     :  DATE
API  .                     :  API NUMBER
UWI  .         100000502205:  UNIQUE WELL ID
LATI .          -39.9215617:  LATITUDE
LONG .          172.9374089:  LONGITUDE
~Curve Information Block
#MNEM.UNIT         API CODE   Curve Description
#---------- ----------------  -----------------
DEPTH.M                    :  
BS   .IN                   :  Bit Size (Created in Geolog)
CALI .IN                   :  HRCC Cal. Caliper (HCAL)
DENS .G/C3                 :  HRDD High Resolution Formation Density (RHO8)
DRHO .G/C3                 :  HRDD Density Correction (HDRA)
DTC  .US/F                 :  Delta-T Compressional (DTCO)
DTS  .US/F                 :  Delta-T Shear (DTSM)
GR   .GAPI                 :  HiRes Gamma-Ray (HGR)
NEUT .V/V                  :  HiRes Thermal Neutron Porosity (HTNP)
NEUT_CORR.V/V                  :  Corrected NPHI (limestone units)
PEF  .B/E                  :  HRDD High Resolution Formation Photoelectric Factor (PEF8)
RESD .OHMM                 :  HRLT Borehole Corrected Resistivity 5 (RLA5)
RESM .OHMM                 :  HRLT Borehole Corrected Resistivity 3 (RLA3)
RESS .OHMM                 :  HRLT Borehole Corrected Resistivity 1 (RLA1)
SP   .MV                   :  SP Shifted (SP)
TEMP .DEGC                 :  Cartridge Temperature (CTEM)
TENS .KGF                  :  Cable Tension (TENS)
~Parameter Information Block
#MNEM.UNIT            Value   Description
#---------- ----------------  -----------
CUR_INT_BOT.M                4190:  Current interpolated bottom
PROJECT.     New Zealand Log QC Project:  
SET  .     A0_FINAL_INTER_REF_D:  
ELEVATION_AMSL.M                  25:  Elevation above mean sea level
ELEVATION_REF.                   KB:  Measurement reference
FORMATION_AT_TD.             Basement:  Formation at TD
LICENCE_NUMBER.             PEP38460:  Licence number
ONSHORE_OR_OFFSHORE.             Offshore:  Onshore/offshore
PR_NUMBER.               PR2928:  Petroleum report number
SEAFLOOR_ELEVATION_BMSL.M            157.3000:  Seafloor elevation below mean sea level
SPUD_DATE.           28/04/2004:  Spud date
STATUS_AT_COMPLETION.     Temporary suspended:  Status at completion
TD_DATE.           26/05/2004:  Total depth date
TOTAL_DEPTH_DRILLED.M                4190:  Total depth drilled
WATER_DEPTH.M               132.3:  Water depth
~Other Information Block
# 
~A       DEPTH             BS           CALI           DENS           DRHO            DTC            DTS             GR           NEUT      NEUT_CORR            PEF           RESD           RESM           RESS             SP           TEMP           TENS 
# ...
    3584.90520         8.5000         8.4579         2.4813       0.001379        82.8665       152.8806       117.2171         0.4545         0.4511         3.0578        18.9500        21.0125        24.1421      -155.5412       121.4119      2325.5754
    3585.05760         8.5000         8.4576         2.4747       0.004073        84.2229       155.7260       117.8164         0.4724         0.4689         3.0421        18.2319        20.5900        24.0164      -155.8423       121.4119      2323.6401
    3585.21000         8.5000         8.4530         2.4593       0.009575        85.9267       159.6746       119.8671         0.4964         0.4929         2.9718        17.9705        20.4649        23.8158      -155.9493       121.4119      2311.9324
    3585.36240         8.5000         8.4483         2.4438       0.015076        87.6305       163.6232       121.9179         0.5204         0.5169         2.9014        17.7091        20.3399        23.6152      -156.0563       121.4119      2300.2244
    3585.51480         8.5000         8.4520         2.4319       0.021214        88.4751       166.9278       123.2944         0.5444         0.5409         2.8318        17.8756        20.6412        23.8350      -156.1379       121.4119      2289.6292
    3585.66720         8.5000         8.5334         2.4535       0.033272        81.3316       164.2457       118.4030         0.5684         0.5649         2.7681        22.0212        24.9054        27.9628      -155.9832       121.4119      2289.3770
    3585.81960         8.5000         8.6148         2.4750       0.045329        74.1882       161.5635       113.5117         0.5925         0.5889         2.7045        26.1667        29.1697        32.0906      -155.8284       121.4119      2289.1248
    3585.97200         8.5000         8.6962         2.4966       0.057387        67.0447       158.8813       108.6203         0.6166         0.6130         2.6408        30.3122        33.4340        36.2184      -155.6736       121.4119      2288.8726
    3586.12440         8.5000         8.6683         2.5190       0.047945        66.3118       149.4211       106.3666         0.5655         0.5619         2.6154        26.4748        29.1132        31.6073      -155.4422       121.4119      2293.7952
    3586.27680         8.5000         8.6158         2.5415       0.033664        67.0218       138.4352       104.7067         0.4975         0.4940         2.5985        20.8407        22.8601        25.0294      -155.1934       121.4119      2299.8826
    3586.42920         8.5000         8.5634         2.5641       0.019383        67.7318       127.4493       103.0467         0.4295         0.4261         2.5817        15.2066        16.6069        18.4514      -154.9446       121.4119      2305.9700
    3586.58160         8.5000         8.5594         2.5720       0.013799        68.0820       121.1387        99.3752         0.3809         0.3773         2.5505        11.7723        12.7706        14.2790      -154.4921       121.4119      2307.1602
    3586.73400         8.5000         8.5976         2.5670       0.015763        68.1200       118.8846        93.9584         0.3491         0.3452         2.5069        10.2465        11.0310        12.1939      -153.8628       121.4119      2304.1011
    3586.88640         8.5000         8.6358         2.5621       0.017727        68.1580       116.6305        88.5415         0.3173         0.3131         2.4633         8.7208         9.2915        10.1087      -153.2335       121.4119      2301.0417
    3587.03880         8.5000         8.6675         2.5561       0.018028        68.1934       114.9701        84.7175         0.2906         0.2861         2.4245         7.5933         7.9755         8.5348      -152.6286       121.4119      2296.4070
    3587.19120         8.5000         8.6801         2.5470       0.013460        68.2212       115.0479        85.5567         0.2791         0.2741         2.3997         7.6316         7.8994         8.4575      -152.0950       121.4119      2287.1589
    3587.34360         8.5000         8.6927         2.5379       0.008893        68.2491       115.1256        86.3960         0.2675         0.2621         2.3750         7.6700         7.8233         8.3802      -151.5615       121.4119      2277.9111
    3587.49600         8.5000         8.7053         2.5287       0.004325        68.2769       115.2034        87.2353         0.2560         0.2500         2.3503         7.7084         7.7473         8.3029      -151.0279       121.4119      2268.6631
    3587.64840         8.5000         8.6676         2.5326       0.003042        68.7369       114.9660        90.0013         0.2581         0.2521         2.3956         8.4980         8.4151         8.7596      -150.7959       121.4119      2274.3862
    3587.80080         8.5000         8.6287         2.5369       0.001848        69.2086       114.7201        92.8192         0.2606         0.2545         2.4428         9.3079         9.1031         9.2307      -150.5719       121.4119      2280.5129
    3587.95320         8.5000         8.5897         2.5411       0.000654        69.6802       114.4742        95.6371         0.2630         0.2569         2.4900        10.1179         9.7910         9.7018      -150.3480       121.4119      2286.6396
    3588.10560         8.5000         8.5638         2.5346       0.002349        69.7963       114.8329        93.9813         0.2583         0.2526         2.5074         9.3923         9.0795         8.9899      -150.0378       121.4119      2283.5027
    3588.25800         8.5000         8.5437         2.5233       0.005323        69.7549       115.4597        90.3428         0.2504         0.2452         2.5117         7.9863         7.7477         7.7538      -149.6893       121.4119      2276.2603
    3588.41040         8.5000         8.5236         2.5120       0.008297        69.7134       116.0864        86.7043         0.2425         0.2379         2.5160         6.5803         6.4159         6.5177      -149.3408       121.4119      2269.0181
    3588.56280         8.5000         8.5042         2.5060       0.010640        69.6568       117.0506        84.1626         0.2357         0.2313         2.5229         5.8281         5.7356         5.8424      -149.1991       121.4119      2268.8513
    3588.71520         8.5000         8.4859         2.5077       0.012083        69.5786       118.4962        83.1858         0.2306         0.2258         2.5335         6.0088         5.9849         5.9673      -149.3523       121.4119      2278.7800
    3588.86760         8.5000         8.4676         2.5094       0.013525        69.5003       119.9417        82.2090         0.2254         0.2202         2.5441         6.1895         6.2343         6.0922      -149.5056       121.4119      2288.7087
    3589.02000         8.5000         8.4489         2.5079       0.014692        69.4770       121.2160        81.0580         0.2207         0.2151         2.5557         6.1867         6.2921         6.0583      -149.6065       121.4119      2297.9939
    3589.17240         8.5000         8.4283         2.4852       0.014035        69.8174       121.3563        78.7546         0.2186         0.2129         2.5740         4.9699         5.0820         4.9736      -149.3614       121.4119      2303.0181
    3589.32480         8.5000         8.4077         2.4625       0.013379        70.1578       121.4966        76.4511         0.2165         0.2106         2.5922         3.7531         3.8720         3.8888      -149.1163       121.4119      2308.0422
    3589.47720         8.5000         8.3871         2.4398       0.012722        70.4982       121.6369        74.1476         0.2144         0.2084         2.6104         2.5363         2.6619         2.8040      -148.8712       121.4119      2313.0664
    3589.62960         8.5000         8.3847         2.4576       0.012970        70.5792       121.2879        76.5746         0.2154         0.2094         2.5894         3.5151         3.7967         3.7021      -149.0824       121.4119      2310.3157
