~Version Information Block
VERS .                 2.00:  CWLS LOG ASCII STANDARD - VERSION 2.00
WRAP .                   NO:  One line per depth step
~Well Information Block
#MNEM.UNIT        Data Type   Information
#---------- ----------------  -----------
STRT .M          3141.11640:  START DEPTH
STOP .M          4189.93320:  STOP DEPTH
STEP .M             0.15240:  STEP
NULL .              -999.25:  NULL VALUE
COMP .                     :  COMPANY
WELL .             Pukeko-1:  WELL
FLD  .                     :  FIELD
LOC  .                     :  LOCATION
CTRY .                     :  COUNTRY
STAT .                     :  STATE
CNTY .                     :  COUNTY
SRVC .     New Zealand Overseas Petroleum Ltd:  SERVICE COMPANY
DATE .                     :  DATE
API  .                     :  API NUMBER
UWI  .         100000502205:  UNIQUE WELL ID
LATI .          -39.9215617:  LATITUDE
LONG .          172.9374089:  LONGITUDE
~Curve Information Block
#MNEM.UNIT         API CODE   Curve Description
#---------- ----------------  -----------------
DEPTH.M                    :  
BS   .IN                   :  Bit Size (Created in Geolog)
CALI .IN                   :  HRCC Cal. Caliper (HCAL)
DENS .G/C3                 :  HRDD High Resolution Formation Density (RHO8)
DRHO .G/C3                 :  HRDD Density Correction (HDRA)
DTC  .US/F                 :  Delta-T Compressional (DTCO)
DTS  .US/F                 :  Delta-T Shear (DTSM)
GR   .GAPI                 :  HiRes Gamma-Ray (HGR)
NEUT .V/V                  :  HiRes Thermal Neutron Porosity (HTNP)
NEUT_CORR.V/V                  :  Corrected NPHI (limestone units)
PEF  .B/E                  :  HRDD High Resolution Formation Photoelectric Factor (PEF8)
RESD .OHMM                 :  HRLT Borehole Corrected Resistivity 5 (RLA5)
RESM .OHMM                 :  HRLT Borehole Corrected Resistivity 3 (RLA3)
RESS .OHMM                 :  HRLT Borehole Corrected Resistivity 1 (RLA1)
SP   .MV                   :  SP Shifted (SP)
TEMP .DEGC                 :  Cartridge Temperature (CTEM)
TENS .KGF                  :  Cable Tension (TENS)
~Parameter Information Block
#MNEM.UNIT            Value   Description
#---------- ----------------  -----------
CUR_INT_BOT.M                4190:  Current interpolated bottom
PROJECT.     New Zealand Log QC Project:  
SET  .     A0_FINAL_INTER_REF_D:  
ELEVATION_AMSL.M                  25:  Elevation above mean sea level
ELEVATION_REF.                   KB:  Measurement reference
FORMATION_AT_TD.             Basement:  Formation at TD
LICENCE_NUMBER.             PEP38460:  Licence number
ONSHORE_OR_OFFSHORE.             Offshore:  Onshore/offshore
PR_NUMBER.               PR2928:  Petroleum report number
SEAFLOOR_ELEVATION_BMSL.M            157.3000:  Seafloor elevation below mean sea level
SPUD_DATE.           28/04/2004:  Spud date
STATUS_AT_COMPLETION.     Temporary suspended:  Status at completion
TD_DATE.           26/05/2004:  Total depth date
TOTAL_DEPTH_DRILLED.M                4190:  Total depth drilled
WATER_DEPTH.M               132.3:  Water depth
~Other Information Block
# 
~A       DEPTH             BS           CALI           DENS           DRHO            DTC            DTS             GR           NEUT      NEUT_CORR            PEF           RESD           RESM           RESS             SP           TEMP           TENS 
# ...
    3185.00760        12.2500      -999.2500      -999.2500    -999.250000        71.0984       137.1094      -999.2500      -999.2500      -999.2500      -999.2500      -999.2500      -999.2500      -999.2500      -999.2500       111.5295      2169.4802
    3185.16000        12.2500      -999.2500      -999.2500    -999.250000        71.8513       138.2110      -999.2500      -999.2500      -999.2500      -999.2500      -999.2500      -999.2500      -999.2500      -999.2500       111.5295      2166.2468
    3185.31240        12.2500      -999.2500      -999.2500    -999.250000        72.6043       139.3127      -999.2500      -999.2500      -999.2500      -999.2500      -999.2500      -999.2500      -999.2500      -999.2500       111.5295      2163.0134
    3185.46480        12.2500      -999.2500      -999.2500    -999.250000        73.3573       140.4143      -999.2500      -999.2500      -999.2500      -999.2500      -999.2500      -999.2500      -999.2500      -999.2500       111.5295      2159.7803
    3185.61720        12.2500      -999.2500      -999.2500    -999.250000        73.2226       140.4599      -999.2500      -999.2500      -999.2500      -999.2500      -999.2500      -999.2500      -999.2500      -999.2500       111.5295      2157.5898
    3185.76960        12.2500      -999.2500      -999.2500    -999.250000        72.8214       140.1884      -999.2500      -999.2500      -999.2500      -999.2500      -999.2500      -999.2500      -999.2500      -999.2500       111.5295      2155.7124
    3185.92200        12.2500      -999.2500      -999.2500    -999.250000        72.4202       139.9169      -999.2500      -999.2500      -999.2500      -999.2500      -999.2500      -999.2500      -999.2500      -999.2500       111.5295      2153.8352
    3186.07440        12.2500      -999.2500      -999.2500    -999.250000        72.3869       139.2634      -999.2500      -999.2500      -999.2500      -999.2500      -999.2500      -999.2500      -999.2500      -999.2500       111.5295      2156.4028
    3186.22680        12.2500      -999.2500      -999.2500    -999.250000        72.7394       138.2094      -999.2500      -999.2500      -999.2500      -999.2500      -999.2500      -999.2500      -999.2500      -999.2500       111.5295      2163.6306
    3186.37920        12.2500      -999.2500      -999.2500    -999.250000        73.0919       137.1554      -999.2500      -999.2500      -999.2500      -999.2500      -999.2500      -999.2500      -999.2500      -999.2500       111.5295      2170.8584
    3186.53160        12.2500      -999.2500      -999.2500    -999.250000        73.3716       136.3373      -999.2500      -999.2500      -999.2500      -999.2500      -999.2500      -999.2500      -999.2500      -999.2500       111.5295      2177.1416
    3186.68400        12.2500      -999.2500      -999.2500    -999.250000        73.3731       136.4213      -999.2500      -999.2500      -999.2500      -999.2500      -999.2500      -999.2500      -999.2500      -999.2500       111.5295      2179.8140
    3186.83640        12.2500      -999.2500      -999.2500    -999.250000        73.3746       136.5052      -999.2500      -999.2500      -999.2500      -999.2500      -999.2500      -999.2500      -999.2500      -999.2500       111.5295      2182.4863
    3186.98880        12.2500      -999.2500      -999.2500    -999.250000        73.3761       136.5891      -999.2500      -999.2500      -999.2500      -999.2500      -999.2500      -999.2500      -999.2500      -999.2500       111.5295      2185.1589
    3187.14120        12.2500        12.0636         2.6103       0.014653        73.2677       136.5738        73.6181         0.3156         0.3099         4.3516         5.2076         7.9660         7.0857      -139.4800       111.5295      2180.2798
    3187.29360        12.2500        12.0386         2.6038       0.005955        73.1505       136.5506        69.9247         0.3087         0.3024         4.3342         5.3761         8.1148         6.9340      -143.1331       111.5295      2174.8020
    3187.44600        12.2500        12.0136         2.5973      -0.002743        73.0333       136.5275        66.2313         0.3018         0.2949         4.3168         5.5445         8.2635         6.7823      -146.7862       111.5295      2169.3240
    3187.59840        12.2500        12.0288         2.5966      -0.005514        73.1162       136.5550        65.7198         0.3017         0.2947         4.3209         5.6443         8.1998         6.7087      -149.5029       111.5295      2165.1868
    3187.75080        12.2500        12.0661         2.5991      -0.005034        73.3090       136.6104        66.9545         0.3053         0.2984         4.3370         5.7065         8.0196         6.6779      -151.7057       111.5295      2161.7852
    3187.90320        12.2500        12.1033         2.6016      -0.004554        73.5017       136.6658        68.1891         0.3090         0.3021         4.3530         5.7686         7.8393         6.6472      -153.9085       111.5295      2158.3835
    3188.05560        12.2500        12.1235         2.6023      -0.004065        73.5475       136.6908        69.5702         0.3111         0.3043         4.3602         5.9806         7.7822         6.6585      -155.6465       111.5295      2155.0100
    3188.20800        12.2500        12.1141         2.5999      -0.003561        73.3375       136.6627        71.2060         0.3107         0.3039         4.3519         6.4533         7.9396         6.7430      -156.5754       111.5295      2151.6853
    3188.36040        12.2500        12.1046         2.5975      -0.003057        73.1276       136.6346        72.8418         0.3103         0.3035         4.3436         6.9260         8.0969         6.8275      -157.5042       111.5295      2148.3608
    3188.51280        12.2500        12.0975         2.5958      -0.002592        72.9367       136.5944        74.4160         0.3094         0.3026         4.3390         7.3921         8.2471         6.9132      -158.3823       111.5504      2145.8997
    3188.66520        12.2500        12.1162         2.6018      -0.002545        72.9536       136.4222        75.3181         0.3028         0.2960         4.3734         7.7862         8.3194         7.0120      -158.7063       111.7991      2152.8567
    3188.81760        12.2500        12.1349         2.6078      -0.002499        72.9706       136.2501        76.2203         0.2962         0.2894         4.4078         8.1804         8.3917         7.1107      -159.0303       112.0478      2159.8137
    3188.97000        12.2500        12.1536         2.6138      -0.002453        72.9875       136.0780        77.1224         0.2896         0.2828         4.4422         8.5745         8.4640         7.2094      -159.3544       112.2965      2166.7710
    3189.12240        12.2500        12.1751         2.6103      -0.002950        73.0748       136.1782        76.3515         0.2865         0.2795         4.4017         8.4549         8.2802         7.0824      -159.3394       112.1457      2177.0154
    3189.27480        12.2500        12.1972         2.6045      -0.003582        73.1793       136.3450        75.1706         0.2842         0.2771         4.3429         8.2093         8.0337         6.9000      -159.2413       111.8970      2188.0654
    3189.42720        12.2500        12.2193         2.5987      -0.004213        73.2838       136.5119        73.9897         0.2819         0.2746         4.2840         7.9638         7.7871         6.7176      -159.1431       111.6483      2199.1157
    3189.57960        12.2500        12.2121         2.5983      -0.004338        73.2425       136.3794        73.0840         0.2795         0.2720         4.2727         7.9803         7.7946         6.6580      -159.7743       111.6583      2200.3123
    3189.73200        12.2500        12.1782         2.6028      -0.004000        73.0679       135.9731        72.4301         0.2770         0.2693         4.3047         8.2364         8.0345         6.7108      -161.0723       111.9048      2192.4971
