~Version Information Block
VERS .                 2.00:  CWLS LOG ASCII STANDARD - VERSION 2.00
WRAP .                   NO:  One line per depth step
~Well Information Block
#MNEM.UNIT        Data Type   Information
#---------- ----------------  -----------
STRT .M          3141.11640:  START DEPTH
STOP .M          4189.93320:  STOP DEPTH
STEP .M             0.15240:  STEP
NULL .              -999.25:  NULL VALUE
COMP .                     :  COMPANY
WELL .             Pukeko-1:  WELL
FLD  .                     :  FIELD
LOC  .                     :  LOCATION
CTRY .                     :  COUNTRY
STAT .                     :  STATE
CNTY .                     :  COUNTY
SRVC .     New Zealand Overseas Petroleum Ltd:  SERVICE COMPANY
DATE .                     :  DATE
API  .                     :  API NUMBER
UWI  .         100000502205:  UNIQUE WELL ID
LATI .          -39.9215617:  LATITUDE
LONG .          172.9374089:  LONGITUDE
~Curve Information Block
#MNEM.UNIT         API CODE   Curve Description
#---------- ----------------  -----------------
DEPTH.M                    :  
BS   .IN                   :  Bit Size (Created in Geolog)
CALI .IN                   :  HRCC Cal. Caliper (HCAL)
DENS .G/C3                 :  HRDD High Resolution Formation Density (RHO8)
DRHO .G/C3                 :  HRDD Density Correction (HDRA)
DTC  .US/F                 :  Delta-T Compressional (DTCO)
DTS  .US/F                 :  Delta-T Shear (DTSM)
GR   .GAPI                 :  HiRes Gamma-Ray (HGR)
NEUT .V/V                  :  HiRes Thermal Neutron Porosity (HTNP)
NEUT_CORR.V/V                  :  Corrected NPHI (limestone units)
PEF  .B/E                  :  HRDD High Resolution Formation Photoelectric Factor (PEF8)
RESD .OHMM                 :  HRLT Borehole Corrected Resistivity 5 (RLA5)
RESM .OHMM                 :  HRLT Borehole Corrected Resistivity 3 (RLA3)
RESS .OHMM                 :  HRLT Borehole Corrected Resistivity 1 (RLA1)
SP   .MV                   :  SP Shifted (SP)
TEMP .DEGC                 :  Cartridge Temperature (CTEM)
TENS .KGF                  :  Cable Tension (TENS)
~Parameter Information Block
#MNEM.UNIT            Value   Description
#---------- ----------------  -----------
CUR_INT_BOT.M                4190:  Current interpolated bottom
PROJECT.     New Zealand Log QC Project:  
SET  .     A0_FINAL_INTER_REF_D:  
ELEVATION_AMSL.M                  25:  Elevation above mean sea level
ELEVATION_REF.                   KB:  Measurement reference
FORMATION_AT_TD.             Basement:  Formation at TD
LICENCE_NUMBER.             PEP38460:  Licence number
ONSHORE_OR_OFFSHORE.             Offshore:  Onshore/offshore
PR_NUMBER.               PR2928:  Petroleum report number
SEAFLOOR_ELEVATION_BMSL.M            157.3000:  Seafloor elevation below mean sea level
SPUD_DATE.           28/04/2004:  Spud date
STATUS_AT_COMPLETION.     Temporary suspended:  Status at completion
TD_DATE.           26/05/2004:  Total depth date
TOTAL_DEPTH_DRILLED.M                4190:  Total depth drilled
WATER_DEPTH.M               132.3:  Water depth
~Other Information Block
# 
~A       DEPTH             BS           CALI           DENS           DRHO            DTC            DTS             GR           NEUT      NEUT_CORR            PEF           RESD           RESM           RESS             SP           TEMP           TENS 
# ...
    3316.68120         8.5000         8.5606         2.5913       0.003344        75.7108       137.2283        96.7122         0.3715         0.3675         4.0300         8.8193         8.4928         8.3903      -155.7175       114.8236      2196.3181
    3316.83360         8.5000         8.5583         2.5957       0.003436        75.1707       135.6659        96.2247         0.3621         0.3578         3.9964         9.1445         8.8275         8.6621      -155.4991       114.8236      2207.3123
    3316.98600         8.5000         8.5561         2.6001       0.003529        74.6307       134.1036        95.7371         0.3528         0.3480         3.9628         9.4698         9.1623         8.9339      -155.2806       114.8236      2218.3064
    3317.13840         8.5000         8.5533         2.5999       0.003322        74.9163       134.1199        94.2058         0.3491         0.3445         3.9500         9.2378         8.9711         8.7331      -155.1608       114.8236      2207.7363
    3317.29080         8.5000         8.5506         2.5993       0.003085        75.2854       134.2958        92.5689         0.3459         0.3416         3.9393         8.9495         8.7267         8.4846      -155.0510       114.8236      2194.9851
    3317.44320         8.5000         8.5478         2.5986       0.002849        75.6546       134.4718        90.9320         0.3428         0.3386         3.9286         8.6612         8.4823         8.2361      -154.9412       114.8236      2182.2336
    3317.59560         8.5000         8.5485         2.5931       0.003024        76.0189       135.1450        90.1025         0.3450         0.3410         3.8852         8.5199         8.3951         8.1461      -154.6967       114.8236      2187.0979
    3317.74800         8.5000         8.5514         2.5846       0.003445        76.3803       136.1135        89.7527         0.3505         0.3464         3.8224         8.4661         8.4014         8.1503      -154.3722       114.8236      2202.4285
    3317.90040         8.5000         8.5542         2.5761       0.003866        76.7418       137.0821        89.4029         0.3559         0.3518         3.7596         8.4122         8.4076         8.1545      -154.0477       114.8236      2217.7590
    3318.05280         8.5000         8.5576         2.5741       0.004152        76.9592       137.7845        89.3784         0.3623         0.3583         3.7583         8.3357         8.3609         8.1537      -153.8019       114.8236      2225.2136
    3318.20520         8.5000         8.5618         2.5843       0.004187        76.9050       137.9849        89.9676         0.3707         0.3669         3.8731         8.2162         8.2143         8.1437      -153.7047       114.8236      2217.8118
    3318.35760         8.5000         8.5660         2.5946       0.004221        76.8508       138.1853        90.5568         0.3790         0.3756         3.9879         8.0967         8.0678         8.1337      -153.6075       114.8236      2210.4097
    3318.51000         8.5000         8.5694         2.6044       0.004135        76.7936       138.3611        91.2046         0.3860         0.3828         4.0959         8.0471         7.9818         8.1870      -153.4706       114.8236      2203.0007
    3318.66240         8.5000         8.5597         2.6075       0.002336        76.6929       138.1859        92.6866         0.3743         0.3705         4.1064         8.9921         8.7587         9.1432      -152.7683       114.8236      2195.4932
    3318.81480         8.5000         8.5501         2.6106       0.000538        76.5922       138.0106        94.1687         0.3625         0.3582         4.1169         9.9371         9.5356        10.0993      -152.0661       114.8236      2187.9854
    3318.96720         8.5000         8.5404         2.6136      -0.001261        76.4915       137.8354        95.6507         0.3508         0.3459         4.1273        10.8821        10.3126        11.0555      -151.3639       114.8236      2180.4775
    3319.11960         8.5000         8.5408         2.6008       0.000087        74.8180       133.5556        97.8095         0.3503         0.3455         4.1170        13.2317        12.7462        13.0579      -150.2280       114.8236      2179.1975
    3319.27200         8.5000         8.5439         2.5836       0.002299        72.7133       128.1500       100.1538         0.3529         0.3484         4.1009        15.9665        15.6342        15.3472      -148.9731       114.8236      2179.6250
    3319.42440         8.5000         8.5470         2.5664       0.004510        70.6085       122.7445       102.4981         0.3556         0.3512         4.0848        18.7013        18.5222        17.6366      -147.7183       114.8236      2180.0527
    3319.57680         8.5000         8.5436         2.5556       0.009308        69.8982       119.7381        98.2209         0.3329         0.3288         3.9079        17.7836        17.7045        16.6057      -146.5593       114.8692      2185.6301
    3319.72920         8.5000         8.5338         2.5510       0.016652        70.5605       119.0933        87.4255         0.2853         0.2813         3.5727        13.2706        13.2388        12.3066      -145.4946       114.9597      2196.2769
    3319.88160         8.5000         8.5239         2.5464       0.023997        71.2228       118.4485        76.6302         0.2377         0.2338         3.2375         8.7575         8.7732         8.0074      -144.4299       115.0502      2206.9233
    3320.03400         8.5000         8.5111         2.5333       0.028131        72.2220       119.0486        69.4780         0.2059         0.2021         2.9653         5.0393         5.1061         4.5034      -143.4978       115.1749      2214.9214
    3320.18640         8.5000         8.4880         2.4903       0.021083        74.3942       123.9840        75.0127         0.2294         0.2253         2.9124         4.0890         4.2198         3.7682      -143.0275       115.4192      2213.6953
    3320.33880         8.5000         8.4648         2.4474       0.014036        76.5663       128.9195        80.5475         0.2529         0.2485         2.8596         3.1387         3.3336         3.0330      -142.5572       115.6634      2212.4692
    3320.49120         8.5000         8.4416         2.4044       0.006989        78.7385       133.8549        86.0822         0.2764         0.2717         2.8067         2.1884         2.4474         2.2978      -142.0869       115.9076      2211.2432
    3320.64360         8.5000         8.4197         2.4001       0.005391        78.4676       134.1028        86.2131         0.2838         0.2792         2.8136         2.6503         3.0279         2.6628      -142.0523       115.9217      2214.5620
    3320.79600         8.5000         8.3979         2.3981       0.004127        78.0470       134.0635        86.0128         0.2902         0.2857         2.8242         3.1986         3.6984         3.0952      -142.0444       115.9217      2218.1597
    3320.94840         8.5000         8.3761         2.3962       0.002863        77.6265       134.0241        85.8125         0.2966         0.2923         2.8348         3.7469         4.3688         3.5276      -142.0365       115.9217      2221.7571
    3321.10080         8.5000         8.3809         2.3960       0.003900        76.9404       132.6084        85.0592         0.2987         0.2944         2.8652         4.2734         4.8051         3.9706      -142.2431       115.9217      2219.2349
    3321.25320         8.5000         8.3993         2.3967       0.006116        76.1183       130.4882        84.0228         0.2986         0.2944         2.9058         4.7886         5.1216         4.4191      -142.5593       115.9217      2213.5798
    3321.40560         8.5000         8.4177         2.3974       0.008331        75.2963       128.3679        82.9864         0.2986         0.2943         2.9464         5.3039         5.4382         4.8675      -142.8756       115.9217      2207.9248
