~Version Information Block
VERS .                 2.00:  CWLS LOG ASCII STANDARD - VERSION 2.00
WRAP .                   NO:  One line per depth step
~Well Information Block
#MNEM.UNIT        Data Type   Information
#---------- ----------------  -----------
STRT .M          3141.11640:  START DEPTH
STOP .M          4189.93320:  STOP DEPTH
STEP .M             0.15240:  STEP
NULL .              -999.25:  NULL VALUE
COMP .                     :  COMPANY
WELL .             Pukeko-1:  WELL
FLD  .                     :  FIELD
LOC  .                     :  LOCATION
CTRY .                     :  COUNTRY
STAT .                     :  STATE
CNTY .                     :  COUNTY
SRVC .     New Zealand Overseas Petroleum Ltd:  SERVICE COMPANY
DATE .                     :  DATE
API  .                     :  API NUMBER
UWI  .         100000502205:  UNIQUE WELL ID
LATI .          -39.9215617:  LATITUDE
LONG .          172.9374089:  LONGITUDE
~Curve Information Block
#MNEM.UNIT         API CODE   Curve Description
#---------- ----------------  -----------------
DEPTH.M                    :  
BS   .IN                   :  Bit Size (Created in Geolog)
CALI .IN                   :  HRCC Cal. Caliper (HCAL)
DENS .G/C3                 :  HRDD High Resolution Formation Density (RHO8)
DRHO .G/C3                 :  HRDD Density Correction (HDRA)
DTC  .US/F                 :  Delta-T Compressional (DTCO)
DTS  .US/F                 :  Delta-T Shear (DTSM)
GR   .GAPI                 :  HiRes Gamma-Ray (HGR)
NEUT .V/V                  :  HiRes Thermal Neutron Porosity (HTNP)
NEUT_CORR.V/V                  :  Corrected NPHI (limestone units)
PEF  .B/E                  :  HRDD High Resolution Formation Photoelectric Factor (PEF8)
RESD .OHMM                 :  HRLT Borehole Corrected Resistivity 5 (RLA5)
RESM .OHMM                 :  HRLT Borehole Corrected Resistivity 3 (RLA3)
RESS .OHMM                 :  HRLT Borehole Corrected Resistivity 1 (RLA1)
SP   .MV                   :  SP Shifted (SP)
TEMP .DEGC                 :  Cartridge Temperature (CTEM)
TENS .KGF                  :  Cable Tension (TENS)
~Parameter Information Block
#MNEM.UNIT            Value   Description
#---------- ----------------  -----------
CUR_INT_BOT.M                4190:  Current interpolated bottom
PROJECT.     New Zealand Log QC Project:  
SET  .     A0_FINAL_INTER_REF_D:  
ELEVATION_AMSL.M                  25:  Elevation above mean sea level
ELEVATION_REF.                   KB:  Measurement reference
FORMATION_AT_TD.             Basement:  Formation at TD
LICENCE_NUMBER.             PEP38460:  Licence number
ONSHORE_OR_OFFSHORE.             Offshore:  Onshore/offshore
PR_NUMBER.               PR2928:  Petroleum report number
SEAFLOOR_ELEVATION_BMSL.M            157.3000:  Seafloor elevation below mean sea level
SPUD_DATE.           28/04/2004:  Spud date
STATUS_AT_COMPLETION.     Temporary suspended:  Status at completion
TD_DATE.           26/05/2004:  Total depth date
TOTAL_DEPTH_DRILLED.M                4190:  Total depth drilled
WATER_DEPTH.M               132.3:  Water depth
~Other Information Block
# 
~A       DEPTH             BS           CALI           DENS           DRHO            DTC            DTS             GR           NEUT      NEUT_CORR            PEF           RESD           RESM           RESS             SP           TEMP           TENS 
# ...
    3979.92600         8.5000         8.2881         2.4560       0.006899        68.8199       118.1466        89.2267         0.2182         0.2125         2.6013         3.9887         4.2345         4.5357      -150.4729       131.2942      2443.8857
    3980.07840         8.5000         8.2901         2.4520       0.006614        68.0841       116.9611        88.6421         0.2160         0.2102         2.5942         3.7408         4.0083         4.3851      -150.4990       131.2942      2447.7117
    3980.23080         8.5000         8.3011         2.4743       0.008681        66.7440       114.3526        89.2644         0.2175         0.2119         2.7211         4.5468         4.8845         5.2677      -150.4201       131.2942      2458.0127
    3980.38320         8.5000         8.3120         2.4967       0.010747        65.4040       111.7441        89.8866         0.2190         0.2136         2.8480         5.3528         5.7606         6.1503      -150.3413       131.2942      2468.3137
    3980.53560         8.5000         8.3245         2.5247       0.012305        64.0900       109.5002        88.9594         0.2155         0.2104         2.9462        10.8703        11.3434        11.2899      -150.2932       131.2942      2474.8569
    3980.68800         8.5000         8.3418         2.5714       0.012195        62.8616       108.4523        82.9483         0.1952         0.1914         2.9503        31.8458        32.3680        30.3964      -150.3460       131.2942      2469.0713
    3980.84040         8.5000         8.3592         2.6182       0.012085        61.6332       107.4044        76.9373         0.1750         0.1724         2.9544        52.8213        53.3926        49.5030      -150.3988       131.2942      2463.2856
    3980.99280         8.5000         8.3765         2.6649       0.011975        60.4048       106.3566        70.9263         0.1547         0.1534         2.9585        73.7969        74.4172        68.6095      -150.4515       131.2942      2457.5000
    3981.14520         8.5000         8.3834         2.6375       0.014089        61.8148       107.3619        77.9339         0.1659         0.1639         2.9596        56.9505        57.5255        53.2047      -150.8316       131.2942      2462.3989
    3981.29760         8.5000         8.3897         2.6065       0.016313        63.3556       108.4690        85.5871         0.1786         0.1759         2.9606        38.2287        38.7536        36.0886      -151.2279       131.2942      2467.8276
    3981.45000         8.5000         8.3961         2.5755       0.018537        64.8964       109.5761        93.2403         0.1914         0.1879         2.9616        19.5068        19.9817        18.9725      -151.6242       131.2942      2473.2566
    3981.60240         8.5000         8.3854         2.5527       0.016702        65.7922       110.6717        94.0640         0.1971         0.1929         2.8996        12.1276        12.5895        12.3422      -152.1283       131.2942      2470.9453
    3981.75480         8.5000         8.3664         2.5339       0.012887        66.3731       111.7618        91.5531         0.1993         0.1946         2.8068        10.2867        10.7537        10.8319      -152.6851       131.2942      2464.8545
    3981.90720         8.5000         8.3474         2.5151       0.009071        66.9541       112.8519        89.0421         0.2015         0.1964         2.7140         8.4459         8.9179         9.3216      -153.2419       131.2942      2458.7639
    3982.05960         8.5000         8.3444         2.5074       0.007075        66.7389       113.1155        88.2232         0.2054         0.2000         2.6816         7.7268         8.2387         8.7382      -153.9921       131.2942      2457.8552
    3982.21200         8.5000         8.3664         2.5169       0.007913        65.2842       112.0921        90.0389         0.2119         0.2066         2.7434         8.7545         9.3604         9.5981      -155.0434       131.2942      2465.0151
    3982.36440         8.5000         8.3883         2.5265       0.008750        63.8295       111.0687        91.8546         0.2184         0.2132         2.8051         9.7822        10.4820        10.4580      -156.0947       131.2942      2472.1750
    3982.51680         8.5000         8.4076         2.5380       0.009069        62.3658       109.7213        92.7751         0.2225         0.2174         2.8642        10.9954        11.7691        11.5245      -157.0431       131.2942      2477.7913
    3982.66920         8.5000         8.4047         2.5659       0.005193        60.8295       105.7589        86.4708         0.2071         0.2026         2.9018        13.7064        14.3920        14.2584      -157.1609       131.2942      2470.9478
    3982.82160         8.5000         8.4018         2.5938       0.001317        59.2931       101.7964        80.1664         0.1916         0.1878         2.9395        16.4173        17.0149        16.9922      -157.2788       131.2942      2464.1042
    3982.97400         8.5000         8.3989         2.6217      -0.002559        57.7567        97.8339        73.8621         0.1762         0.1731         2.9771        19.1282        19.6378        19.7261      -157.3967       131.2942      2457.2607
    3983.12640         8.5000         8.3965         2.6448       0.002023        57.9103        97.0693        69.7715         0.1643         0.1617         3.0783        24.3017        24.6767        24.3154      -157.6907       131.2942      2453.1511
    3983.27880         8.5000         8.3942         2.6670       0.008346        58.4114        96.9624        66.1364         0.1532         0.1511         3.1926        29.9817        30.2126        29.2864      -158.0209       131.2942      2449.6035
    3983.43120         8.5000         8.3919         2.6892       0.014668        58.9126        96.8555        62.5012         0.1421         0.1406         3.3069        35.6617        35.7485        34.2573      -158.3512       131.2942      2446.0562
    3983.58360         8.5000         8.3921         2.6818       0.016641        58.8324        97.4325        65.3570         0.1443         0.1427         3.2908        36.4147        36.5062        35.4790      -158.6305       131.2942      2449.4099
    3983.73600         8.5000         8.3942         2.6502       0.015034        58.2738        98.5724        73.5546         0.1576         0.1554         3.1675        33.1130        33.3318        33.6151      -158.8679       131.2942      2458.4431
    3983.88840         8.5000         8.3963         2.6185       0.013427        57.7152        99.7122        81.7521         0.1708         0.1680         3.0443        29.8113        30.1574        31.7512      -159.1053       131.2942      2467.4766
    3984.04080         8.5000         8.3969         2.6043       0.012086        57.1913       100.6405        85.5069         0.1765         0.1735         2.9706        34.8096        35.7269        38.3409      -159.3387       131.2942      2476.1230
    3984.19320         8.5000         8.3934         2.6383       0.011470        56.7624       100.9900        77.1090         0.1618         0.1594         3.0329        62.5110        65.2138        68.0538      -159.5612       131.2942      2483.7119
    3984.34560         8.5000         8.3898         2.6723       0.010855        56.3335       101.3395        68.7111         0.1471         0.1452         3.0953        90.2123        94.7007        97.7668      -159.7837       131.2942      2491.3005
    3984.49800         8.5000         8.3863         2.7062       0.010239        55.9046       101.6890        60.3133         0.1324         0.1311         3.1576       117.9137       124.1876       127.4797      -160.0062       131.2942      2498.8892
    3984.65040         8.5000         8.3889         2.7025       0.009185        56.1299       100.7103        62.4822         0.1395         0.1380         3.1942       107.8019       113.7023       116.5326      -160.0940       131.2942      2488.5500
