~Version Information Block
VERS .                 2.00:  CWLS LOG ASCII STANDARD - VERSION 2.00
WRAP .                   NO:  One line per depth step
~Well Information Block
#MNEM.UNIT        Data Type   Information
#---------- ----------------  -----------
STRT .M          3141.11640:  START DEPTH
STOP .M          4189.93320:  STOP DEPTH
STEP .M             0.15240:  STEP
NULL .              -999.25:  NULL VALUE
COMP .                     :  COMPANY
WELL .             Pukeko-1:  WELL
FLD  .                     :  FIELD
LOC  .                     :  LOCATION
CTRY .                     :  COUNTRY
STAT .                     :  STATE
CNTY .                     :  COUNTY
SRVC .     New Zealand Overseas Petroleum Ltd:  SERVICE COMPANY
DATE .                     :  DATE
API  .                     :  API NUMBER
UWI  .         100000502205:  UNIQUE WELL ID
LATI .          -39.9215617:  LATITUDE
LONG .          172.9374089:  LONGITUDE
~Curve Information Block
#MNEM.UNIT         API CODE   Curve Description
#---------- ----------------  -----------------
DEPTH.M                    :  
BS   .IN                   :  Bit Size (Created in Geolog)
CALI .IN                   :  HRCC Cal. Caliper (HCAL)
DENS .G/C3                 :  HRDD High Resolution Formation Density (RHO8)
DRHO .G/C3                 :  HRDD Density Correction (HDRA)
DTC  .US/F                 :  Delta-T Compressional (DTCO)
DTS  .US/F                 :  Delta-T Shear (DTSM)
GR   .GAPI                 :  HiRes Gamma-Ray (HGR)
NEUT .V/V                  :  HiRes Thermal Neutron Porosity (HTNP)
NEUT_CORR.V/V                  :  Corrected NPHI (limestone units)
PEF  .B/E                  :  HRDD High Resolution Formation Photoelectric Factor (PEF8)
RESD .OHMM                 :  HRLT Borehole Corrected Resistivity 5 (RLA5)
RESM .OHMM                 :  HRLT Borehole Corrected Resistivity 3 (RLA3)
RESS .OHMM                 :  HRLT Borehole Corrected Resistivity 1 (RLA1)
SP   .MV                   :  SP Shifted (SP)
TEMP .DEGC                 :  Cartridge Temperature (CTEM)
TENS .KGF                  :  Cable Tension (TENS)
~Parameter Information Block
#MNEM.UNIT            Value   Description
#---------- ----------------  -----------
CUR_INT_BOT.M                4190:  Current interpolated bottom
PROJECT.     New Zealand Log QC Project:  
SET  .     A0_FINAL_INTER_REF_D:  
ELEVATION_AMSL.M                  25:  Elevation above mean sea level
ELEVATION_REF.                   KB:  Measurement reference
FORMATION_AT_TD.             Basement:  Formation at TD
LICENCE_NUMBER.             PEP38460:  Licence number
ONSHORE_OR_OFFSHORE.             Offshore:  Onshore/offshore
PR_NUMBER.               PR2928:  Petroleum report number
SEAFLOOR_ELEVATION_BMSL.M            157.3000:  Seafloor elevation below mean sea level
SPUD_DATE.           28/04/2004:  Spud date
STATUS_AT_COMPLETION.     Temporary suspended:  Status at completion
TD_DATE.           26/05/2004:  Total depth date
TOTAL_DEPTH_DRILLED.M                4190:  Total depth drilled
WATER_DEPTH.M               132.3:  Water depth
~Other Information Block
# 
~A       DEPTH             BS           CALI           DENS           DRHO            DTC            DTS             GR           NEUT      NEUT_CORR            PEF           RESD           RESM           RESS             SP           TEMP           TENS 
# ...
    3448.35480         8.5000         8.3319         2.3084      -0.002665        73.9168       131.2249        41.2345         0.2271         0.2222         2.0433         0.9929         0.8740         0.8047      -143.1826       118.1178      2284.0186
    3448.50720         8.5000         8.3291         2.3093      -0.002692        73.9133       131.4892        40.2636         0.2260         0.2210         2.0407         0.9837         0.8834         0.8085      -142.9870       118.1178      2276.4065
    3448.65960         8.5000         8.3305         2.3154      -0.000604        73.9308       131.3724        39.9295         0.2256         0.2207         2.0385         0.9874         0.9112         0.8256      -143.2407       118.1178      2262.6316
    3448.81200         8.5000         8.3318         2.3214       0.001485        73.9483       131.2555        39.5955         0.2253         0.2203         2.0364         0.9911         0.9390         0.8427      -143.4945       118.1178      2248.8564
    3448.96440         8.5000         8.3332         2.3275       0.003573        73.9659       131.1387        39.2614         0.2250         0.2199         2.0342         0.9947         0.9668         0.8597      -143.7482       118.1178      2235.0813
    3449.11680         8.5000         8.3331         2.3236       0.002390        74.8991       134.1790        40.2408         0.2294         0.2244         2.0399         0.9659         0.9454         0.8643      -143.8253       118.1178      2234.1130
    3449.26920         8.5000         8.3325         2.3167       0.000209        76.1114       138.1816        41.6206         0.2351         0.2304         2.0482         0.9271         0.9090         0.8650      -143.8486       118.1178      2237.0483
    3449.42160         8.5000         8.3319         2.3099      -0.001972        77.3237       142.1842        43.0003         0.2409         0.2364         2.0564         0.8883         0.8727         0.8657      -143.8719       118.1178      2239.9836
    3449.57400         8.5000         8.3344         2.2990      -0.000978        78.9289       146.0032        45.5074         0.2522         0.2477         2.0907         0.9155         0.8954         0.9090      -144.0039       118.1178      2246.4114
    3449.72640         8.5000         8.3402         2.2839       0.003380        80.9501       149.6276        49.2088         0.2694         0.2648         2.1526         1.0125         0.9806         0.9974      -144.2511       118.1178      2256.5391
    3449.87880         8.5000         8.3461         2.2688       0.007739        82.9714       153.2520        52.9102         0.2866         0.2818         2.2145         1.1095         1.0659         1.0859      -144.4982       118.1178      2266.6667
    3450.03120         8.5000         8.3512         2.2669       0.011067        84.2901       155.1118        57.7331         0.3000         0.2951         2.2747         1.4056         1.3381         1.3876      -144.7091       118.1178      2274.8328
    3450.18360         8.5000         8.3537         2.3166       0.010394        82.8799       150.1173        66.9127         0.2984         0.2938         2.3282         2.4748         2.3366         2.5176      -144.7789       118.1178      2275.3772
    3450.33600         8.5000         8.3563         2.3663       0.009721        81.4697       145.1228        76.0922         0.2969         0.2924         2.3817         3.5439         3.3351         3.6476      -144.8486       118.1178      2275.9219
    3450.48840         8.5000         8.3588         2.4160       0.009048        80.0594       140.1283        85.2718         0.2954         0.2911         2.4352         4.6131         4.3337         4.7775      -144.9184       118.1178      2276.4663
    3450.64080         8.5000         8.3461         2.4239       0.009137        78.2825       136.1840        80.2393         0.2716         0.2668         2.4325         4.5074         4.2315         4.5833      -144.7583       118.1178      2272.9258
    3450.79320         8.5000         8.3321         2.4283       0.009288        76.4753       132.3262        74.0359         0.2460         0.2406         2.4251         4.3050         4.0386         4.2800      -144.5793       118.1178      2269.0483
    3450.94560         8.5000         8.3181         2.4327       0.009439        74.6681       128.4685        67.8326         0.2204         0.2145         2.4177         4.1026         3.8456         3.9766      -144.4002       118.1178      2265.1711
    3451.09800         8.5000         8.3125         2.4306       0.008509        74.0795       127.2693        64.7280         0.2109         0.2047         2.4195         3.7922         3.5672         3.6124      -144.1902       118.1178      2262.6738
    3451.25040         8.5000         8.3115         2.4248       0.006978        74.1672       127.5460        63.3436         0.2102         0.2040         2.4263         3.4220         3.2414         3.2143      -143.9631       118.1178      2260.9424
    3451.40280         8.5000         8.3105         2.4191       0.005446        74.2549       127.8227        61.9592         0.2096         0.2034         2.4332         3.0517         2.9155         2.8163      -143.7359       118.1178      2259.2112
    3451.55520         8.5000         8.3111         2.4179       0.004687        74.2080       127.9242        60.2515         0.2078         0.2018         2.4239         2.8078         2.7022         2.5429      -143.6850       118.1178      2256.5896
    3451.70760         8.5000         8.3142         2.4247       0.005287        73.9240       127.7172        57.9747         0.2042         0.1988         2.3862         2.7863         2.6872         2.4891      -143.9448       118.1178      2252.4004
    3451.86000         8.5000         8.3173         2.4315       0.005887        73.6399       127.5102        55.6978         0.2005         0.1957         2.3485         2.7648         2.6721         2.4353      -144.2045       118.1178      2248.2112
    3452.01240         8.5000         8.3202         2.4376       0.006404        73.3727       127.3066        53.8145         0.1969         0.1927         2.3152         2.7499         2.6655         2.3875      -144.4470       118.1178      2244.7681
    3452.16480         8.5000         8.3212         2.4353       0.005975        73.2958       127.1416        56.3736         0.1946         0.1907         2.3311         2.8093         2.7533         2.4069      -144.4960       118.1178      2249.7488
    3452.31720         8.5000         8.3221         2.4329       0.005546        73.2189       126.9766        58.9327         0.1922         0.1886         2.3471         2.8686         2.8411         2.4264      -144.5450       118.1178      2254.7295
    3452.46960         8.5000         8.3231         2.4306       0.005117        73.1421       126.8116        61.4918         0.1898         0.1865         2.3630         2.9280         2.9289         2.4459      -144.5940       118.1178      2259.7102
    3452.62200         8.5000         8.3300         2.4243       0.004110        73.6249       127.2893        61.4061         0.1937         0.1898         2.3537         2.7801         2.7877         2.3376      -144.8047       118.1178      2263.0220
    3452.77440         8.5000         8.3384         2.4170       0.002959        74.2473       127.9271        60.6614         0.1992         0.1945         2.3382         2.5805         2.5894         2.1975      -145.0556       118.1178      2265.9177
    3452.92680         8.5000         8.3468         2.4097       0.001808        74.8697       128.5649        59.9167         0.2047         0.1991         2.3226         2.3809         2.3911         2.0575      -145.3065       118.1178      2268.8137
    3453.07920         8.5000         8.3464         2.3992       0.001549        75.2088       128.8949        60.0896         0.2091         0.2032         2.3155         2.2173         2.2069         1.9521      -145.4868       118.1178      2267.3767
