~Version Information Block
VERS .                 2.00:  CWLS LOG ASCII STANDARD - VERSION 2.00
WRAP .                   NO:  One line per depth step
~Well Information Block
#MNEM.UNIT        Data Type   Information
#---------- ----------------  -----------
STRT .M          3141.11640:  START DEPTH
STOP .M          4189.93320:  STOP DEPTH
STEP .M             0.15240:  STEP
NULL .              -999.25:  NULL VALUE
COMP .                     :  COMPANY
WELL .             Pukeko-1:  WELL
FLD  .                     :  FIELD
LOC  .                     :  LOCATION
CTRY .                     :  COUNTRY
STAT .                     :  STATE
CNTY .                     :  COUNTY
SRVC .     New Zealand Overseas Petroleum Ltd:  SERVICE COMPANY
DATE .                     :  DATE
API  .                     :  API NUMBER
UWI  .         100000502205:  UNIQUE WELL ID
LATI .          -39.9215617:  LATITUDE
LONG .          172.9374089:  LONGITUDE
~Curve Information Block
#MNEM.UNIT         API CODE   Curve Description
#---------- ----------------  -----------------
DEPTH.M                    :  
BS   .IN                   :  Bit Size (Created in Geolog)
CALI .IN                   :  HRCC Cal. Caliper (HCAL)
DENS .G/C3                 :  HRDD High Resolution Formation Density (RHO8)
DRHO .G/C3                 :  HRDD Density Correction (HDRA)
DTC  .US/F                 :  Delta-T Compressional (DTCO)
DTS  .US/F                 :  Delta-T Shear (DTSM)
GR   .GAPI                 :  HiRes Gamma-Ray (HGR)
NEUT .V/V                  :  HiRes Thermal Neutron Porosity (HTNP)
NEUT_CORR.V/V                  :  Corrected NPHI (limestone units)
PEF  .B/E                  :  HRDD High Resolution Formation Photoelectric Factor (PEF8)
RESD .OHMM                 :  HRLT Borehole Corrected Resistivity 5 (RLA5)
RESM .OHMM                 :  HRLT Borehole Corrected Resistivity 3 (RLA3)
RESS .OHMM                 :  HRLT Borehole Corrected Resistivity 1 (RLA1)
SP   .MV                   :  SP Shifted (SP)
TEMP .DEGC                 :  Cartridge Temperature (CTEM)
TENS .KGF                  :  Cable Tension (TENS)
~Parameter Information Block
#MNEM.UNIT            Value   Description
#---------- ----------------  -----------
CUR_INT_BOT.M                4190:  Current interpolated bottom
PROJECT.     New Zealand Log QC Project:  
SET  .     A0_FINAL_INTER_REF_D:  
ELEVATION_AMSL.M                  25:  Elevation above mean sea level
ELEVATION_REF.                   KB:  Measurement reference
FORMATION_AT_TD.             Basement:  Formation at TD
LICENCE_NUMBER.             PEP38460:  Licence number
ONSHORE_OR_OFFSHORE.             Offshore:  Onshore/offshore
PR_NUMBER.               PR2928:  Petroleum report number
SEAFLOOR_ELEVATION_BMSL.M            157.3000:  Seafloor elevation below mean sea level
SPUD_DATE.           28/04/2004:  Spud date
STATUS_AT_COMPLETION.     Temporary suspended:  Status at completion
TD_DATE.           26/05/2004:  Total depth date
TOTAL_DEPTH_DRILLED.M                4190:  Total depth drilled
WATER_DEPTH.M               132.3:  Water depth
~Other Information Block
# 
~A       DEPTH             BS           CALI           DENS           DRHO            DTC            DTS             GR           NEUT      NEUT_CORR            PEF           RESD           RESM           RESS             SP           TEMP           TENS 
# ...
    3716.57880         8.5000         8.3495         2.5282       0.011169        61.4478       103.8749        70.8912         0.1476         0.1464         2.9535        14.2405        13.9904        12.8087      -150.4227       124.7060      2332.9907
    3716.73120         8.5000         8.4259         2.5603       0.011477        60.0330       101.0229        70.2082         0.1397         0.1384         3.1229        28.8958        27.0835        24.6433      -150.5502       124.7060      2339.0195
    3716.88360         8.5000         8.5023         2.5925       0.011786        58.6182        98.1710        69.5253         0.1318         0.1304         3.2922        43.5511        40.1767        36.4779      -150.6776       124.7060      2345.0483
    3717.03600         8.5000         8.5527         2.6208       0.011280        57.3403        95.7636        68.0743         0.1230         0.1215         3.4286        69.3660        62.2350        53.1932      -150.8447       124.7060      2350.7981
    3717.18840         8.5000         8.5186         2.6370       0.008138        56.5047        94.7932        64.1398         0.1113         0.1097         3.4585       131.2637       113.2809        85.6895      -151.1400       124.7060      2355.6453
    3717.34080         8.5000         8.4846         2.6533       0.004997        55.6691        93.8228        60.2053         0.0995         0.0980         3.4884       193.1614       164.3268       118.1858      -151.4353       124.7060      2360.4927
    3717.49320         8.5000         8.4506         2.6695       0.001855        54.8335        92.8525        56.2708         0.0878         0.0862         3.5182       255.0592       215.3727       150.6821      -151.7306       124.7060      2365.3398
    3717.64560         8.5000         8.4945         2.6655       0.003224        55.5817        92.9805        56.9021         0.0957         0.0941         3.4638       204.3624       174.4768       127.1908      -152.1553       124.7060      2356.1079
    3717.79800         8.5000         8.5420         2.6607       0.004803        56.4039        93.1599        57.7466         0.1044         0.1028         3.4054       148.4070       129.2869       101.0846      -152.5860       124.7060      2346.2183
    3717.95040         8.5000         8.5895         2.6558       0.006382        57.2260        93.3393        58.5911         0.1132         0.1116         3.3470        92.4516        84.0970        74.9784      -153.0167       124.7060      2336.3289
    3718.10280         8.5000         8.6306         2.6488       0.006113        57.0123        93.9662        58.6256         0.1210         0.1194         3.2939        69.3511        65.5460        63.3424      -153.5338       124.7060      2331.4026
    3718.25520         8.5000         8.6685         2.6407       0.004952        56.2987        94.8090        58.2693         0.1284         0.1268         3.2434        62.1028        59.8480        58.6880      -154.0926       124.7060      2328.8711
    3718.40760         8.5000         8.7065         2.6326       0.003791        55.5851        95.6518        57.9130         0.1358         0.1342         3.1929        54.8544        54.1501        54.0336      -154.6514       124.7060      2326.3398
    3718.56000         8.5000         8.7227         2.6348       0.000918        55.1138        96.0908        57.6039         0.1398         0.1383         3.1817        57.5832        58.2488        56.9149      -155.1827       124.7060      2327.3823
    3718.71240         8.5000         8.7056         2.6526      -0.004592        55.0157        95.9080        57.3673         0.1386         0.1371         3.2310        75.6767        77.4343        71.4013      -155.6716       124.7060      2333.9292
    3718.86480         8.5000         8.6885         2.6704      -0.010101        54.9175        95.7252        57.1307         0.1375         0.1359         3.2803        93.7702        96.6199        85.8876      -156.1606       124.7060      2340.4761
    3719.01720         8.5000         8.6747         2.6845      -0.014447        54.8813        95.5384        56.8960         0.1361         0.1346         3.3221       107.7352       111.5015        97.0764      -156.5445       124.7060      2346.3206
    3719.16960         8.5000         8.6861         2.6700      -0.009652        55.3324        95.3210        56.6769         0.1333         0.1318         3.3049        89.2482        92.5526        82.3441      -156.1033       124.7060      2346.6421
    3719.32200         8.5000         8.6975         2.6554      -0.004857        55.7835        95.1035        56.4577         0.1305         0.1290         3.2878        70.7612        73.6036        67.6119      -155.6621       124.7060      2346.9636
    3719.47440         8.5000         8.7090         2.6408      -0.000062        56.2346        94.8860        56.2386         0.1278         0.1262         3.2706        52.2742        54.6546        52.8796      -155.2209       124.7060      2347.2854
    3719.62680         8.5000         8.7219         2.6306       0.001051        56.2985        94.6844        55.0448         0.1259         0.1243         3.2303        50.4634        53.1463        51.6296      -154.8221       124.7060      2347.5259
    3719.77920         8.5000         8.7350         2.6213       0.001420        56.2841        94.4859        53.6543         0.1243         0.1227         3.1852        52.0193        55.1593        53.1015      -154.4318       124.7060      2347.7502
    3719.93160         8.5000         8.7482         2.6120       0.001790        56.2698        94.2875        52.2638         0.1227         0.1210         3.1402        53.5753        57.1722        54.5734      -154.0416       124.7060      2347.9746
    3720.08400         8.5000         8.7686         2.6096       0.002301        56.3708        94.0024        52.2003         0.1204         0.1187         3.1189        52.0006        55.8572        53.2714      -153.6777       124.7060      2347.2471
    3720.23640         8.5000         8.7949         2.6130       0.002929        56.5656        93.6469        53.2174         0.1176         0.1158         3.1168        47.8769        51.8322        49.7106      -153.3352       124.7060      2345.7446
    3720.38880         8.5000         8.8212         2.6163       0.003557        56.7604        93.2914        54.2345         0.1147         0.1130         3.1147        43.7531        47.8073        46.1498      -152.9928       124.7060      2344.2419
    3720.54120         8.5000         8.8431         2.6183       0.003983        56.8512        93.0246        54.7542         0.1123         0.1106         3.1207        40.6865        44.6147        43.3291      -152.7325       124.7060      2342.4426
    3720.69360         8.5000         8.8530         2.6166       0.003868        56.6615        92.9974        53.9314         0.1111         0.1093         3.1486        40.4736        43.6688        42.5058      -152.6941       124.7060      2339.8423
    3720.84600         8.5000         8.8629         2.6149       0.003752        56.4718        92.9702        53.1086         0.1099         0.1081         3.1764        40.2607        42.7229        41.6826      -152.6557       124.7060      2337.2417
    3720.99840         8.5000         8.8729         2.6132       0.003636        56.2820        92.9430        52.2858         0.1086         0.1068         3.2043        40.0478        41.7769        40.8593      -152.6172       124.7060      2334.6411
    3721.15080         8.5000         8.8472         2.6194       0.003779        55.8725        92.8839        53.4088         0.1093         0.1075         3.2258        50.6641        50.8435        48.8616      -152.6310       124.7060      2333.2769
    3721.30320         8.5000         8.8212         2.6257       0.003925        55.4606        92.8246        54.5525         0.1100         0.1082         3.2473        61.3953        60.0162        56.9575      -152.6452       124.7060      2331.9258
