~Version Information Block
VERS .                 2.00:  CWLS LOG ASCII STANDARD - VERSION 2.00
WRAP .                   NO:  One line per depth step
~Well Information Block
#MNEM.UNIT        Data Type   Information
#---------- ----------------  -----------
STRT .M             0.00000:  START DEPTH
STOP .M          3900.98280:  STOP DEPTH
STEP .M             0.15240:  STEP
NULL .              -999.25:  NULL VALUE
COMP .                     :  COMPANY
WELL .             Kapuni-4:  WELL
FLD  .                     :  FIELD
LOC  .                     :  LOCATION
CTRY .                     :  COUNTRY
STAT .                     :  STATE
CNTY .                     :  COUNTY
SRVC .     Shell BP & Todd Oil Services Ltd:  SERVICE COMPANY
DATE .                     :  DATE
API  .                     :  API NUMBER
UWI  .         100000021909:  UNIQUE WELL ID
LATI .           -39.450469:  LATITUDE
LONG .           174.172705:  LONGITUDE
~Curve Information Block
#MNEM.UNIT         API CODE   Curve Description
#---------- ----------------  -----------------
DEPTH.M                    :  
BS   .IN                   :  (BS)
CALI .IN                   :  (CALI)
DTC  .US/F                 :  (DT)
GR   .GAPI                 :  (GR)
RESD .OHMM                 :  LN (RES_DEP)
RESM .OHMM                 :  I5FR_01r (RES_MED)
SP   .MV                   :  SP+150 (SP)
~Parameter Information Block
#MNEM.UNIT            Value   Description
#---------- ----------------  -----------
CUR_INT_BOT.M                3901:  Current interpolated bottom
PROJECT.     New Zealand Log QC Project:  
SET  .     A0_FINAL_INTER_REF_D:  
ELEVATION_AMSL.M              232.56:  Elevation above mean sea level
ELEVATION_REF.                   DF:  Measurement reference
FORMATION_AT_TD.         Kapuni Group:  Formation at TD
GL_ELEVATION_AMSL.M            226.5000:  Ground level elevation above mean sea level
LICENCE_NUMBER.             PML38839:  Licence number
ONSHORE_OR_OFFSHORE.              Onshore:  Onshore/offshore
PR_NUMBER.                PR466:  Petroleum report number
SPUD_DATE.           20/08/1962:  Spud date
STATUS_AT_COMPLETION.     Completed as a future production well:  Status at completion
TD_DATE.           26/10/1962:  Total depth date
TOTAL_DEPTH_DRILLED.M             3901.44:  Total depth drilled
~Other Information Block
# 
~A       DEPTH             BS           CALI            DTC             GR           RESD           RESM             SP 
# ...
    1817.52240        12.2500      -999.2500        89.1059      -999.2500         6.4400      -999.2500       -12.8400
    1817.67480        12.2500      -999.2500        89.2463      -999.2500         6.4400      -999.2500       -12.8392
    1817.82720        12.2500      -999.2500        89.3867      -999.2500         6.4400      -999.2500       -12.8384
    1817.97960        12.2500      -999.2500        89.5270      -999.2500         6.4400      -999.2500       -12.8376
    1818.13200        12.2500      -999.2500        89.8962      -999.2500         6.4294      -999.2500       -12.9833
    1818.28440        12.2500      -999.2500        90.3008      -999.2500         6.4172      -999.2500       -13.1517
    1818.43680        12.2500      -999.2500        90.7054      -999.2500         6.4050      -999.2500       -13.3200
    1818.58920        12.2500      -999.2500        90.9249      -999.2500         6.4071      -999.2500       -13.4694
    1818.74160        12.2500      -999.2500        91.0132      -999.2500         6.4193      -999.2500       -13.6053
    1818.89400        12.2500      -999.2500        91.1016      -999.2500         6.4315      -999.2500       -13.7412
    1819.04640        12.2500      -999.2500        90.8476      -999.2500         6.4427      -999.2500       -13.8380
    1819.19880        12.2500      -999.2500        89.8116      -999.2500         6.4516      -999.2500       -13.8454
    1819.35120        12.2500      -999.2500        88.7755      -999.2500         6.4606      -999.2500       -13.8529
    1819.50360        12.2500      -999.2500        87.7739      -999.2500         6.4693      -999.2500       -13.8604
    1819.65600        12.2500      -999.2500        88.2004      -999.2500         6.4695      -999.2500       -13.8729
    1819.80840        12.2500      -999.2500        88.6269      -999.2500         6.4697      -999.2500       -13.8855
    1819.96080        12.2500      -999.2500        89.0534      -999.2500         6.4699      -999.2500       -13.8980
    1820.11320        12.2500      -999.2500        89.0519      -999.2500         6.4790      -999.2500       -14.0989
    1820.26560        12.2500      -999.2500        88.9021      -999.2500         6.4912      -999.2500       -14.3649
    1820.41800        12.2500      -999.2500        88.7523      -999.2500         6.5034      -999.2500       -14.6309
    1820.57040        12.2500      -999.2500        88.9772      -999.2500         6.5100      -999.2500       -14.6136
    1820.72280        12.2500      -999.2500        89.6386      -999.2500         6.5100      -999.2500       -14.2662
    1820.87520        12.2500      -999.2500        90.3000      -999.2500         6.5100      -999.2500       -13.9187
    1821.02760        12.2500      -999.2500        91.0017      -999.2500         6.5075      -999.2500       -13.5787
    1821.18000        12.2500      -999.2500        91.8859      -999.2500         6.4938      -999.2500       -13.2720
    1821.33240        12.2500      -999.2500        92.7700      -999.2500         6.4801      -999.2500       -12.9653
    1821.48480        12.2500      -999.2500        93.6541      -999.2500         6.4664      -999.2500       -12.6587
    1821.63720        12.2500      -999.2500        93.3956      -999.2500         6.4472      -999.2500       -12.5572
    1821.78960        12.2500      -999.2500        93.0106      -999.2500         6.4273      -999.2500       -12.4784
    1821.94200        12.2500      -999.2500        92.6256      -999.2500         6.4075      -999.2500       -12.3996
    1822.09440        12.2500      -999.2500        91.5189      -999.2500         6.4000      -999.2500       -12.3778
    1822.24680        12.2500      -999.2500        89.9688      -999.2500         6.4000      -999.2500       -12.3911
    1822.39920        12.2500      -999.2500        88.4187      -999.2500         6.4000      -999.2500       -12.4045
    1822.55160        12.2500      -999.2500        87.5580      -999.2500         6.3750      -999.2500       -12.4924
    1822.70400        12.2500      -999.2500        88.0440      -999.2500         6.3013      -999.2500       -12.7263
    1822.85640        12.2500      -999.2500        88.5299      -999.2500         6.2276      -999.2500       -12.9601
    1823.00880        12.2500      -999.2500        89.1443      -999.2500         6.1506      -999.2500       -13.2140
    1823.16120        12.2500      -999.2500        91.8545      -999.2500         6.0219      -999.2500       -13.7946
    1823.31360        12.2500      -999.2500        94.5647      -999.2500         5.8931      -999.2500       -14.3752
    1823.46600        12.2500      -999.2500        97.2749      -999.2500         5.7643      -999.2500       -14.9558
    1823.61840        12.2500      -999.2500        96.9236      -999.2500         5.7972      -999.2500       -15.2567
    1823.77080        12.2500      -999.2500        95.6931      -999.2500         5.8764      -999.2500       -15.4773
    1823.92320        12.2500      -999.2500        94.4627      -999.2500         5.9557      -999.2500       -15.6979
    1824.07560        12.2500      -999.2500        93.1984      -999.2500         6.0322      -999.2500       -15.4432
    1824.22800        12.2500      -999.2500        91.8998      -999.2500         6.1057      -999.2500       -14.7057
    1824.38040        12.2500      -999.2500        90.6013      -999.2500         6.1793      -999.2500       -13.9682
    1824.53280        12.2500      -999.2500        89.9048      -999.2500         6.2504      -999.2500       -13.3034
    1824.68520        12.2500      -999.2500        91.4039      -999.2500         6.3122      -999.2500       -12.9035
    1824.83760        12.2500      -999.2500        92.9030      -999.2500         6.3741      -999.2500       -12.5036
    1824.99000        12.2500      -999.2500        94.4021      -999.2500         6.4359      -999.2500       -12.1037
    1825.14240        12.2500      -999.2500        95.2386      -999.2500         6.4161      -999.2500       -12.0955
    1825.29480        12.2500      -999.2500        96.0286      -999.2500         6.3905      -999.2500       -12.1149
    1825.44720        12.2500      -999.2500        96.8186      -999.2500         6.3650      -999.2500       -12.1342
    1825.59960        12.2500      -999.2500        96.0298      -999.2500         6.3676      -999.2500       -12.1237
    1825.75200        12.2500      -999.2500        94.4041      -999.2500         6.3852      -999.2500       -12.0974
    1825.90440        12.2500      -999.2500        92.7784      -999.2500         6.4029      -999.2500       -12.0711
    1826.05680        12.2500      -999.2500        91.2792      -999.2500         6.4169      -999.2500       -12.0288
    1826.20920        12.2500      -999.2500        89.9927      -999.2500         6.4248      -999.2500       -11.9596
    1826.36160        12.2500      -999.2500        88.7062      -999.2500         6.4328      -999.2500       -11.8903
    1826.51400        12.2500      -999.2500        87.6018      -999.2500         6.4380      -999.2500       -11.8272
    1826.66640        12.2500      -999.2500        88.2973      -999.2500         6.4167      -999.2500       -11.8250
    1826.81880        12.2500      -999.2500        88.9928      -999.2500         6.3954      -999.2500       -11.8227
    1826.97120        12.2500      -999.2500        89.6883      -999.2500         6.3740      -999.2500       -11.8205
    1827.12360        12.2500      -999.2500        90.6575      -999.2500         6.3360      -999.2500       -11.7494
    1827.27600        12.2500      -999.2500        91.6905      -999.2500         6.2940      -999.2500       -11.6623
    1827.42840        12.2500      -999.2500        92.7235      -999.2500         6.2521      -999.2500       -11.5752
    1827.58080        12.2500      -999.2500        92.9529      -999.2500         6.2191      -999.2500       -11.4221
