~Version Information Block
VERS .                 2.00:  CWLS LOG ASCII STANDARD - VERSION 2.00
WRAP .                   NO:  One line per depth step
~Well Information Block
#MNEM.UNIT        Data Type   Information
#---------- ----------------  -----------
STRT .M             0.00000:  START DEPTH
STOP .M          3900.98280:  STOP DEPTH
STEP .M             0.15240:  STEP
NULL .              -999.25:  NULL VALUE
COMP .                     :  COMPANY
WELL .             Kapuni-4:  WELL
FLD  .                     :  FIELD
LOC  .                     :  LOCATION
CTRY .                     :  COUNTRY
STAT .                     :  STATE
CNTY .                     :  COUNTY
SRVC .     Shell BP & Todd Oil Services Ltd:  SERVICE COMPANY
DATE .                     :  DATE
API  .                     :  API NUMBER
UWI  .         100000021909:  UNIQUE WELL ID
LATI .           -39.450469:  LATITUDE
LONG .           174.172705:  LONGITUDE
~Curve Information Block
#MNEM.UNIT         API CODE   Curve Description
#---------- ----------------  -----------------
DEPTH.M                    :  
BS   .IN                   :  (BS)
CALI .IN                   :  (CALI)
DTC  .US/F                 :  (DT)
GR   .GAPI                 :  (GR)
RESD .OHMM                 :  LN (RES_DEP)
RESM .OHMM                 :  I5FR_01r (RES_MED)
SP   .MV                   :  SP+150 (SP)
~Parameter Information Block
#MNEM.UNIT            Value   Description
#---------- ----------------  -----------
CUR_INT_BOT.M                3901:  Current interpolated bottom
PROJECT.     New Zealand Log QC Project:  
SET  .     A0_FINAL_INTER_REF_D:  
ELEVATION_AMSL.M              232.56:  Elevation above mean sea level
ELEVATION_REF.                   DF:  Measurement reference
FORMATION_AT_TD.         Kapuni Group:  Formation at TD
GL_ELEVATION_AMSL.M            226.5000:  Ground level elevation above mean sea level
LICENCE_NUMBER.             PML38839:  Licence number
ONSHORE_OR_OFFSHORE.              Onshore:  Onshore/offshore
PR_NUMBER.                PR466:  Petroleum report number
SPUD_DATE.           20/08/1962:  Spud date
STATUS_AT_COMPLETION.     Completed as a future production well:  Status at completion
TD_DATE.           26/10/1962:  Total depth date
TOTAL_DEPTH_DRILLED.M             3901.44:  Total depth drilled
~Other Information Block
# 
~A       DEPTH             BS           CALI            DTC             GR           RESD           RESM             SP 
# ...
    1674.57120        17.5000      -999.2500      -999.2500      -999.2500         6.4627      -999.2500       -45.7641
    1674.72360        17.5000      -999.2500      -999.2500      -999.2500         6.4900      -999.2500       -41.3420
    1674.87600        17.5000      -999.2500      -999.2500      -999.2500         6.5173      -999.2500       -36.9199
    1675.02840        17.5000      -999.2500      -999.2500      -999.2500         6.5144      -999.2500       -34.2101
    1675.18080        17.5000      -999.2500      -999.2500      -999.2500         6.3794      -999.2500       -38.9764
    1675.33320        17.5000      -999.2500      -999.2500      -999.2500         6.2445      -999.2500       -43.7427
    1675.48560        17.5000      -999.2500      -999.2500      -999.2500         6.1095      -999.2500       -48.5091
    1675.63800        17.5000      -999.2500      -999.2500      -999.2500         6.0138      -999.2500       -51.0163
    1675.79040        17.5000      -999.2500      -999.2500      -999.2500         5.9222      -999.2500       -53.2878
    1675.94280        17.5000      -999.2500      -999.2500      -999.2500         5.8306      -999.2500       -55.5593
    1676.09520        17.5000      -999.2500      -999.2500      -999.2500         5.3962      -999.2500       -48.4626
    1676.24760        17.5000      -999.2500      -999.2500      -999.2500         4.7557      -999.2500       -35.7369
    1676.40000        17.5000      -999.2500      -999.2500      -999.2500         4.1152      -999.2500       -23.0113
    1676.55240        17.5000      -999.2500      -999.2500      -999.2500         4.1456      -999.2500       -13.8108
    1676.70480        17.5000      -999.2500      -999.2500      -999.2500         5.4564      -999.2500       -11.3377
    1676.85720        17.5000      -999.2500      -999.2500      -999.2500         6.7671      -999.2500        -8.8647
    1677.00960        17.5000      -999.2500      -999.2500      -999.2500         8.0476      -999.2500        -6.7550
    1677.16200        17.5000      -999.2500      -999.2500      -999.2500         8.8774      -999.2500       -10.0497
    1677.31440        17.5000      -999.2500      -999.2500      -999.2500         9.7071      -999.2500       -13.3444
    1677.46680        17.5000      -999.2500      -999.2500      -999.2500        10.5369      -999.2500       -16.6391
    1677.61920        17.5000      -999.2500      -999.2500      -999.2500        11.0304      -999.2500       -19.0187
    1677.77160        17.5000      -999.2500      -999.2500      -999.2500        11.4303      -999.2500       -21.1435
    1677.92400        17.5000      -999.2500      -999.2500      -999.2500        11.8302      -999.2500       -23.2682
    1678.07640        17.5000      -999.2500      -999.2500      -999.2500        12.0878      -999.2500       -25.0893
    1678.22880        17.5000      -999.2500      -999.2500      -999.2500        12.2037      -999.2500       -26.6083
    1678.38120        17.5000      -999.2500      -999.2500      -999.2500        12.3196      -999.2500       -28.1274
    1678.53360        17.5000      -999.2500      -999.2500      -999.2500        12.4127      -999.2500       -29.4579
    1678.68600        17.5000      -999.2500      -999.2500      -999.2500        12.4249      -999.2500       -30.1218
    1678.83840        17.5000      -999.2500      -999.2500      -999.2500        12.4370      -999.2500       -30.7857
    1678.99080        17.5000      -999.2500      -999.2500      -999.2500        12.4492      -999.2500       -31.4496
    1679.14320        17.5000      -999.2500      -999.2500      -999.2500        12.4461      -999.2500       -31.9322
    1679.29560        17.5000      -999.2500      -999.2500      -999.2500        12.4419      -999.2500       -32.4031
    1679.44800        17.5000      -999.2500      -999.2500      -999.2500        12.4377      -999.2500       -32.8741
    1679.60040        16.8442      -999.2500        97.1500      -999.2500        12.3102      -999.2500       -33.1905
    1679.75280        15.8488      -999.2500        97.2462      -999.2500        12.1188      -999.2500       -33.4269
    1679.90520        14.8534      -999.2500        97.3424      -999.2500        11.9273      -999.2500       -33.6633
    1680.05760        14.0057      -999.2500        97.5459      -999.2500        11.8029      -999.2500       -33.8364
    1680.21000        13.4009      -999.2500        97.9262      -999.2500        11.7889      -999.2500       -33.9054
    1680.36240        12.7961      -999.2500        98.3065      -999.2500        11.7749      -999.2500       -33.9744
    1680.51480        12.2500      -999.2500        98.5647      -999.2500        11.7633      -999.2500       -34.0593
    1680.66720        12.2500      -999.2500        97.6871      -999.2500        11.7748      -999.2500       -34.2920
    1680.81960        12.2500      -999.2500        96.8096      -999.2500        11.7864      -999.2500       -34.5247
    1680.97200        12.2500      -999.2500        95.9321      -999.2500        11.7979      -999.2500       -34.7573
    1681.12440        12.2500      -999.2500        95.4544      -999.2500        11.8170      -999.2500       -34.9474
    1681.27680        12.2500      -999.2500        95.0667      -999.2500        11.8377      -999.2500       -35.1280
    1681.42920        12.2500      -999.2500        94.6789      -999.2500        11.8585      -999.2500       -35.3086
    1681.58160        12.2500      -999.2500        93.8863      -999.2500        11.7407      -999.2500       -35.4590
    1681.73400        12.2500      -999.2500        92.7422      -999.2500        11.5025      -999.2500       -35.5832
    1681.88640        12.2500      -999.2500        91.5982      -999.2500        11.2644      -999.2500       -35.7074
    1682.03880        12.2500      -999.2500        90.8506      -999.2500        10.9882      -999.2500       -35.7894
    1682.19120        12.2500      -999.2500        91.2637      -999.2500        10.6003      -999.2500       -35.7476
    1682.34360        12.2500      -999.2500        91.6768      -999.2500        10.2125      -999.2500       -35.7057
    1682.49600        12.2500      -999.2500        92.0899      -999.2500         9.8246      -999.2500       -35.6639
    1682.64840        12.2500      -999.2500        93.9292      -999.2500         9.7211      -999.2500       -35.6328
    1682.80080        12.2500      -999.2500        95.8070      -999.2500         9.6253      -999.2500       -35.6019
    1682.95320        12.2500      -999.2500        97.6847      -999.2500         9.5294      -999.2500       -35.5711
    1683.10560        12.2500      -999.2500        98.5237      -999.2500         9.5197      -999.2500       -35.4053
    1683.25800        12.2500      -999.2500        98.9023      -999.2500         9.5482      -999.2500       -35.1797
    1683.41040        12.2500      -999.2500        99.2808      -999.2500         9.5767      -999.2500       -34.9541
    1683.56280        12.2500      -999.2500        99.4222      -999.2500         9.6120      -999.2500       -34.7911
    1683.71520        12.2500      -999.2500        99.2251      -999.2500         9.6569      -999.2500       -34.7175
    1683.86760        12.2500      -999.2500        99.0280      -999.2500         9.7018      -999.2500       -34.6440
    1684.02000        12.2500      -999.2500        98.2893      -999.2500         9.7433      -999.2500       -34.5425
    1684.17240        12.2500      -999.2500        93.9654      -999.2500         9.7624      -999.2500       -34.2560
    1684.32480        12.2500      -999.2500        89.6414      -999.2500         9.7815      -999.2500       -33.9695
    1684.47720        12.2500      -999.2500        85.3174      -999.2500         9.8007      -999.2500       -33.6830
    1684.62960        12.2500      -999.2500        84.9035      -999.2500         9.7341      -999.2500       -33.4036
