~Version Information Block
VERS .                 2.00:  CWLS LOG ASCII STANDARD - VERSION 2.00
WRAP .                   NO:  One line per depth step
~Well Information Block
#MNEM.UNIT        Data Type   Information
#---------- ----------------  -----------
STRT .M             5.63880:  START DEPTH
STOP .M          4194.35280:  STOP DEPTH
STEP .M             0.15240:  STEP
NULL .              -999.25:  NULL VALUE
COMP .                     :  COMPANY
WELL .             Kapuni-2:  WELL
FLD  .                     :  FIELD
LOC  .                     :  LOCATION
CTRY .                     :  COUNTRY
STAT .                     :  STATE
CNTY .                     :  COUNTY
SRVC .     Shell BP & Todd Oil Services Ltd:  SERVICE COMPANY
DATE .                     :  DATE
API  .                     :  API NUMBER
UWI  .         100000021910:  UNIQUE WELL ID
LATI .          -39.4921223:  LATITUDE
LONG .          174.1702607:  LONGITUDE
~Curve Information Block
#MNEM.UNIT         API CODE   Curve Description
#---------- ----------------  -----------------
DEPTH.M                    :  
BS   .IN                   :  Bit Size (Created in Geolog)
CALI .IN                   :  Normalised log, not for display purpose (CALI)
DTC  .US/F                 :  splice of bcsl & bcsl_01r (DT)
GR   .GAPI                 :  (GR)
RESD .OHMM                 :  ln_e (RES_DEP)
RESM .OHMM                 :  i5fr_00j (RES_MED)
SP   .MV                   :  SP_E+130, K1 & K2 bit + 100 (SP)
~Parameter Information Block
#MNEM.UNIT            Value   Description
#---------- ----------------  -----------
CUR_INT_BOT.M              4194.5:  Current interpolated bottom
PROJECT.     New Zealand Log QC Project:  
SET  .     A0_FINAL_INTER_REF_D:  
ELEVATION_AMSL.M               157.3:  Elevation above mean sea level
ELEVATION_REF.                   DF:  Measurement reference
FORMATION_AT_TD.           Mangaotaki:  Formation at TD
GL_ELEVATION_AMSL.M            152.1000:  Ground level elevation above mean sea level
LICENCE_NUMBER.             PML38839:  Licence number
ONSHORE_OR_OFFSHORE.              Onshore:  Onshore/offshore
PR_NUMBER.                PR464:  Petroleum report number
SPUD_DATE.           09/11/1961:  Spud date
STATUS_AT_COMPLETION.            Completed:  Status at completion
TD_DATE.           27/01/1962:  Total depth date
TOTAL_DEPTH_DRILLED.M             4194.66:  Total depth drilled
~Other Information Block
# 
~A       DEPTH             BS           CALI            DTC             GR           RESD           RESM             SP 
# ...
     761.23800        17.5000        13.3086       118.9542      -999.2500        33.6106      -999.2500        42.1681
     761.39040        17.5000        13.3157       118.2673      -999.2500        33.5463      -999.2500        41.9753
     761.54280        17.5000        13.3176       117.8063      -999.2500        33.4829      -999.2500        41.6768
     761.69520        17.5000        13.3062       117.9242      -999.2500        33.4219      -999.2500        41.1078
     761.84760        17.5000        13.2948       118.0420      -999.2500        33.3609      -999.2500        40.5388
     762.00000        17.5000        13.2835       118.1599      -999.2500        33.3000      -999.2500        39.9698
     762.15240        17.5000        13.2775       114.9434      -999.2500        33.2075      -999.2500        39.9180
     762.30480        17.5000        13.2715       111.7268      -999.2500        33.1150      -999.2500        39.8662
     762.45720        17.5000        13.2655       108.5103      -999.2500        33.0225      -999.2500        39.8144
     762.60960        17.5000        13.2620       106.8767      -999.2500        32.9941      -999.2500        39.7998
     762.76200        17.5000        13.2595       105.8613      -999.2500        32.9908      -999.2500        39.7998
     762.91440        17.5000        13.2570       104.8459      -999.2500        32.9875      -999.2500        39.7998
     763.06680        17.5000        13.2630       105.8211      -999.2500        32.9862      -999.2500        39.8077
     763.21920        17.5000        13.2798       109.3472      -999.2500        32.9875      -999.2500        39.8257
     763.37160        17.5000        13.2967       112.8733      -999.2500        32.9889      -999.2500        39.8437
     763.52400        17.5000        13.3083       115.9188      -999.2500        32.9900      -999.2500        39.8849
     763.67640        17.5000        13.2916       116.3935      -999.2500        32.9900      -999.2500        40.0505
     763.82880        17.5000        13.2750       116.8682      -999.2500        32.9900      -999.2500        40.2161
     763.98120        17.5000        13.2584       117.3429      -999.2500        32.9900      -999.2500        40.3816
     764.13360        17.5000        13.2694       117.7600      -999.2500        33.0007      -999.2500        40.4710
     764.28600        17.5000        13.2844       118.1690      -999.2500        33.0128      -999.2500        40.5496
     764.43840        17.5000        13.2993       118.5780      -999.2500        33.0250      -999.2500        40.6281
     764.59080        17.5000        13.3321       118.6731      -999.2500        33.0343      -999.2500        40.6599
     764.74320        17.5000        13.3770       118.5552      -999.2500        33.0416      -999.2500        40.6599
     764.89560        17.5000        13.4219       118.4372      -999.2500        33.0489      -999.2500        40.6599
     765.04800        17.5000        13.4393       118.4471      -999.2500        33.0579      -999.2500        40.6636
     765.20040        17.5000        13.3967       118.7349      -999.2500        33.0704      -999.2500        40.6754
     765.35280        17.5000        13.3541       119.0228      -999.2500        33.0830      -999.2500        40.6872
     765.50520        17.5000        13.3142       119.3270      -999.2500        33.0941      -999.2500        40.6995
     765.65760        17.5000        13.3501       120.0969      -999.2500        33.0632      -999.2500        40.7273
     765.81000        17.5000        13.3859       120.8668      -999.2500        33.0324      -999.2500        40.7550
     765.96240        17.5000        13.4218       121.6367      -999.2500        33.0015      -999.2500        40.7828
     766.11480        17.5000        13.4390       121.2408      -999.2500        32.8540      -999.2500        40.8579
     766.26720        17.5000        13.4501       120.4630      -999.2500        32.6684      -999.2500        40.9485
     766.41960        17.5000        13.4612       119.6852      -999.2500        32.4828      -999.2500        41.0390
     766.57200        17.5000        13.4929       118.7776      -999.2500        32.3652      -999.2500        41.1938
     766.72440        17.5000        13.5477       117.7250      -999.2500        32.3235      -999.2500        41.4203
     766.87680        17.5000        13.6024       116.6724      -999.2500        32.2819      -999.2500        41.6468
     767.02920        17.5000        13.6136       115.6113      -999.2500        32.2472      -999.2500        41.9404
     767.18160        17.5000        13.4410       114.5146      -999.2500        32.2418      -999.2500        42.5170
     767.33400        17.5000        13.2684       113.4180      -999.2500        32.2365      -999.2500        43.0937
     767.48640        17.5000        13.0957       112.3213      -999.2500        32.2311      -999.2500        43.6703
     767.63880        17.5000        13.1757       111.2585      -999.2500        32.3654      -999.2500        44.7904
     767.79120        17.5000        13.2805       110.1990      -999.2500        32.5133      -999.2500        45.9637
     767.94360        17.5000        13.3853       109.1394      -999.2500        32.6612      -999.2500        47.1369
     768.09600        17.5000        13.5382       109.5649      -999.2500        32.8757      -999.2500        48.1979
     768.24840        17.5000        13.7195       110.8627      -999.2500        33.1294      -999.2500        49.1929
     768.40080        17.5000        13.9007       112.1605      -999.2500        33.3830      -999.2500        50.1879
     768.55320        17.5000        14.0077       112.8331      -999.2500        33.5060      -999.2500        50.9849
     768.70560        17.5000        13.9763       112.3399      -999.2500        33.3854      -999.2500        51.4130
     768.85800        17.5000        13.9449       111.8467      -999.2500        33.2647      -999.2500        51.8411
     769.01040        17.5000        13.9155       111.3374      -999.2500        33.1427      -999.2500        52.2597
     769.16280        17.5000        13.9123       110.6074      -999.2500        33.0018      -999.2500        52.5492
     769.31520        17.5000        13.9092       109.8774      -999.2500        32.8609      -999.2500        52.8386
     769.46760        17.5000        13.9060       109.1474      -999.2500        32.7200      -999.2500        53.1280
     769.62000        17.5000        13.8768       109.8160      -999.2500        32.4772      -999.2500        53.2856
     769.77240        17.5000        13.8406       110.8622      -999.2500        32.2069      -999.2500        53.4075
     769.92480        17.5000        13.8043       111.9084      -999.2500        31.9366      -999.2500        53.5294
     770.07720        17.5000        13.7071       113.7827      -999.2500        31.7906      -999.2500        53.5149
     770.22960        17.5000        13.5503       116.4635      -999.2500        31.7657      -999.2500        53.3674
     770.38200        17.5000        13.3936       119.1444      -999.2500        31.7409      -999.2500        53.2199
     770.53440        17.5000        13.3108       120.9437      -999.2500        31.7241      -999.2500        53.0707
     770.68680        17.5000        13.4813       119.7194      -999.2500        31.7350      -999.2500        52.9159
     770.83920        17.5000        13.6519       118.4950      -999.2500        31.7460      -999.2500        52.7611
     770.99160        17.5000        13.8225       117.2706      -999.2500        31.7569      -999.2500        52.6063
     771.14400        17.5000        13.8250       116.3199      -999.2500        31.6130      -999.2500        52.2696
     771.29640        17.5000        13.8177       115.3851      -999.2500        31.4601      -999.2500        51.9223
