~Version Information Block
VERS .                 2.00:  CWLS LOG ASCII STANDARD - VERSION 2.00
WRAP .                   NO:  One line per depth step
~Well Information Block
#MNEM.UNIT        Data Type   Information
#---------- ----------------  -----------
STRT .M             6.09600:  START DEPTH
STOP .M          3796.43640:  STOP DEPTH
STEP .M             0.15240:  STEP
NULL .              -999.25:  NULL VALUE
COMP .                     :  COMPANY
WELL .             Kapuni-3:  WELL
FLD  .                     :  FIELD
LOC  .                     :  LOCATION
CTRY .                     :  COUNTRY
STAT .                     :  STATE
CNTY .                     :  COUNTY
SRVC .     Shell BP & Todd Oil Services Ltd:  SERVICE COMPANY
DATE .                     :  DATE
API  .                     :  API NUMBER
UWI  .         100000502146:  UNIQUE WELL ID
LATI .          -39.5051918:  LATITUDE
LONG .          174.1760385:  LONGITUDE
~Curve Information Block
#MNEM.UNIT         API CODE   Curve Description
#---------- ----------------  -----------------
DEPTH.M                    :  
BS   .IN                   :  Bit Size (Created in Geolog)
CALI .IN                   :  (CALI)
DTC  .US/F                 :  (DT)
GR   .GAPI                 :  (GR)
RESD .OHMM                 :  Long normal (ES) (RES_DEP)
RESM .OHMM                 :  I6FR (IES) (RES_MED)
SP   .MV                   :  SP-10 (SP)
~Parameter Information Block
#MNEM.UNIT            Value   Description
#---------- ----------------  -----------
CUR_INT_BOT.M              3796.5:  Current interpolated bottom
PROJECT.     New Zealand Log QC Project:  
SET  .     A0_FINAL_INTER_REF_D:  
ELEVATION_AMSL.M              136.86:  Elevation above mean sea level
ELEVATION_REF.                   DF:  Measurement reference
FORMATION_AT_TD.         Kapuni Group:  Formation at TD
GL_ELEVATION_AMSL.M            131.1000:  Ground level elevation above mean sea level
LICENCE_NUMBER.             PML38839:  Licence number
ONSHORE_OR_OFFSHORE.              Onshore:  Onshore/offshore
PR_NUMBER.                PR465:  Petroleum report number
SPUD_DATE.           21/04/1962:  Spud date
STATUS_AT_COMPLETION.     Tested and completed as a potential producer:  Status at completion
TD_DATE.           24/06/1962:  Total depth date
TOTAL_DEPTH_DRILLED.M              3796.9:  Total depth drilled
~Other Information Block
# 
~A       DEPTH             BS           CALI            DTC             GR           RESD           RESM             SP 
# ...
    2099.31000        12.2500      -999.2500        80.5037      -999.2500         5.3824      -999.2500        53.6987
    2099.46240        12.2500      -999.2500        82.2304      -999.2500         5.3824      -999.2500        52.7114
    2099.61480        12.2500      -999.2500        82.7823      -999.2500         5.3824      -999.2500        51.7363
    2099.76720        12.2500      -999.2500        82.9494      -999.2500         5.3824      -999.2500        50.7652
    2099.91960        12.2500      -999.2500        83.1165      -999.2500         5.3824      -999.2500        49.7941
    2100.07200        12.2500      -999.2500        83.2417      -999.2500         5.3873      -999.2500        49.3025
    2100.22440        12.2500      -999.2500        83.3201      -999.2500         5.3977      -999.2500        49.3463
    2100.37680        12.2500      -999.2500        83.3985      -999.2500         5.4080      -999.2500        49.3901
    2100.52920        12.2500      -999.2500        83.4118      -999.2500         5.4221      -999.2500        49.6218
    2100.68160        12.2500      -999.2500        83.1501      -999.2500         5.4521      -999.2500        50.6465
    2100.83400        12.2500      -999.2500        82.8884      -999.2500         5.4820      -999.2500        51.6712
    2100.98640        12.2500      -999.2500        82.6268      -999.2500         5.5120      -999.2500        52.6959
    2101.13880        12.2500      -999.2500        82.6068      -999.2500         5.5938      -999.2500        55.8258
    2101.29120        12.2500      -999.2500        82.6106      -999.2500         5.6808      -999.2500        59.1619
    2101.44360        12.2500      -999.2500        82.6143      -999.2500         5.7677      -999.2500        62.4981
    2101.59600        12.2500      -999.2500        82.4371      -999.2500         5.8765      -999.2500        64.6899
    2101.74840        12.2500      -999.2500        82.1535      -999.2500         5.9983      -999.2500        66.2095
    2101.90080        12.2500      -999.2500        81.8699      -999.2500         6.1200      -999.2500        67.7291
    2102.05320        12.2500      -999.2500        81.6972      -999.2500         6.2384      -999.2500        69.0191
    2102.20560        12.2500      -999.2500        81.7315      -999.2500         6.3505      -999.2500        69.8812
    2102.35800        12.2500      -999.2500        81.7657      -999.2500         6.4627      -999.2500        70.7432
    2102.51040        12.2500      -999.2500        81.8487      -999.2500         6.5716      -999.2500        71.5473
    2102.66280        12.2500      -999.2500        82.5961      -999.2500         6.6370      -999.2500        71.5591
    2102.81520        12.2500      -999.2500        83.3435      -999.2500         6.7024      -999.2500        71.5708
    2102.96760        12.2500      -999.2500        84.0909      -999.2500         6.7678      -999.2500        71.5826
    2103.12000        12.2500      -999.2500        83.9668      -999.2500         6.8198      -999.2500        71.6021
    2103.27240        12.2500      -999.2500        83.6074      -999.2500         6.8682      -999.2500        71.6237
    2103.42480        12.2500      -999.2500        83.2480      -999.2500         6.9166      -999.2500        71.6452
    2103.57720        12.2500      -999.2500        82.5668      -999.2500         6.9679      -999.2500        71.7518
    2103.72960        12.2500      -999.2500        81.5722      -999.2500         7.0221      -999.2500        71.9412
    2103.88200        12.2500      -999.2500        80.5775      -999.2500         7.0762      -999.2500        72.1306
    2104.03440        12.2500      -999.2500        79.6883      -999.2500         7.1345      -999.2500        72.3345
    2104.18680        12.2500      -999.2500        79.1604      -999.2500         7.2071      -999.2500        72.5881
    2104.33920        12.2500      -999.2500        78.6325      -999.2500         7.2798      -999.2500        72.8418
    2104.49160        12.2500      -999.2500        78.1046      -999.2500         7.3524      -999.2500        73.0955
    2104.64400        12.2500      -999.2500        78.6429      -999.2500         7.3590      -999.2500        72.9234
    2104.79640        12.2500      -999.2500        79.2434      -999.2500         7.3618      -999.2500        72.7265
    2104.94880        12.2500      -999.2500        79.8438      -999.2500         7.3645      -999.2500        72.5296
    2105.10120        12.2500      -999.2500        79.7576      -999.2500         7.3654      -999.2500        72.4606
    2105.25360        12.2500      -999.2500        79.3239      -999.2500         7.3654      -999.2500        72.4562
    2105.40600        12.2500      -999.2500        78.8902      -999.2500         7.3654      -999.2500        72.4519
    2105.55840        12.2500      -999.2500        78.9141      -999.2500         7.3953      -999.2500        72.7794
    2105.71080        12.2500      -999.2500        79.6745      -999.2500         7.4731      -999.2500        73.6411
    2105.86320        12.2500      -999.2500        80.4348      -999.2500         7.5509      -999.2500        74.5028
    2106.01560        12.2500      -999.2500        81.0647      -999.2500         7.6336      -999.2500        75.2530
    2106.16800        12.2500      -999.2500        80.5503      -999.2500         7.7593      -999.2500        75.0250
    2106.32040        12.2500      -999.2500        80.0359      -999.2500         7.8849      -999.2500        74.7970
    2106.47280        12.2500      -999.2500        79.5215      -999.2500         8.0106      -999.2500        74.5690
    2106.62520        12.2500      -999.2500        78.1195      -999.2500         8.0510      -999.2500        74.9094
    2106.77760        12.2500      -999.2500        76.5248      -999.2500         8.0729      -999.2500        75.3732
    2106.93000        12.2500      -999.2500        74.9300      -999.2500         8.0948      -999.2500        75.8370
    2107.08240        12.2500      -999.2500        73.6507      -999.2500         8.1446      -999.2500        76.0743
    2107.23480        12.2500      -999.2500        72.6395      -999.2500         8.2180      -999.2500        76.1191
    2107.38720        12.2500      -999.2500        71.6283      -999.2500         8.2914      -999.2500        76.1639
    2107.53960        12.2500      -999.2500        71.6733      -999.2500         8.4027      -999.2500        76.2790
    2107.69200        12.2500      -999.2500        74.7269      -999.2500         8.6220      -999.2500        76.5944
    2107.84440        12.2500      -999.2500        77.7806      -999.2500         8.8413      -999.2500        76.9098
    2107.99680        12.2500      -999.2500        80.8342      -999.2500         9.0606      -999.2500        77.2251
    2108.14920        12.2500      -999.2500        82.5231      -999.2500         8.9604      -999.2500        76.1725
    2108.30160        12.2500      -999.2500        84.1829      -999.2500         8.8534      -999.2500        75.0906
    2108.45400        12.2500      -999.2500        85.8426      -999.2500         8.7464      -999.2500        74.0087
    2108.60640        12.2500      -999.2500        84.9039      -999.2500         8.6091      -999.2500        73.6040
    2108.75880        12.2500      -999.2500        82.8419      -999.2500         8.4586      -999.2500        73.4922
    2108.91120        12.2500      -999.2500        80.7799      -999.2500         8.3082      -999.2500        73.3803
    2109.06360        12.2500      -999.2500        78.5944      -999.2500         8.2198      -999.2500        72.9303
    2109.21600        12.2500      -999.2500        76.2365      -999.2500         8.2183      -999.2500        72.0080
    2109.36840        12.2500      -999.2500        73.8785      -999.2500         8.2167      -999.2500        71.0858
