~Version Information Block
VERS .                 2.00:  CWLS LOG ASCII STANDARD - VERSION 2.00
WRAP .                   NO:  One line per depth step
~Well Information Block
#MNEM.UNIT        Data Type   Information
#---------- ----------------  -----------
STRT .M             5.63880:  START DEPTH
STOP .M          4194.35280:  STOP DEPTH
STEP .M             0.15240:  STEP
NULL .              -999.25:  NULL VALUE
COMP .                     :  COMPANY
WELL .             Kapuni-2:  WELL
FLD  .                     :  FIELD
LOC  .                     :  LOCATION
CTRY .                     :  COUNTRY
STAT .                     :  STATE
CNTY .                     :  COUNTY
SRVC .     Shell BP & Todd Oil Services Ltd:  SERVICE COMPANY
DATE .                     :  DATE
API  .                     :  API NUMBER
UWI  .         100000021910:  UNIQUE WELL ID
LATI .          -39.4921223:  LATITUDE
LONG .          174.1702607:  LONGITUDE
~Curve Information Block
#MNEM.UNIT         API CODE   Curve Description
#---------- ----------------  -----------------
DEPTH.M                    :  
BS   .IN                   :  Bit Size (Created in Geolog)
CALI .IN                   :  Normalised log, not for display purpose (CALI)
DTC  .US/F                 :  splice of bcsl & bcsl_01r (DT)
GR   .GAPI                 :  (GR)
RESD .OHMM                 :  ln_e (RES_DEP)
RESM .OHMM                 :  i5fr_00j (RES_MED)
SP   .MV                   :  SP_E+130, K1 & K2 bit + 100 (SP)
~Parameter Information Block
#MNEM.UNIT            Value   Description
#---------- ----------------  -----------
CUR_INT_BOT.M              4194.5:  Current interpolated bottom
PROJECT.     New Zealand Log QC Project:  
SET  .     A0_FINAL_INTER_REF_D:  
ELEVATION_AMSL.M               157.3:  Elevation above mean sea level
ELEVATION_REF.                   DF:  Measurement reference
FORMATION_AT_TD.           Mangaotaki:  Formation at TD
GL_ELEVATION_AMSL.M            152.1000:  Ground level elevation above mean sea level
LICENCE_NUMBER.             PML38839:  Licence number
ONSHORE_OR_OFFSHORE.              Onshore:  Onshore/offshore
PR_NUMBER.                PR464:  Petroleum report number
SPUD_DATE.           09/11/1961:  Spud date
STATUS_AT_COMPLETION.            Completed:  Status at completion
TD_DATE.           27/01/1962:  Total depth date
TOTAL_DEPTH_DRILLED.M             4194.66:  Total depth drilled
~Other Information Block
# 
~A       DEPTH             BS           CALI            DTC             GR           RESD           RESM             SP 
# ...
    2303.06880        12.2500         9.2193        85.0730      -999.2500         7.5709         7.8286        45.8195
    2303.22120        12.2500         9.1202        82.4515      -999.2500         7.7409         7.9818        44.9325
    2303.37360        12.2500         9.0211        79.8300      -999.2500         7.9109         8.1351        44.0454
    2303.52600        12.2500         8.9448        78.0965      -999.2500         8.0917         8.3202        43.0985
    2303.67840        12.2500         8.9793        80.6793      -999.2500         8.3252         8.6598        41.8603
    2303.83080        12.2500         9.0139        83.2622      -999.2500         8.5588         8.9993        40.6222
    2303.98320        12.2500         9.0485        85.8451      -999.2500         8.7923         9.3389        39.3841
    2304.13560        12.2500         9.0921        87.1896      -999.2500         8.8891         9.6792        37.9847
    2304.28800        12.2500         9.1368        88.3808      -999.2500         8.9690        10.0195        36.5654
    2304.44040        12.2500         9.1815        89.5719      -999.2500         9.0489        10.3599        35.1460
    2304.59280        12.2500         9.1782        89.5004      -999.2500         9.1395        10.5237        34.9497
    2304.74520        12.2500         9.1440        88.6179      -999.2500         9.2371        10.5742        35.5390
    2304.89760        12.2500         9.1098        87.7354      -999.2500         9.3347        10.6248        36.1282
    2305.05000        12.2500         9.0810        86.2280      -999.2500         9.4013        10.5253        37.1193
    2305.20240        12.2500         9.0634        83.4410      -999.2500         9.4042        10.1187        38.9333
    2305.35480        12.2500         9.0458        80.6540      -999.2500         9.4072         9.7121        40.7473
    2305.50720        12.2500         9.0323        77.9335      -999.2500         9.4084         9.3246        42.5206
    2305.65960        12.2500         9.0995        76.5548      -999.2500         9.3749         9.3246        43.4735
    2305.81200        12.2500         9.1667        75.1762      -999.2500         9.3413         9.3246        44.4264
    2305.96440        12.2500         9.2340        73.7975      -999.2500         9.3078         9.3247        45.3793
    2306.11680        12.2500         9.2223        75.5073      -999.2500         9.2994         9.3588        45.8704
    2306.26920        12.2500         9.1866        78.1584      -999.2500         9.2987         9.4034        46.2207
    2306.42160        12.2500         9.1508        80.8095      -999.2500         9.2979         9.4479        46.5710
    2306.57400        12.2500         9.0768        82.7192      -999.2500         9.3035         9.5159        46.7404
    2306.72640        12.2500         8.9622        83.8435      -999.2500         9.3158         9.6088        46.7181
    2306.87880        12.2500         8.8476        84.9678      -999.2500         9.3282         9.7016        46.6958
    2307.03120        12.2500         8.7809        85.6054      -999.2500         9.3369         9.8195        46.6633
    2307.18360        12.2500         8.9003        84.3525      -999.2500         9.3319        10.0349        46.5907
    2307.33600        12.2500         9.0197        83.0995      -999.2500         9.3269        10.2503        46.5181
    2307.48840        12.2500         9.1391        81.8465      -999.2500         9.3219        10.4658        46.4455
    2307.64080        12.2500         9.2426        82.6531      -999.2500         9.3439        10.4761        46.4399
    2307.79320        12.2500         9.3447        83.6293      -999.2500         9.3682        10.4696        46.4399
    2307.94560        12.2500         9.4469        84.6055      -999.2500         9.3925        10.4631        46.4399
    2308.09800        12.2500         9.5137        85.2038      -999.2500         9.4446        10.4462        46.4399
    2308.25040        12.2500         9.5608        85.5924      -999.2500         9.5121        10.4236        46.4399
    2308.40280        12.2500         9.6080        85.9810      -999.2500         9.5797        10.4010        46.4399
    2308.55520        12.2500         9.5564        86.4789      -999.2500         9.6103        10.3744        46.4359
    2308.70760        12.2500         9.3311        87.1693      -999.2500         9.5761        10.3408        46.4247
    2308.86000        12.2500         9.1058        87.8596      -999.2500         9.5420        10.3073        46.4135
    2309.01240        12.2500         8.8846        88.4003      -999.2500         9.5080        10.2848        46.4021
    2309.16480        12.2500         8.7110        87.2517      -999.2500         9.4774        10.3870        46.3889
    2309.31720        12.2500         8.5374        86.1031      -999.2500         9.4467        10.4893        46.3757
    2309.46960        12.2500         8.3638        84.9545      -999.2500         9.4161        10.5915        46.3625
    2309.62200        12.2500         8.3827        84.5396      -999.2500         9.4226        10.5145        46.3490
    2309.77440        12.2500         8.4497        84.3076      -999.2500         9.4384        10.3928        46.3355
    2309.92680        12.2500         8.5166        84.0756      -999.2500         9.4542        10.2711        46.3219
    2310.07920        12.2500         8.5672        83.6299      -999.2500         9.4580        10.0924        46.2696
    2310.23160        12.2500         8.6026        82.9866      -999.2500         9.4509         9.8611        46.1814
    2310.38400        12.2500         8.6381        82.3433      -999.2500         9.4438         9.6298        46.0931
    2310.53640        12.2500         8.6613        82.6520      -999.2500         9.4323         9.4658        45.9672
    2310.68880        12.2500         8.6458        85.9946      -999.2500         9.4069         9.5165        45.7211
    2310.84120        12.2500         8.6303        89.3372      -999.2500         9.3815         9.5672        45.4749
    2310.99360        12.2500         8.6148        92.6797      -999.2500         9.3561         9.6179        45.2287
    2311.14600        12.2500         8.5423        91.1828      -999.2500         9.2864         9.5665        45.0063
    2311.29840        12.2500         8.4673        89.4738      -999.2500         9.2148         9.5106        44.7849
    2311.45080        12.2500         8.3923        87.7647      -999.2500         9.1431         9.4547        44.5636
    2311.60320        12.2500         8.3823        84.7473      -999.2500         9.0943         9.2428        44.0860
    2311.75560        12.2500         8.4032        81.1061      -999.2500         9.0564         8.9564        43.4864
    2311.90800        12.2500         8.4242        77.4649      -999.2500         9.0184         8.6700        42.8867
    2312.06040        12.2500         8.4538        75.3772      -999.2500         8.9847         8.4504        42.2573
    2312.21280        12.2500         8.4966        75.6559      -999.2500         8.9575         8.3325        41.5825
    2312.36520        12.2500         8.5395        75.9347      -999.2500         8.9303         8.2146        40.9078
    2312.51760        12.2500         8.5752        76.3221      -999.2500         8.8853         8.1086        40.1809
    2312.67000        12.2500         8.5569        77.5423      -999.2500         8.7043         8.0937        39.0548
    2312.82240        12.2500         8.5386        78.7625      -999.2500         8.5233         8.0788        37.9288
    2312.97480        12.2500         8.5203        79.9827      -999.2500         8.3423         8.0639        36.8027
    2313.12720        12.2500         8.4861        82.6804      -999.2500         8.2747         8.2853        35.5832
