~Version Information Block
VERS .                 2.00:  CWLS LOG ASCII STANDARD - VERSION 2.00
WRAP .                   NO:  One line per depth step
~Well Information Block
#MNEM.UNIT        Data Type   Information
#---------- ----------------  -----------
STRT .M             5.63880:  START DEPTH
STOP .M          4194.35280:  STOP DEPTH
STEP .M             0.15240:  STEP
NULL .              -999.25:  NULL VALUE
COMP .                     :  COMPANY
WELL .             Kapuni-2:  WELL
FLD  .                     :  FIELD
LOC  .                     :  LOCATION
CTRY .                     :  COUNTRY
STAT .                     :  STATE
CNTY .                     :  COUNTY
SRVC .     Shell BP & Todd Oil Services Ltd:  SERVICE COMPANY
DATE .                     :  DATE
API  .                     :  API NUMBER
UWI  .         100000021910:  UNIQUE WELL ID
LATI .          -39.4921223:  LATITUDE
LONG .          174.1702607:  LONGITUDE
~Curve Information Block
#MNEM.UNIT         API CODE   Curve Description
#---------- ----------------  -----------------
DEPTH.M                    :  
BS   .IN                   :  Bit Size (Created in Geolog)
CALI .IN                   :  Normalised log, not for display purpose (CALI)
DTC  .US/F                 :  splice of bcsl & bcsl_01r (DT)
GR   .GAPI                 :  (GR)
RESD .OHMM                 :  ln_e (RES_DEP)
RESM .OHMM                 :  i5fr_00j (RES_MED)
SP   .MV                   :  SP_E+130, K1 & K2 bit + 100 (SP)
~Parameter Information Block
#MNEM.UNIT            Value   Description
#---------- ----------------  -----------
CUR_INT_BOT.M              4194.5:  Current interpolated bottom
PROJECT.     New Zealand Log QC Project:  
SET  .     A0_FINAL_INTER_REF_D:  
ELEVATION_AMSL.M               157.3:  Elevation above mean sea level
ELEVATION_REF.                   DF:  Measurement reference
FORMATION_AT_TD.           Mangaotaki:  Formation at TD
GL_ELEVATION_AMSL.M            152.1000:  Ground level elevation above mean sea level
LICENCE_NUMBER.             PML38839:  Licence number
ONSHORE_OR_OFFSHORE.              Onshore:  Onshore/offshore
PR_NUMBER.                PR464:  Petroleum report number
SPUD_DATE.           09/11/1961:  Spud date
STATUS_AT_COMPLETION.            Completed:  Status at completion
TD_DATE.           27/01/1962:  Total depth date
TOTAL_DEPTH_DRILLED.M             4194.66:  Total depth drilled
~Other Information Block
# 
~A       DEPTH             BS           CALI            DTC             GR           RESD           RESM             SP 
# ...
    1537.25880        17.5000        13.5496       104.2761      -999.2500        17.9102      -999.2500        62.7975
    1537.41120        17.5000        13.5009       104.3510      -999.2500        17.9324      -999.2500        62.8832
    1537.56360        17.5000        13.4825       104.4821      -999.2500        17.9546      -999.2500        63.0338
    1537.71600        17.5000        13.5064       104.6915      -999.2500        17.9767      -999.2500        63.2750
    1537.86840        17.5000        13.5303       104.9009      -999.2500        17.9988      -999.2500        63.5161
    1538.02080        17.5000        13.5570       105.1360      -999.2500        18.0191      -999.2500        63.7340
    1538.17320        17.5000        13.6013       105.5343      -999.2500        18.0276      -999.2500        63.8044
    1538.32560        17.5000        13.6456       105.9326      -999.2500        18.0360      -999.2500        63.8747
    1538.47800        17.5000        13.6899       106.3308      -999.2500        18.0445      -999.2500        63.9451
    1538.63040        17.5000        13.6359       106.0827      -999.2500        18.0655      -999.2500        63.7051
    1538.78280        17.5000        13.5653       105.7255      -999.2500        18.0885      -999.2500        63.4129
    1538.93520        17.5000        13.4948       105.3682      -999.2500        18.1115      -999.2500        63.1206
    1539.08760        17.5000        13.4418       104.8826      -999.2500        18.1228      -999.2500        62.7978
    1539.24000        17.5000        13.4019       104.3020      -999.2500        18.1255      -999.2500        62.4525
    1539.39240        17.5000        13.3620       103.7215      -999.2500        18.1281      -999.2500        62.1072
    1539.54480        17.5000        13.3511       103.4289      -999.2500        18.1299      -999.2500        61.7941
    1539.69720        17.5000        13.4101       103.8282      -999.2500        18.1299      -999.2500        61.5584
    1539.84960        17.5000        13.4690       104.2275      -999.2500        18.1299      -999.2500        61.3226
    1540.00200        17.5000        13.5268       104.6297      -999.2500        18.1299      -999.2500        61.0905
    1540.15440        17.5000        13.5023       105.2533      -999.2500        18.1295      -999.2500        61.1301
    1540.30680        17.5000        13.4778       105.8768      -999.2500        18.1291      -999.2500        61.1697
    1540.45920        17.5000        13.4533       106.5004      -999.2500        18.1287      -999.2500        61.2094
    1540.61160        17.5000        13.4684       106.3145      -999.2500        18.1222      -999.2500        61.2096
    1540.76400        17.5000        13.4981       105.8326      -999.2500        18.1135      -999.2500        61.1954
    1540.91640        17.5000        13.5277       105.3507      -999.2500        18.1048      -999.2500        61.1812
    1541.06880        17.5000        13.5277       104.9633      -999.2500        18.0932      -999.2500        61.0954
    1541.22120        17.5000        13.4916       104.6907      -999.2500        18.0783      -999.2500        60.9224
    1541.37360        17.5000        13.4555       104.4181      -999.2500        18.0633      -999.2500        60.7495
    1541.52600        17.5000        13.4371       104.0443      -999.2500        18.0464      -999.2500        60.6369
    1541.67840        17.5000        13.5045       103.1782      -999.2500        18.0197      -999.2500        60.8182
    1541.83080        17.5000        13.5719       102.3121      -999.2500        17.9930      -999.2500        60.9995
    1541.98320        17.5000        13.6394       101.4460      -999.2500        17.9662      -999.2500        61.1807
    1542.13560        17.5000        13.6671       101.8727      -999.2500        17.9602      -999.2500        61.2242
    1542.28800        17.5000        13.6898       102.4597      -999.2500        17.9567      -999.2500        61.2506
    1542.44040        17.5000        13.7126       103.0466      -999.2500        17.9533      -999.2500        61.2770
    1542.59280        17.5000        13.7290       103.6378      -999.2500        17.9608      -999.2500        61.1287
    1542.74520        17.5000        13.7413       104.2317      -999.2500        17.9755      -999.2500        60.8684
    1542.89760        17.5000        13.7536       104.8256      -999.2500        17.9902      -999.2500        60.6080
    1543.05000        17.5000        13.7624       105.1594      -999.2500        18.0065      -999.2500        60.4317
    1543.20240        17.5000        13.7640       104.9605      -999.2500        18.0261      -999.2500        60.4277
    1543.35480        17.5000        13.7655       104.7617      -999.2500        18.0458      -999.2500        60.4237
    1543.50720        17.5000        13.7661       104.5264      -999.2500        18.0660      -999.2500        60.3975
    1543.65960        17.5000        13.7477       103.5562      -999.2500        18.0983      -999.2500        59.9224
    1543.81200        17.5000        13.7294       102.5859      -999.2500        18.1306      -999.2500        59.4473
    1543.96440        17.5000        13.7110       101.6157      -999.2500        18.1629      -999.2500        58.9722
    1544.11680        17.5000        13.7265       101.1084      -999.2500        18.2398      -999.2500        58.6919
    1544.26920        17.5000        13.7524       100.7423      -999.2500        18.3303      -999.2500        58.4709
    1544.42160        17.5000        13.7783       100.3762      -999.2500        18.4208      -999.2500        58.2499
    1544.57400        17.5000        13.7710       100.3643      -999.2500        18.5172      -999.2500        58.4200
    1544.72640        17.5000        13.7285       100.7277      -999.2500        18.6198      -999.2500        59.0046
    1544.87880        17.5000        13.6861       101.0911      -999.2500        18.7225      -999.2500        59.5892
    1545.03120        17.5000        13.6476       101.5460      -999.2500        18.8401      -999.2500        60.0308
    1545.18360        17.5000        13.6245       102.3561      -999.2500        19.0160      -999.2500        59.9171
    1545.33600        17.5000        13.6014       103.1663      -999.2500        19.1920      -999.2500        59.8033
    1545.48840        17.5000        13.5784       103.9764      -999.2500        19.3679      -999.2500        59.6895
    1545.64080        17.5000        13.5868       103.7691      -999.2500        19.4179      -999.2500        60.2327
    1545.79320        17.5000        13.5978       103.4780      -999.2500        19.4575      -999.2500        60.8301
    1545.94560        17.5000        13.6088       103.1868      -999.2500        19.4972      -999.2500        61.4274
    1546.09800        17.5000        13.5878       101.0438      -999.2500        19.4825      -999.2500        61.7099
    1546.25040        17.5000        13.5490        97.8727      -999.2500        19.4378      -999.2500        61.8177
    1546.40280        17.5000        13.5102        94.7016      -999.2500        19.3930      -999.2500        61.9256
    1546.55520        17.5000        13.4854        93.2380      -999.2500        19.3973      -999.2500        62.0490
    1546.70760        17.5000        13.4850        94.7809      -999.2500        19.4878      -999.2500        62.1998
    1546.86000        17.5000        13.4846        96.3239      -999.2500        19.5783      -999.2500        62.3507
    1547.01240        17.5000        13.4843        97.9177      -999.2500        19.7020      -999.2500        62.5555
    1547.16480        17.5000        13.4848       100.0864      -999.2500        20.1996      -999.2500        63.3694
    1547.31720        17.5000        13.4854       102.2550      -999.2500        20.6971      -999.2500        64.1833
