~Version Information Block
VERS .                 2.00:  CWLS LOG ASCII STANDARD - VERSION 2.00
WRAP .                   NO:  One line per depth step
~Well Information Block
#MNEM.UNIT        Data Type   Information
#---------- ----------------  -----------
STRT .M             6.09600:  START DEPTH
STOP .M          3796.43640:  STOP DEPTH
STEP .M             0.15240:  STEP
NULL .              -999.25:  NULL VALUE
COMP .                     :  COMPANY
WELL .             Kapuni-3:  WELL
FLD  .                     :  FIELD
LOC  .                     :  LOCATION
CTRY .                     :  COUNTRY
STAT .                     :  STATE
CNTY .                     :  COUNTY
SRVC .     Shell BP & Todd Oil Services Ltd:  SERVICE COMPANY
DATE .                     :  DATE
API  .                     :  API NUMBER
UWI  .         100000502146:  UNIQUE WELL ID
LATI .          -39.5051918:  LATITUDE
LONG .          174.1760385:  LONGITUDE
~Curve Information Block
#MNEM.UNIT         API CODE   Curve Description
#---------- ----------------  -----------------
DEPTH.M                    :  
BS   .IN                   :  Bit Size (Created in Geolog)
CALI .IN                   :  (CALI)
DTC  .US/F                 :  (DT)
GR   .GAPI                 :  (GR)
RESD .OHMM                 :  Long normal (ES) (RES_DEP)
RESM .OHMM                 :  I6FR (IES) (RES_MED)
SP   .MV                   :  SP-10 (SP)
~Parameter Information Block
#MNEM.UNIT            Value   Description
#---------- ----------------  -----------
CUR_INT_BOT.M              3796.5:  Current interpolated bottom
PROJECT.     New Zealand Log QC Project:  
SET  .     A0_FINAL_INTER_REF_D:  
ELEVATION_AMSL.M              136.86:  Elevation above mean sea level
ELEVATION_REF.                   DF:  Measurement reference
FORMATION_AT_TD.         Kapuni Group:  Formation at TD
GL_ELEVATION_AMSL.M            131.1000:  Ground level elevation above mean sea level
LICENCE_NUMBER.             PML38839:  Licence number
ONSHORE_OR_OFFSHORE.              Onshore:  Onshore/offshore
PR_NUMBER.                PR465:  Petroleum report number
SPUD_DATE.           21/04/1962:  Spud date
STATUS_AT_COMPLETION.     Tested and completed as a potential producer:  Status at completion
TD_DATE.           24/06/1962:  Total depth date
TOTAL_DEPTH_DRILLED.M              3796.9:  Total depth drilled
~Other Information Block
# 
~A       DEPTH             BS           CALI            DTC             GR           RESD           RESM             SP 
# ...
    1680.66720        12.2500      -999.2500        83.7534      -999.2500        19.7825      -999.2500      -999.2500
    1680.81960        12.2500      -999.2500        83.0227      -999.2500        19.9721      -999.2500      -999.2500
    1680.97200        12.2500      -999.2500        82.2919      -999.2500        20.1617      -999.2500      -999.2500
    1681.12440        12.2500      -999.2500        82.8715      -999.2500        20.3434      -999.2500      -999.2500
    1681.27680        12.2500      -999.2500        83.7460      -999.2500        20.5233      -999.2500      -999.2500
    1681.42920        12.2500      -999.2500        84.6204      -999.2500        20.7032      -999.2500      -999.2500
    1681.58160        12.2500      -999.2500        84.9812      -999.2500        20.7929      -999.2500      -999.2500
    1681.73400        12.2500      -999.2500        84.8961      -999.2500        20.8043      -999.2500      -999.2500
    1681.88640        12.2500      -999.2500        84.8111      -999.2500        20.8157      -999.2500      -999.2500
    1682.03880        12.2500      -999.2500        84.6403      -999.2500        20.8101      -999.2500      -999.2500
    1682.19120        12.2500      -999.2500        84.2185      -999.2500        20.7544      -999.2500      -999.2500
    1682.34360        12.2500      -999.2500        83.7966      -999.2500        20.6986      -999.2500      -999.2500
    1682.49600        12.2500      -999.2500        83.3748      -999.2500        20.6429      -999.2500      -999.2500
    1682.64840        12.2500      -999.2500        84.3471      -999.2500        20.7804      -999.2500        74.4056
    1682.80080        12.2500      -999.2500        85.3569      -999.2500        20.9231      -999.2500        74.5757
    1682.95320        12.2500      -999.2500        86.3667      -999.2500        21.0659      -999.2500        74.7458
    1683.10560        12.2500      -999.2500        87.1201      -999.2500        21.0676      -999.2500        74.7097
    1683.25800        12.2500      -999.2500        87.7598      -999.2500        21.0068      -999.2500        74.5822
    1683.41040        12.2500      -999.2500        88.3996      -999.2500        20.9461      -999.2500        74.4546
    1683.56280        12.2500      -999.2500        88.9060      -999.2500        20.9664      -999.2500        74.4358
    1683.71520        12.2500      -999.2500        89.2222      -999.2500        21.1022      -999.2500        74.5720
    1683.86760        12.2500      -999.2500        89.5384      -999.2500        21.2380      -999.2500        74.7082
    1684.02000        12.2500      -999.2500        89.7973      -999.2500        21.3793      -999.2500        74.8605
    1684.17240        12.2500      -999.2500        89.6768      -999.2500        21.5567      -999.2500        75.1198
    1684.32480        12.2500      -999.2500        89.5562      -999.2500        21.7341      -999.2500        75.3790
    1684.47720        12.2500      -999.2500        89.4357      -999.2500        21.9114      -999.2500        75.6382
    1684.62960        12.2500      -999.2500        89.6258      -999.2500        21.9666      -999.2500        75.5977
    1684.78200        12.2500      -999.2500        89.8705      -999.2500        22.0002      -999.2500        75.5044
    1684.93440        12.2500      -999.2500        90.1153      -999.2500        22.0339      -999.2500        75.4111
    1685.08680        12.2500      -999.2500        90.1237      -999.2500        22.0848      -999.2500        75.2535
    1685.23920        12.2500      -999.2500        89.9536      -999.2500        22.1487      -999.2500        75.0473
    1685.39160        12.2500      -999.2500        89.7834      -999.2500        22.2126      -999.2500        74.8412
    1685.54400        12.2500      -999.2500        89.7410      -999.2500        22.2674      -999.2500        74.5455
    1685.69640        12.2500      -999.2500        90.0134      -999.2500        22.2997      -999.2500        74.0293
    1685.84880        12.2500      -999.2500        90.2857      -999.2500        22.3320      -999.2500        73.5130
    1686.00120        12.2500      -999.2500        90.5559      -999.2500        22.3637      -999.2500        72.9987
    1686.15360        12.2500      -999.2500        90.5655      -999.2500        22.3146      -999.2500        72.7203
    1686.30600        12.2500      -999.2500        90.5752      -999.2500        22.2655      -999.2500        72.4419
    1686.45840        12.2500      -999.2500        90.5848      -999.2500        22.2164      -999.2500        72.1635
    1686.61080        12.2500      -999.2500        90.7485      -999.2500        22.2529      -999.2500        72.3511
    1686.76320        12.2500      -999.2500        90.9701      -999.2500        22.3216      -999.2500        72.7137
    1686.91560        12.2500      -999.2500        91.1917      -999.2500        22.3902      -999.2500        73.0763
    1687.06800        12.2500      -999.2500        91.3780      -999.2500        22.4732      -999.2500        73.0640
    1687.22040        12.2500      -999.2500        91.5207      -999.2500        22.5737      -999.2500        72.5864
    1687.37280        12.2500      -999.2500        91.6633      -999.2500        22.6743      -999.2500        72.1088
    1687.52520        12.2500      -999.2500        91.7098      -999.2500        22.7944      -999.2500        71.6350
    1687.67760        12.2500      -999.2500        91.2710      -999.2500        23.0134      -999.2500        71.1799
    1687.83000        12.2500      -999.2500        90.8323      -999.2500        23.2324      -999.2500        70.7247
    1687.98240        12.2500      -999.2500        90.3936      -999.2500        23.4514      -999.2500        70.2696
    1688.13480        12.2500      -999.2500        90.2767      -999.2500        23.7626      -999.2500        70.2509
    1688.28720        12.2500      -999.2500        90.2018      -999.2500        24.0859      -999.2500        70.2891
    1688.43960        12.2500      -999.2500        90.1270      -999.2500        24.4092      -999.2500        70.3273
    1688.59200        12.2500      -999.2500        90.3769      -999.2500        24.7733      -999.2500        70.5489
    1688.74440        12.2500      -999.2500        90.8402      -999.2500        25.1641      -999.2500        70.8909
    1688.89680        12.2500      -999.2500        91.3034      -999.2500        25.5550      -999.2500        71.2329
    1689.04920        12.2500      -999.2500        91.6274      -999.2500        25.9577      -999.2500        71.6309
    1689.20160        12.2500      -999.2500        91.6592      -999.2500        26.3852      -999.2500        72.1463
    1689.35400        12.2500      -999.2500        91.6909      -999.2500        26.8128      -999.2500        72.6618
    1689.50640        12.2500      -999.2500        91.7333      -999.2500        27.2253      -999.2500        73.1714
    1689.65880        12.2500      -999.2500        92.0189      -999.2500        27.2950      -999.2500        73.5470
    1689.81120        12.2500      -999.2500        92.3045      -999.2500        27.3647      -999.2500        73.9227
    1689.96360        12.2500      -999.2500        92.5900      -999.2500        27.4343      -999.2500        74.2983
    1690.11600        12.2500      -999.2500        91.7324      -999.2500        27.0349      -999.2500        74.3284
    1690.26840        12.2500      -999.2500        90.5161      -999.2500        26.4883      -999.2500        74.2500
    1690.42080        12.2500      -999.2500        89.2999      -999.2500        25.9417      -999.2500        74.1717
    1690.57320        12.2500      -999.2500        86.8263      -999.2500        25.3680      -999.2500        74.0383
    1690.72560        12.2500      -999.2500        82.9925      -999.2500        24.7651      -999.2500        73.8455
