~Version Information Block
VERS .                 2.00:  CWLS LOG ASCII STANDARD - VERSION 2.00
WRAP .                   NO:  One line per depth step
~Well Information Block
#MNEM.UNIT        Data Type   Information
#---------- ----------------  -----------
STRT .M             0.00000:  START DEPTH
STOP .M          3900.98280:  STOP DEPTH
STEP .M             0.15240:  STEP
NULL .              -999.25:  NULL VALUE
COMP .                     :  COMPANY
WELL .             Kapuni-4:  WELL
FLD  .                     :  FIELD
LOC  .                     :  LOCATION
CTRY .                     :  COUNTRY
STAT .                     :  STATE
CNTY .                     :  COUNTY
SRVC .     Shell BP & Todd Oil Services Ltd:  SERVICE COMPANY
DATE .                     :  DATE
API  .                     :  API NUMBER
UWI  .         100000021909:  UNIQUE WELL ID
LATI .           -39.450469:  LATITUDE
LONG .           174.172705:  LONGITUDE
~Curve Information Block
#MNEM.UNIT         API CODE   Curve Description
#---------- ----------------  -----------------
DEPTH.M                    :  
BS   .IN                   :  (BS)
CALI .IN                   :  (CALI)
DTC  .US/F                 :  (DT)
GR   .GAPI                 :  (GR)
RESD .OHMM                 :  LN (RES_DEP)
RESM .OHMM                 :  I5FR_01r (RES_MED)
SP   .MV                   :  SP+150 (SP)
~Parameter Information Block
#MNEM.UNIT            Value   Description
#---------- ----------------  -----------
CUR_INT_BOT.M                3901:  Current interpolated bottom
PROJECT.     New Zealand Log QC Project:  
SET  .     A0_FINAL_INTER_REF_D:  
ELEVATION_AMSL.M              232.56:  Elevation above mean sea level
ELEVATION_REF.                   DF:  Measurement reference
FORMATION_AT_TD.         Kapuni Group:  Formation at TD
GL_ELEVATION_AMSL.M            226.5000:  Ground level elevation above mean sea level
LICENCE_NUMBER.             PML38839:  Licence number
ONSHORE_OR_OFFSHORE.              Onshore:  Onshore/offshore
PR_NUMBER.                PR466:  Petroleum report number
SPUD_DATE.           20/08/1962:  Spud date
STATUS_AT_COMPLETION.     Completed as a future production well:  Status at completion
TD_DATE.           26/10/1962:  Total depth date
TOTAL_DEPTH_DRILLED.M             3901.44:  Total depth drilled
~Other Information Block
# 
~A       DEPTH             BS           CALI            DTC             GR           RESD           RESM             SP 
# ...
    1970.68440        12.2500      -999.2500        88.9769      -999.2500         8.4987      -999.2500        -5.4736
    1970.83680        12.2500      -999.2500        90.1206      -999.2500         8.4607      -999.2500        -5.7354
    1970.98920        12.2500      -999.2500        91.2644      -999.2500         8.4227      -999.2500        -5.9972
    1971.14160        12.2500      -999.2500        89.5715      -999.2500         8.4200      -999.2500        -5.9377
    1971.29400        12.2500      -999.2500        87.6622      -999.2500         8.4200      -999.2500        -5.8537
    1971.44640        12.2500      -999.2500        85.7530      -999.2500         8.4200      -999.2500        -5.7697
    1971.59880        12.2500      -999.2500        84.3275      -999.2500         8.4237      -999.2500        -5.7097
    1971.75120        12.2500      -999.2500        83.1644      -999.2500         8.4295      -999.2500        -5.6628
    1971.90360        12.2500      -999.2500        82.0013      -999.2500         8.4353      -999.2500        -5.6159
    1972.05600        12.2500      -999.2500        81.6255      -999.2500         8.4488      -999.2500        -5.5631
    1972.20840        12.2500      -999.2500        82.6046      -999.2500         8.4755      -999.2500        -5.5002
    1972.36080        12.2500      -999.2500        83.5838      -999.2500         8.5022      -999.2500        -5.4374
    1972.51320        12.2500      -999.2500        84.4740      -999.2500         8.5245      -999.2500        -5.3697
    1972.66560        12.2500      -999.2500        84.4264      -999.2500         8.5012      -999.2500        -5.2505
    1972.81800        12.2500      -999.2500        84.3788      -999.2500         8.4778      -999.2500        -5.1313
    1972.97040        12.2500      -999.2500        84.3312      -999.2500         8.4545      -999.2500        -5.0121
    1973.12280        12.2500      -999.2500        84.0643      -999.2500         8.4650      -999.2500        -4.8869
    1973.27520        12.2500      -999.2500        83.7444      -999.2500         8.4836      -999.2500        -4.7603
    1973.42760        12.2500      -999.2500        83.4245      -999.2500         8.5022      -999.2500        -4.6337
    1973.58000        12.2500      -999.2500        82.7322      -999.2500         8.4916      -999.2500        -4.5521
    1973.73240        12.2500      -999.2500        81.7029      -999.2500         8.4546      -999.2500        -4.5115
    1973.88480        12.2500      -999.2500        80.6735      -999.2500         8.4177      -999.2500        -4.4708
    1974.03720        12.2500      -999.2500        80.2851      -999.2500         8.3782      -999.2500        -4.4400
    1974.18960        12.2500      -999.2500        81.8818      -999.2500         8.3309      -999.2500        -4.4398
    1974.34200        12.2500      -999.2500        83.4784      -999.2500         8.2835      -999.2500        -4.4396
    1974.49440        12.2500      -999.2500        85.0750      -999.2500         8.2362      -999.2500        -4.4393
    1974.64680        12.2500      -999.2500        87.5597      -999.2500         8.1392      -999.2500        -4.2979
    1974.79920        12.2500      -999.2500        90.0783      -999.2500         8.0403      -999.2500        -4.1510
    1974.95160        12.2500      -999.2500        92.5969      -999.2500         7.9414      -999.2500        -4.0041
    1975.10400        12.2500      -999.2500        94.1489      -999.2500         7.8917      -999.2500        -3.8815
    1975.25640        12.2500      -999.2500        95.2512      -999.2500         7.8649      -999.2500        -3.7701
    1975.40880        12.2500      -999.2500        96.3534      -999.2500         7.8381      -999.2500        -3.6588
    1975.56120        12.2500      -999.2500        97.0076      -999.2500         7.7914      -999.2500        -3.6247
    1975.71360        12.2500      -999.2500        96.9940      -999.2500         7.7151      -999.2500        -3.7059
    1975.86600        12.2500      -999.2500        96.9805      -999.2500         7.6388      -999.2500        -3.7870
    1976.01840        12.2500      -999.2500        96.5612      -999.2500         7.5643      -999.2500        -3.8798
    1976.17080        12.2500      -999.2500        93.1877      -999.2500         7.5028      -999.2500        -4.0578
    1976.32320        12.2500      -999.2500        89.8141      -999.2500         7.4413      -999.2500        -4.2359
    1976.47560        12.2500      -999.2500        86.4405      -999.2500         7.3798      -999.2500        -4.4140
    1976.62800        12.2500      -999.2500        85.6079      -999.2500         7.3217      -999.2500        -4.6301
    1976.78040        12.2500      -999.2500        85.2597      -999.2500         7.2643      -999.2500        -4.8535
    1976.93280        12.2500      -999.2500        84.9115      -999.2500         7.2068      -999.2500        -5.0768
    1977.08520        12.2500      -999.2500        85.8645      -999.2500         7.1673      -999.2500        -5.2064
    1977.23760        12.2500      -999.2500        87.8437      -999.2500         7.1420      -999.2500        -5.2620
    1977.39000        12.2500      -999.2500        89.8229      -999.2500         7.1166      -999.2500        -5.3176
    1977.54240        12.2500      -999.2500        90.7629      -999.2500         7.0849      -999.2500        -5.3037
    1977.69480        12.2500      -999.2500        89.0068      -999.2500         7.0366      -999.2500        -5.1093
    1977.84720        12.2500      -999.2500        87.2507      -999.2500         6.9884      -999.2500        -4.9150
    1977.99960        12.2500      -999.2500        85.4946      -999.2500         6.9401      -999.2500        -4.7206
    1978.15200        12.2500      -999.2500        86.8317      -999.2500         6.9547      -999.2500        -4.6837
    1978.30440        12.2500      -999.2500        88.1769      -999.2500         6.9695      -999.2500        -4.6472
    1978.45680        12.2500      -999.2500        89.5222      -999.2500         6.9843      -999.2500        -4.6107
    1978.60920        12.2500      -999.2500        89.7963      -999.2500         7.0443      -999.2500        -4.5786
    1978.76160        12.2500      -999.2500        89.6467      -999.2500         7.1223      -999.2500        -4.5484
    1978.91400        12.2500      -999.2500        89.4971      -999.2500         7.2002      -999.2500        -4.5181
    1979.06640        12.2500      -999.2500        88.8436      -999.2500         7.2384      -999.2500        -4.4666
    1979.21880        12.2500      -999.2500        87.5373      -999.2500         7.2252      -999.2500        -4.3876
    1979.37120        12.2500      -999.2500        86.2311      -999.2500         7.2120      -999.2500        -4.3086
    1979.52360        12.2500      -999.2500        85.3314      -999.2500         7.2003      -999.2500        -4.2436
    1979.67600        12.2500      -999.2500        86.6503      -999.2500         7.1970      -999.2500        -4.2552
    1979.82840        12.2500      -999.2500        87.9692      -999.2500         7.1937      -999.2500        -4.2669
    1979.98080        12.2500      -999.2500        89.2881      -999.2500         7.1904      -999.2500        -4.2786
    1980.13320        12.2500      -999.2500        89.3960      -999.2500         7.1514      -999.2500        -4.2800
    1980.28560        12.2500      -999.2500        89.3293      -999.2500         7.1073      -999.2500        -4.2800
    1980.43800        12.2500      -999.2500        89.2626      -999.2500         7.0632      -999.2500        -4.2800
    1980.59040        12.2500      -999.2500        89.6084      -999.2500         7.0136      -999.2500        -4.2900
    1980.74280        12.2500      -999.2500        90.2370      -999.2500         6.9601      -999.2500        -4.3068
