~Version Information Block
VERS .                 2.00:  CWLS LOG ASCII STANDARD - VERSION 2.00
WRAP .                   NO:  One line per depth step
~Well Information Block
#MNEM.UNIT        Data Type   Information
#---------- ----------------  -----------
STRT .M             6.09600:  START DEPTH
STOP .M          3796.43640:  STOP DEPTH
STEP .M             0.15240:  STEP
NULL .              -999.25:  NULL VALUE
COMP .                     :  COMPANY
WELL .             Kapuni-3:  WELL
FLD  .                     :  FIELD
LOC  .                     :  LOCATION
CTRY .                     :  COUNTRY
STAT .                     :  STATE
CNTY .                     :  COUNTY
SRVC .     Shell BP & Todd Oil Services Ltd:  SERVICE COMPANY
DATE .                     :  DATE
API  .                     :  API NUMBER
UWI  .         100000502146:  UNIQUE WELL ID
LATI .          -39.5051918:  LATITUDE
LONG .          174.1760385:  LONGITUDE
~Curve Information Block
#MNEM.UNIT         API CODE   Curve Description
#---------- ----------------  -----------------
DEPTH.M                    :  
BS   .IN                   :  Bit Size (Created in Geolog)
CALI .IN                   :  (CALI)
DTC  .US/F                 :  (DT)
GR   .GAPI                 :  (GR)
RESD .OHMM                 :  Long normal (ES) (RES_DEP)
RESM .OHMM                 :  I6FR (IES) (RES_MED)
SP   .MV                   :  SP-10 (SP)
~Parameter Information Block
#MNEM.UNIT            Value   Description
#---------- ----------------  -----------
CUR_INT_BOT.M              3796.5:  Current interpolated bottom
PROJECT.     New Zealand Log QC Project:  
SET  .     A0_FINAL_INTER_REF_D:  
ELEVATION_AMSL.M              136.86:  Elevation above mean sea level
ELEVATION_REF.                   DF:  Measurement reference
FORMATION_AT_TD.         Kapuni Group:  Formation at TD
GL_ELEVATION_AMSL.M            131.1000:  Ground level elevation above mean sea level
LICENCE_NUMBER.             PML38839:  Licence number
ONSHORE_OR_OFFSHORE.              Onshore:  Onshore/offshore
PR_NUMBER.                PR465:  Petroleum report number
SPUD_DATE.           21/04/1962:  Spud date
STATUS_AT_COMPLETION.     Tested and completed as a potential producer:  Status at completion
TD_DATE.           24/06/1962:  Total depth date
TOTAL_DEPTH_DRILLED.M              3796.9:  Total depth drilled
~Other Information Block
# 
~A       DEPTH             BS           CALI            DTC             GR           RESD           RESM             SP 
# ...
    2385.21240        12.2500      -999.2500        76.0596      -999.2500         6.5172      -999.2500        82.2102
    2385.36480        12.2500      -999.2500        77.2907      -999.2500         6.5864      -999.2500        82.2997
    2385.51720        12.2500      -999.2500        78.4034      -999.2500         6.6474      -999.2500        82.4113
    2385.66960        12.2500      -999.2500        78.5850      -999.2500         6.6434      -999.2500        82.6963
    2385.82200        12.2500      -999.2500        78.7665      -999.2500         6.6395      -999.2500        82.9812
    2385.97440        12.2500      -999.2500        78.9481      -999.2500         6.6356      -999.2500        83.2662
    2386.12680        12.2500      -999.2500        79.1482      -999.2500         6.5512      -999.2500        83.2477
    2386.27920        12.2500      -999.2500        79.3521      -999.2500         6.4505      -999.2500        83.1679
    2386.43160        12.2500      -999.2500        79.5559      -999.2500         6.3499      -999.2500        83.0882
    2386.58400        12.2500      -999.2500        79.5806      -999.2500         6.2593      -999.2500        82.8330
    2386.73640        12.2500      -999.2500        79.4593      -999.2500         6.1770      -999.2500        82.4349
    2386.88880        12.2500      -999.2500        79.3381      -999.2500         6.0946      -999.2500        82.0369
    2387.04120        12.2500      -999.2500        79.2477      -999.2500         6.0254      -999.2500        81.6560
    2387.19360        12.2500      -999.2500        79.2404      -999.2500         5.9915      -999.2500        81.3213
    2387.34600        12.2500      -999.2500        79.2331      -999.2500         5.9576      -999.2500        80.9867
    2387.49840        12.2500      -999.2500        79.2258      -999.2500         5.9236      -999.2500        80.6520
    2387.65080        12.2500      -999.2500        79.3128      -999.2500         5.8884      -999.2500        79.4674
    2387.80320        12.2500      -999.2500        79.4009      -999.2500         5.8532      -999.2500        78.2738
    2387.95560        12.2500      -999.2500        79.4889      -999.2500         5.8180      -999.2500        77.0803
    2388.10800        12.2500      -999.2500        79.6168      -999.2500         5.8079      -999.2500        76.0460
    2388.26040        12.2500      -999.2500        79.7612      -999.2500         5.8082      -999.2500        75.0772
    2388.41280        12.2500      -999.2500        79.9056      -999.2500         5.8085      -999.2500        74.1083
    2388.56520        12.2500      -999.2500        79.9700      -999.2500         5.8211      -999.2500        73.2559
    2388.71760        12.2500      -999.2500        79.9274      -999.2500         5.8503      -999.2500        72.5590
    2388.87000        12.2500      -999.2500        79.8848      -999.2500         5.8794      -999.2500        71.8622
    2389.02240        12.2500      -999.2500        79.8711      -999.2500         5.9059      -999.2500        71.4292
    2389.17480        12.2500      -999.2500        80.0250      -999.2500         5.9170      -999.2500        72.5277
    2389.32720        12.2500      -999.2500        80.1789      -999.2500         5.9280      -999.2500        73.6262
    2389.47960        12.2500      -999.2500        80.3328      -999.2500         5.9391      -999.2500        74.7246
    2389.63200        12.2500      -999.2500        80.2082      -999.2500         5.9534      -999.2500        76.5643
    2389.78440        12.2500      -999.2500        80.0406      -999.2500         5.9681      -999.2500        78.5185
    2389.93680        12.2500      -999.2500        79.8729      -999.2500         5.9829      -999.2500        80.4727
    2390.08920        12.2500      -999.2500        80.2787      -999.2500         6.0061      -999.2500        81.7987
    2390.24160        12.2500      -999.2500        81.0907      -999.2500         6.0354      -999.2500        82.6796
    2390.39400        12.2500      -999.2500        81.9027      -999.2500         6.0647      -999.2500        83.5604
    2390.54640        12.2500      -999.2500        82.2348      -999.2500         6.1087      -999.2500        84.2415
    2390.69880        12.2500      -999.2500        81.4706      -999.2500         6.1863      -999.2500        84.4662
    2390.85120        12.2500      -999.2500        80.7064      -999.2500         6.2639      -999.2500        84.6909
    2391.00360        12.2500      -999.2500        79.9427      -999.2500         6.3404      -999.2500        84.8985
    2391.15600        12.2500      -999.2500        79.2012      -999.2500         6.3692      -999.2500        84.3990
    2391.30840        12.2500      -999.2500        78.4597      -999.2500         6.3980      -999.2500        83.8995
    2391.46080        12.2500      -999.2500        77.7181      -999.2500         6.4268      -999.2500        83.4000
    2391.61320        12.2500      -999.2500        77.8528      -999.2500         6.3907      -999.2500        82.4054
    2391.76560        12.2500      -999.2500        78.2908      -999.2500         6.3322      -999.2500        81.2394
    2391.91800        12.2500      -999.2500        78.7289      -999.2500         6.2736      -999.2500        80.0734
    2392.07040        12.2500      -999.2500        78.7046      -999.2500         6.2047      -999.2500        79.2348
    2392.22280        12.2500      -999.2500        78.1417      -999.2500         6.1236      -999.2500        78.7778
    2392.37520        12.2500      -999.2500        77.5788      -999.2500         6.0425      -999.2500        78.3208
    2392.52760        12.2500      -999.2500        77.2582      -999.2500         5.9648      -999.2500        78.0567
    2392.68000        12.2500      -999.2500        78.0325      -999.2500         5.9023      -999.2500        78.6650
    2392.83240        12.2500      -999.2500        78.8069      -999.2500         5.8399      -999.2500        79.2734
    2392.98480        12.2500      -999.2500        79.5813      -999.2500         5.7774      -999.2500        79.8817
    2393.13720        12.2500      -999.2500        79.6686      -999.2500         5.7498      -999.2500        79.7405
    2393.28960        12.2500      -999.2500        79.6798      -999.2500         5.7262      -999.2500        79.5162
    2393.44200        12.2500      -999.2500        79.6909      -999.2500         5.7025      -999.2500        79.2919
    2393.59440        12.2500      -999.2500        79.6135      -999.2500         5.6944      -999.2500        78.8386
    2393.74680        12.2500      -999.2500        79.4816      -999.2500         5.6960      -999.2500        78.2447
    2393.89920        12.2500      -999.2500        79.3497      -999.2500         5.6975      -999.2500        77.6507
    2394.05160        12.2500      -999.2500        79.4105      -999.2500         5.7064      -999.2500        77.3102
    2394.20400        12.2500      -999.2500        79.8479      -999.2500         5.7295      -999.2500        77.4646
    2394.35640        12.2500      -999.2500        80.2853      -999.2500         5.7525      -999.2500        77.6190
    2394.50880        12.2500      -999.2500        80.6870      -999.2500         5.7747      -999.2500        77.7682
    2394.66120        12.2500      -999.2500        80.5068      -999.2500         5.7823      -999.2500        77.8326
    2394.81360        12.2500      -999.2500        80.3266      -999.2500         5.7899      -999.2500        77.8971
    2394.96600        12.2500      -999.2500        80.1464      -999.2500         5.7975      -999.2500        77.9615
    2395.11840        12.2500      -999.2500        80.0370      -999.2500         5.7992      -999.2500        78.5323
    2395.27080        12.2500      -999.2500        79.9480      -999.2500         5.7992      -999.2500        79.2485
