~Version Information Block
VERS .                 2.00:  CWLS LOG ASCII STANDARD - VERSION 2.00
WRAP .                   NO:  One line per depth step
~Well Information Block
#MNEM.UNIT        Data Type   Information
#---------- ----------------  -----------
STRT .M             5.63880:  START DEPTH
STOP .M          4194.35280:  STOP DEPTH
STEP .M             0.15240:  STEP
NULL .              -999.25:  NULL VALUE
COMP .                     :  COMPANY
WELL .             Kapuni-2:  WELL
FLD  .                     :  FIELD
LOC  .                     :  LOCATION
CTRY .                     :  COUNTRY
STAT .                     :  STATE
CNTY .                     :  COUNTY
SRVC .     Shell BP & Todd Oil Services Ltd:  SERVICE COMPANY
DATE .                     :  DATE
API  .                     :  API NUMBER
UWI  .         100000021910:  UNIQUE WELL ID
LATI .          -39.4921223:  LATITUDE
LONG .          174.1702607:  LONGITUDE
~Curve Information Block
#MNEM.UNIT         API CODE   Curve Description
#---------- ----------------  -----------------
DEPTH.M                    :  
BS   .IN                   :  Bit Size (Created in Geolog)
CALI .IN                   :  Normalised log, not for display purpose (CALI)
DTC  .US/F                 :  splice of bcsl & bcsl_01r (DT)
GR   .GAPI                 :  (GR)
RESD .OHMM                 :  ln_e (RES_DEP)
RESM .OHMM                 :  i5fr_00j (RES_MED)
SP   .MV                   :  SP_E+130, K1 & K2 bit + 100 (SP)
~Parameter Information Block
#MNEM.UNIT            Value   Description
#---------- ----------------  -----------
CUR_INT_BOT.M              4194.5:  Current interpolated bottom
PROJECT.     New Zealand Log QC Project:  
SET  .     A0_FINAL_INTER_REF_D:  
ELEVATION_AMSL.M               157.3:  Elevation above mean sea level
ELEVATION_REF.                   DF:  Measurement reference
FORMATION_AT_TD.           Mangaotaki:  Formation at TD
GL_ELEVATION_AMSL.M            152.1000:  Ground level elevation above mean sea level
LICENCE_NUMBER.             PML38839:  Licence number
ONSHORE_OR_OFFSHORE.              Onshore:  Onshore/offshore
PR_NUMBER.                PR464:  Petroleum report number
SPUD_DATE.           09/11/1961:  Spud date
STATUS_AT_COMPLETION.            Completed:  Status at completion
TD_DATE.           27/01/1962:  Total depth date
TOTAL_DEPTH_DRILLED.M             4194.66:  Total depth drilled
~Other Information Block
# 
~A       DEPTH             BS           CALI            DTC             GR           RESD           RESM             SP 
# ...
    3589.62960         8.5000         8.8202        84.6598        65.6523        61.3357        39.9130        45.0178
    3589.78200         8.5000         8.8685        85.4588        67.6370        58.8543        37.5739        45.6461
    3589.93440         8.5000         8.9168        86.2578        69.6217        56.3729        35.2347        46.2744
    3590.08680         8.5000         8.9376        85.0338        72.1209        53.7928        33.4307        46.9693
    3590.23920         8.5000         8.9376        82.2808        75.0088        51.1380        32.0311        47.7147
    3590.39160         8.5000         8.9376        79.5278        77.8968        48.4833        30.6314        48.4600
    3590.54400         8.5000         8.9363        76.9950        80.3393        46.0347        29.5857        49.3382
    3590.69640         8.5000         8.9315        75.0050        81.6844        44.0940        29.4119        50.5436
    3590.84880         8.5000         8.9268        73.0149        83.0296        42.1532        29.2381        51.7490
    3591.00120         8.5000         8.9219        71.0606        84.3694        40.2208        29.0681        52.9565
    3591.15360         8.5000         8.8924        73.6143        85.0356        39.3308        29.3713        54.4158
    3591.30600         8.5000         8.8630        76.1680        85.7018        38.4409        29.6744        55.8751
    3591.45840         8.5000         8.8336        78.7217        86.3680        37.5509        29.9776        57.3344
    3591.61080         8.5000         8.6373        79.3905        86.2047        37.3945        30.5044        58.3336
    3591.76320         8.5000         8.3785        79.3515        85.7299        37.5134        31.1152        59.1599
    3591.91560         8.5000         8.1197        79.3126        85.2552        37.6324        31.7260        59.9862
    3592.06800         8.5000         7.9634        78.4881        83.6207        38.1177        32.3063        60.4881
    3592.22040         8.5000         7.9344        76.6884        80.5467        39.0580        32.8486        60.5873
    3592.37280         8.5000         7.9055        74.8888        77.4727        39.9982        33.3909        60.6865
    3592.52520         8.5000         7.8832        73.3482        74.7619        40.9735        33.8745        60.6417
    3592.67760         8.5000         7.8950        73.1155        73.8841        42.1262        34.0614        59.8697
    3592.83000         8.5000         7.9068        72.8828        73.0062        43.2789        34.2483        59.0978
    3592.98240         8.5000         7.9186        72.6501        72.1284        44.4316        34.4353        58.3258
    3593.13480         8.5000         8.0817        72.9671        72.1110        45.3878        35.4444        56.8587
    3593.28720         8.5000         8.2645        73.3559        72.2058        46.3184        36.5608        55.3008
    3593.43960         8.5000         8.4473        73.7447        72.3007        47.2490        37.6772        53.7429
    3593.59200         8.5000         8.4094        73.8764        72.4471        47.7101        38.7495        52.4269
    3593.74440         8.5000         8.2265        73.8393        72.6275        47.8629        39.7928        51.2699
    3593.89680         8.5000         8.0436        73.8022        72.8078        48.0158        40.8361        50.1129
    3594.04920         8.5000         7.9285        73.2279        73.1555        48.1283        41.7470        49.2192
    3594.20160         8.5000         7.9554        71.5266        73.8543        48.1562        42.3799        48.8780
    3594.35400         8.5000         7.9823        69.8253        74.5530        48.1840        43.0129        48.5368
    3594.50640         8.5000         8.0084        68.2165        75.2424        48.2400        43.5470        48.2387
    3594.65880         8.5000         8.0145        68.7168        75.7200        48.9391        41.8260        48.9242
    3594.81120         8.5000         8.0206        69.2171        76.1975        49.6382        40.1050        49.6097
    3594.96360         8.5000         8.0267        69.7173        76.6751        50.3373        38.3840        50.2952
    3595.11600         8.5000         8.1601        70.4979        76.3860        51.1696        37.4700        50.6060
    3595.26840         8.5000         8.3334        71.3664        75.8562        52.0438        36.8092        50.7993
    3595.42080         8.5000         8.5067        72.2350        75.3265        52.9179        36.1484        50.9925
    3595.57320         8.5000         8.6184        72.3557        74.4094        53.8363        36.5675        51.1784
    3595.72560         8.5000         8.6635        71.6675        73.0731        54.8027        38.1552        51.3563
    3595.87800         8.5000         8.7086        70.9793        71.7368        55.7690        39.7428        51.5342
    3596.03040         8.5000         8.6990        69.9908        70.4395        56.6790        42.0293        51.5232
    3596.18280         8.5000         8.4697        67.7978        69.2988        57.3628        47.1203        50.7543
    3596.33520         8.5000         8.2404        65.6047        68.1581        58.0466        52.2114        49.9853
    3596.48760         8.5000         8.0111        63.4116        67.0174        58.7304        57.3024        49.2163
    3596.64000         8.5000         7.9602        61.5005        68.7144        58.6115        58.9982        48.7047
    3596.79240         8.5000         7.9251        59.6145        70.6627        58.4216        60.3933        48.2160
    3596.94480         8.5000         7.8901        57.7284        72.6110        58.2316        61.7883        47.7273
    3597.09720         8.5000         7.8771        57.7402        73.7024        58.2040        60.0926        47.6114
    3597.24960         8.5000         7.8768        58.8298        74.3072        58.2685        56.6416        47.7073
    3597.40200         8.5000         7.8764        59.9194        74.9121        58.3331        53.1906        47.8031
    3597.55440         8.5000         7.8754        61.5948        75.2149        58.2513        50.0241        48.0358
    3597.70680         8.5000         7.8731        64.3255        74.9735        57.9059        47.3700        48.5149
    3597.85920         8.5000         7.8708        67.0562        74.7322        57.5606        44.7158        48.9940
    3598.01160         8.5000         7.8763        69.6265        74.5226        57.1433        42.2678        49.4256
    3598.16400         8.5000         7.9752        70.2499        74.6981        55.8533        42.3210        49.2810
    3598.31640         8.5000         8.0741        70.8734        74.8736        54.5633        42.3742        49.1364
    3598.46880         8.5000         8.1730        71.4968        75.0491        53.2732        42.4275        48.9918
    3598.62120         8.5000         8.3381        71.8822        74.9996        51.8459        41.9954        49.1466
    3598.77360         8.5000         8.5201        72.2063        74.8923        50.3833        41.4384        49.3785
    3598.92600         8.5000         8.7022        72.5304        74.7849        48.9206        40.8814        49.6104
    3599.07840         8.5000         8.8178        72.7467        75.5267        47.2979        40.0491        49.8257
    3599.23080         8.5000         8.8708        72.8614        77.0699        45.5242        38.9569        50.0251
    3599.38320         8.5000         8.9237        72.9761        78.6131        43.7505        37.8647        50.2246
    3599.53560         8.5000         9.0003        73.1374        80.0402        41.8463        36.4520        50.4849
    3599.68800         8.5000         9.1545        73.4519        81.0868        39.5140        33.9878        50.9446
