~Version Information Block
VERS .                 2.00:  CWLS LOG ASCII STANDARD - VERSION 2.00
WRAP .                   NO:  One line per depth step
~Well Information Block
#MNEM.UNIT        Data Type   Information
#---------- ----------------  -----------
STRT .M             0.00000:  START DEPTH
STOP .M          3900.98280:  STOP DEPTH
STEP .M             0.15240:  STEP
NULL .              -999.25:  NULL VALUE
COMP .                     :  COMPANY
WELL .             Kapuni-4:  WELL
FLD  .                     :  FIELD
LOC  .                     :  LOCATION
CTRY .                     :  COUNTRY
STAT .                     :  STATE
CNTY .                     :  COUNTY
SRVC .     Shell BP & Todd Oil Services Ltd:  SERVICE COMPANY
DATE .                     :  DATE
API  .                     :  API NUMBER
UWI  .         100000021909:  UNIQUE WELL ID
LATI .           -39.450469:  LATITUDE
LONG .           174.172705:  LONGITUDE
~Curve Information Block
#MNEM.UNIT         API CODE   Curve Description
#---------- ----------------  -----------------
DEPTH.M                    :  
BS   .IN                   :  (BS)
CALI .IN                   :  (CALI)
DTC  .US/F                 :  (DT)
GR   .GAPI                 :  (GR)
RESD .OHMM                 :  LN (RES_DEP)
RESM .OHMM                 :  I5FR_01r (RES_MED)
SP   .MV                   :  SP+150 (SP)
~Parameter Information Block
#MNEM.UNIT            Value   Description
#---------- ----------------  -----------
CUR_INT_BOT.M                3901:  Current interpolated bottom
PROJECT.     New Zealand Log QC Project:  
SET  .     A0_FINAL_INTER_REF_D:  
ELEVATION_AMSL.M              232.56:  Elevation above mean sea level
ELEVATION_REF.                   DF:  Measurement reference
FORMATION_AT_TD.         Kapuni Group:  Formation at TD
GL_ELEVATION_AMSL.M            226.5000:  Ground level elevation above mean sea level
LICENCE_NUMBER.             PML38839:  Licence number
ONSHORE_OR_OFFSHORE.              Onshore:  Onshore/offshore
PR_NUMBER.                PR466:  Petroleum report number
SPUD_DATE.           20/08/1962:  Spud date
STATUS_AT_COMPLETION.     Completed as a future production well:  Status at completion
TD_DATE.           26/10/1962:  Total depth date
TOTAL_DEPTH_DRILLED.M             3901.44:  Total depth drilled
~Other Information Block
# 
~A       DEPTH             BS           CALI            DTC             GR           RESD           RESM             SP 
# ...
    2562.91080        12.2500      -999.2500        80.0062      -999.2500         7.9186      -999.2500         6.4109
    2563.06320        12.2500      -999.2500        79.9586      -999.2500         7.9249      -999.2500         6.5447
    2563.21560        12.2500      -999.2500        79.7005      -999.2500         7.9127      -999.2500         6.7036
    2563.36800        12.2500      -999.2500        79.4424      -999.2500         7.9006      -999.2500         6.8624
    2563.52040        12.2500      -999.2500        79.1437      -999.2500         7.8888      -999.2500         6.9872
    2563.67280        12.2500      -999.2500        78.5828      -999.2500         7.8796      -999.2500         6.8918
    2563.82520        12.2500      -999.2500        78.0219      -999.2500         7.8705      -999.2500         6.7964
    2563.97760        12.2500      -999.2500        77.4609      -999.2500         7.8613      -999.2500         6.7010
    2564.13000        12.2500      -999.2500        77.3019      -999.2500         7.8600      -999.2500         7.1583
    2564.28240        12.2500      -999.2500        77.2122      -999.2500         7.8600      -999.2500         7.7108
    2564.43480        12.2500      -999.2500        77.1225      -999.2500         7.8600      -999.2500         8.2634
    2564.58720        12.2500      -999.2500        77.2825      -999.2500         7.8550      -999.2500         8.4799
    2564.73960        12.2500      -999.2500        77.6293      -999.2500         7.8464      -999.2500         8.4451
    2564.89200        12.2500      -999.2500        77.9761      -999.2500         7.8378      -999.2500         8.4104
    2565.04440        12.2500      -999.2500        78.5289      -999.2500         7.8174      -999.2500         8.3517
    2565.19680        12.2500      -999.2500        79.5829      -999.2500         7.7683      -999.2500         8.2351
    2565.34920        12.2500      -999.2500        80.6369      -999.2500         7.7193      -999.2500         8.1185
    2565.50160        12.2500      -999.2500        81.6789      -999.2500         7.6699      -999.2500         7.9974
    2565.65400        12.2500      -999.2500        81.5919      -999.2500         7.5908      -999.2500         7.4473
    2565.80640        12.2500      -999.2500        81.5048      -999.2500         7.5118      -999.2500         6.8972
    2565.95880        12.2500      -999.2500        81.4177      -999.2500         7.4327      -999.2500         6.3470
    2566.11120        12.2500      -999.2500        81.1797      -999.2500         7.2859      -999.2500         6.5894
    2566.26360        12.2500      -999.2500        80.8858      -999.2500         7.1140      -999.2500         7.1255
    2566.41600        12.2500      -999.2500        80.5919      -999.2500         6.9421      -999.2500         7.6615
    2566.56840        12.2500      -999.2500        80.6031      -999.2500         6.8231      -999.2500         7.9637
    2566.72080        12.2500      -999.2500        80.9889      -999.2500         6.7690      -999.2500         7.9788
    2566.87320        12.2500      -999.2500        81.3747      -999.2500         6.7150      -999.2500         7.9938
    2567.02560        12.2500      -999.2500        81.7069      -999.2500         6.6664      -999.2500         8.0030
    2567.17800        12.2500      -999.2500        81.7738      -999.2500         6.6451      -999.2500         7.9827
    2567.33040        12.2500      -999.2500        81.8406      -999.2500         6.6237      -999.2500         7.9625
    2567.48280        12.2500      -999.2500        81.9075      -999.2500         6.6024      -999.2500         7.9422
    2567.63520        12.2500      -999.2500        82.5893      -999.2500         6.5564      -999.2500         7.6104
    2567.78760        12.2500      -999.2500        83.3494      -999.2500         6.5073      -999.2500         7.2390
    2567.94000        12.2500      -999.2500        84.1095      -999.2500         6.4581      -999.2500         6.8675
    2568.09240        12.2500      -999.2500        84.8847      -999.2500         6.3891      -999.2500         6.6830
    2568.24480        12.2500      -999.2500        85.6698      -999.2500         6.3072      -999.2500         6.6199
    2568.39720        12.2500      -999.2500        86.4548      -999.2500         6.2253      -999.2500         6.5568
    2568.54960        12.2500      -999.2500        86.7413      -999.2500         6.1615      -999.2500         6.5343
    2568.70200        12.2500      -999.2500        85.9946      -999.2500         6.1353      -999.2500         6.5959
    2568.85440        12.2500      -999.2500        85.2478      -999.2500         6.1090      -999.2500         6.6575
    2569.00680        12.2500      -999.2500        84.5168      -999.2500         6.0803      -999.2500         6.7266
    2569.15920        12.2500      -999.2500        84.1241      -999.2500         5.9964      -999.2500         6.9544
    2569.31160        12.2500      -999.2500        83.7315      -999.2500         5.9125      -999.2500         7.1822
    2569.46400        12.2500      -999.2500        83.3388      -999.2500         5.8285      -999.2500         7.4100
    2569.61640        12.2500      -999.2500        82.9021      -999.2500         5.7871      -999.2500         7.5650
    2569.76880        12.2500      -999.2500        82.4519      -999.2500         5.7588      -999.2500         7.6975
    2569.92120        12.2500      -999.2500        82.0017      -999.2500         5.7305      -999.2500         7.8300
    2570.07360        12.2500      -999.2500        81.5516      -999.2500         5.7479      -999.2500         7.9058
    2570.22600        12.2500      -999.2500        81.1018      -999.2500         5.8144      -999.2500         7.9209
    2570.37840        12.2500      -999.2500        80.6519      -999.2500         5.8809      -999.2500         7.9360
    2570.53080        12.2500      -999.2500        80.5023      -999.2500         5.9243      -999.2500         7.9333
    2570.68320        12.2500      -999.2500        81.5377      -999.2500         5.8769      -999.2500         7.8604
    2570.83560        12.2500      -999.2500        82.5732      -999.2500         5.8294      -999.2500         7.7876
    2570.98800        12.2500      -999.2500        83.6086      -999.2500         5.7819      -999.2500         7.7147
    2571.14040        12.2500      -999.2500        84.3073      -999.2500         5.7335      -999.2500         7.4121
    2571.29280        12.2500      -999.2500        84.9771      -999.2500         5.6851      -999.2500         7.0898
    2571.44520        12.2500      -999.2500        85.6470      -999.2500         5.6366      -999.2500         6.7676
    2571.59760        12.2500      -999.2500        85.6385      -999.2500         5.6213      -999.2500         7.0316
    2571.75000        12.2500      -999.2500        85.2491      -999.2500         5.6246      -999.2500         7.6247
    2571.90240        12.2500      -999.2500        84.8597      -999.2500         5.6279      -999.2500         8.2178
    2572.05480        12.2500      -999.2500        84.4230      -999.2500         5.6267      -999.2500         8.6572
    2572.20720        12.2500      -999.2500        83.9019      -999.2500         5.6176      -999.2500         8.8226
    2572.35960        12.2500      -999.2500        83.3808      -999.2500         5.6084      -999.2500         8.9880
    2572.51200        12.2500      -999.2500        82.8469      -999.2500         5.5929      -999.2500         9.1109
    2572.66440        12.2500      -999.2500        82.1622      -999.2500         5.5032      -999.2500         8.7363
    2572.81680        12.2500      -999.2500        81.4775      -999.2500         5.4135      -999.2500         8.3618
    2572.96920        12.2500      -999.2500        80.7928      -999.2500         5.3238      -999.2500         7.9873
