~Version Information Block
VERS .                 2.00:  CWLS LOG ASCII STANDARD - VERSION 2.00
WRAP .                   NO:  One line per depth step
~Well Information Block
#MNEM.UNIT        Data Type   Information
#---------- ----------------  -----------
STRT .M             5.63880:  START DEPTH
STOP .M          4194.35280:  STOP DEPTH
STEP .M             0.15240:  STEP
NULL .              -999.25:  NULL VALUE
COMP .                     :  COMPANY
WELL .             Kapuni-2:  WELL
FLD  .                     :  FIELD
LOC  .                     :  LOCATION
CTRY .                     :  COUNTRY
STAT .                     :  STATE
CNTY .                     :  COUNTY
SRVC .     Shell BP & Todd Oil Services Ltd:  SERVICE COMPANY
DATE .                     :  DATE
API  .                     :  API NUMBER
UWI  .         100000021910:  UNIQUE WELL ID
LATI .          -39.4921223:  LATITUDE
LONG .          174.1702607:  LONGITUDE
~Curve Information Block
#MNEM.UNIT         API CODE   Curve Description
#---------- ----------------  -----------------
DEPTH.M                    :  
BS   .IN                   :  Bit Size (Created in Geolog)
CALI .IN                   :  Normalised log, not for display purpose (CALI)
DTC  .US/F                 :  splice of bcsl & bcsl_01r (DT)
GR   .GAPI                 :  (GR)
RESD .OHMM                 :  ln_e (RES_DEP)
RESM .OHMM                 :  i5fr_00j (RES_MED)
SP   .MV                   :  SP_E+130, K1 & K2 bit + 100 (SP)
~Parameter Information Block
#MNEM.UNIT            Value   Description
#---------- ----------------  -----------
CUR_INT_BOT.M              4194.5:  Current interpolated bottom
PROJECT.     New Zealand Log QC Project:  
SET  .     A0_FINAL_INTER_REF_D:  
ELEVATION_AMSL.M               157.3:  Elevation above mean sea level
ELEVATION_REF.                   DF:  Measurement reference
FORMATION_AT_TD.           Mangaotaki:  Formation at TD
GL_ELEVATION_AMSL.M            152.1000:  Ground level elevation above mean sea level
LICENCE_NUMBER.             PML38839:  Licence number
ONSHORE_OR_OFFSHORE.              Onshore:  Onshore/offshore
PR_NUMBER.                PR464:  Petroleum report number
SPUD_DATE.           09/11/1961:  Spud date
STATUS_AT_COMPLETION.            Completed:  Status at completion
TD_DATE.           27/01/1962:  Total depth date
TOTAL_DEPTH_DRILLED.M             4194.66:  Total depth drilled
~Other Information Block
# 
~A       DEPTH             BS           CALI            DTC             GR           RESD           RESM             SP 
# ...
    3844.89960         8.5000         8.7305        66.1410      -999.2500        35.3409        34.1276        56.3859
    3845.05200         8.5000         8.7298        65.9931      -999.2500        35.8266        33.7471        56.3075
    3845.20440         8.5000         8.7248        65.0637      -999.2500        36.4466        31.9812        56.2296
    3845.35680         8.5000         8.7198        64.1344      -999.2500        37.0666        30.2153        56.1516
    3845.50920         8.5000         8.7139        63.2811      -999.2500        37.6541        28.5375        56.0882
    3845.66160         8.5000         8.6939        63.6106      -999.2500        37.7352        28.2317        56.2513
    3845.81400         8.5000         8.6739        63.9401      -999.2500        37.8163        27.9260        56.4144
    3845.96640         8.5000         8.6538        64.2696      -999.2500        37.8974        27.6202        56.5774
    3846.11880         8.5000         8.6533        64.1720      -999.2500        37.9228        28.5044        56.6963
    3846.27120         8.5000         8.6584        63.9535      -999.2500        37.9326        29.7251        56.8027
    3846.42360         8.5000         8.6634        63.7351      -999.2500        37.9423        30.9458        56.9091
    3846.57600         8.5000         8.6680        63.2394      -999.2500        37.6979        31.0532        56.7287
    3846.72840         8.5000         8.6722        62.4651      -999.2500        37.1981        30.0415        56.2600
    3846.88080         8.5000         8.6764        61.6907      -999.2500        36.6982        29.0298        55.7913
    3847.03320         8.5000         8.6721        61.4385      -999.2500        36.2235        28.1257        55.3550
    3847.18560         8.5000         8.6369        63.0611      -999.2500        35.8387        27.6083        55.0354
    3847.33800         8.5000         8.6017        64.6838      -999.2500        35.4539        27.0909        54.7158
    3847.49040         8.5000         8.5665        66.3064      -999.2500        35.0691        26.5735        54.3962
    3847.64280         8.5000         8.4917        66.9415      -999.2500        35.1258        25.6437        54.5479
    3847.79520         8.5000         8.4143        67.5102      -999.2500        35.2122        24.6861        54.7313
    3847.94760         8.5000         8.3368        68.0790      -999.2500        35.2985        23.7285        54.9147
    3848.10000         8.5000         8.3063        68.0032      -999.2500        35.1427        23.4455        54.9405
    3848.25240         8.5000         8.3002        67.5896      -999.2500        34.8599        23.5160        54.8836
    3848.40480         8.5000         8.2942        67.1761      -999.2500        34.5771        23.5865        54.8268
    3848.55720         8.5000         8.3145        66.7158      -999.2500        34.2027        23.3611        54.7349
    3848.70960         8.5000         8.3785        66.1778      -999.2500        33.6760        22.6434        54.5846
    3848.86200         8.5000         8.4426        65.6398      -999.2500        33.1494        21.9258        54.4343
    3849.01440         8.5000         8.4953        65.2472      -999.2500        32.6611        21.2751        54.2663
    3849.16680         8.5000         8.4390        66.2476      -999.2500        32.5411        21.2668        53.9294
    3849.31920         8.5000         8.3827        67.2480      -999.2500        32.4211        21.2586        53.5924
    3849.47160         8.5000         8.3263        68.2485      -999.2500        32.3011        21.2503        53.2555
    3849.62400         8.5000         8.3413        68.3127      -999.2500        32.4537        21.7879        53.1525
    3849.77640         8.5000         8.3726        68.1625      -999.2500        32.6688        22.4506        53.1031
    3849.92880         8.5000         8.4038        68.0123      -999.2500        32.8838        23.1133        53.0537
    3850.08120         8.5000         8.3898        68.1372      -999.2500        32.9818        24.2935        52.8502
    3850.23360         8.5000         8.3359        68.5034      -999.2500        32.9771        25.9275        52.5118
    3850.38600         8.5000         8.2821        68.8696      -999.2500        32.9723        27.5615        52.1734
    3850.53840         8.5000         8.2743        68.5945      -999.2500        32.9907        29.3944        51.7550
    3850.69080         8.5000         8.4032        66.4155      -999.2500        33.0778        31.8178        51.0996
    3850.84320         8.5000         8.5322        64.2365      -999.2500        33.1649        34.2411        50.4441
    3850.99560         8.5000         8.6611        62.0574      -999.2500        33.2519        36.6645        49.7887
    3851.14800         8.5000         8.6979        60.7252      -999.2500        33.5911        33.9254        49.2385
    3851.30040         8.5000         8.7319        59.4182      -999.2500        33.9377        31.0328        48.6914
    3851.45280         8.5000         8.7660        58.1111      -999.2500        34.2843        28.1402        48.1444
    3851.60520         8.5000         8.7125        59.6513      -999.2500        34.8353        26.6768        48.1024
    3851.75760         8.5000         8.6199        62.4690      -999.2500        35.4780        25.8548        48.2870
    3851.91000         8.5000         8.5272        65.2867      -999.2500        36.1207        25.0327        48.4717
    3852.06240         8.5000         8.4342        66.9197      -999.2500        36.6836        25.2890        48.4156
    3852.21480         8.5000         8.3408        66.8439      -999.2500        37.1315        27.1006        48.0124
    3852.36720         8.5000         8.2474        66.7681      -999.2500        37.5793        28.9123        47.6091
    3852.51960         8.5000         8.1686        66.3314      -999.2500        37.9255        30.9389        47.0633
    3852.67200         8.5000         8.1885        63.4497      -999.2500        37.5824        34.4217        45.5519
    3852.82440         8.5000         8.2085        60.5679      -999.2500        37.2394        37.9046        44.0405
    3852.97680         8.5000         8.2284        57.6862      -999.2500        36.8963        41.3874        42.5291
    3853.12920         8.5000         8.4692        59.1143      -999.2500        36.4533        39.9364        41.7366
    3853.28160         8.5000         8.7496        61.3163      -999.2500        35.9924        37.5996        41.0732
    3853.43400         8.5000         9.0300        63.5183      -999.2500        35.5314        35.2627        40.4098
    3853.58640         8.5000         9.0832        65.4825      -999.2500        35.4832        32.2255        40.5692
    3853.73880         8.5000         8.9628        67.2652      -999.2500        35.7501        28.6535        41.3571
    3853.89120         8.5000         8.8424        69.0479      -999.2500        36.0171        25.0814        42.1450
    3854.04360         8.5000         8.7662        71.4392      -999.2500        35.7301        22.0506        43.0650
    3854.19600         8.5000         8.8004        75.3493      -999.2500        34.0607        20.3702        44.3144
    3854.34840         8.5000         8.8346        79.2594      -999.2500        32.3913        18.6899        45.5637
    3854.50080         8.5000         8.8685        83.1784      -999.2500        30.7223        17.0199        46.8088
    3854.65320         8.5000         8.8528        88.8052      -999.2500        29.1433        17.3162        47.2455
    3854.80560         8.5000         8.8372        94.4320      -999.2500        27.5643        17.6126        47.6822
    3854.95800         8.5000         8.8215       100.0587      -999.2500        25.9853        17.9090        48.1189
