~Version Information Block
VERS .                 2.00:  CWLS LOG ASCII STANDARD - VERSION 2.00
WRAP .                   NO:  One line per depth step
~Well Information Block
#MNEM.UNIT        Data Type   Information
#---------- ----------------  -----------
STRT .M             5.63880:  START DEPTH
STOP .M          4194.35280:  STOP DEPTH
STEP .M             0.15240:  STEP
NULL .              -999.25:  NULL VALUE
COMP .                     :  COMPANY
WELL .             Kapuni-2:  WELL
FLD  .                     :  FIELD
LOC  .                     :  LOCATION
CTRY .                     :  COUNTRY
STAT .                     :  STATE
CNTY .                     :  COUNTY
SRVC .     Shell BP & Todd Oil Services Ltd:  SERVICE COMPANY
DATE .                     :  DATE
API  .                     :  API NUMBER
UWI  .         100000021910:  UNIQUE WELL ID
LATI .          -39.4921223:  LATITUDE
LONG .          174.1702607:  LONGITUDE
~Curve Information Block
#MNEM.UNIT         API CODE   Curve Description
#---------- ----------------  -----------------
DEPTH.M                    :  
BS   .IN                   :  Bit Size (Created in Geolog)
CALI .IN                   :  Normalised log, not for display purpose (CALI)
DTC  .US/F                 :  splice of bcsl & bcsl_01r (DT)
GR   .GAPI                 :  (GR)
RESD .OHMM                 :  ln_e (RES_DEP)
RESM .OHMM                 :  i5fr_00j (RES_MED)
SP   .MV                   :  SP_E+130, K1 & K2 bit + 100 (SP)
~Parameter Information Block
#MNEM.UNIT            Value   Description
#---------- ----------------  -----------
CUR_INT_BOT.M              4194.5:  Current interpolated bottom
PROJECT.     New Zealand Log QC Project:  
SET  .     A0_FINAL_INTER_REF_D:  
ELEVATION_AMSL.M               157.3:  Elevation above mean sea level
ELEVATION_REF.                   DF:  Measurement reference
FORMATION_AT_TD.           Mangaotaki:  Formation at TD
GL_ELEVATION_AMSL.M            152.1000:  Ground level elevation above mean sea level
LICENCE_NUMBER.             PML38839:  Licence number
ONSHORE_OR_OFFSHORE.              Onshore:  Onshore/offshore
PR_NUMBER.                PR464:  Petroleum report number
SPUD_DATE.           09/11/1961:  Spud date
STATUS_AT_COMPLETION.            Completed:  Status at completion
TD_DATE.           27/01/1962:  Total depth date
TOTAL_DEPTH_DRILLED.M             4194.66:  Total depth drilled
~Other Information Block
# 
~A       DEPTH             BS           CALI            DTC             GR           RESD           RESM             SP 
# ...
    2047.79880        12.2500         9.2011        86.8251      -999.2500         7.2380         7.6447        42.1797
    2047.95120        12.2500         9.0997        86.5497      -999.2500         7.2592         7.5896        42.1797
    2048.10360        12.2500         9.0421        86.0434      -999.2500         7.3227         7.5115        42.1760
    2048.25600        12.2500         9.0053        85.4283      -999.2500         7.4063         7.4225        42.1704
    2048.40840        12.2500         8.9684        84.8132      -999.2500         7.4898         7.3335        42.1649
    2048.56080        12.2500         8.9437        84.7882      -999.2500         7.5247         7.3021        42.1412
    2048.71320        12.2500         8.9372        85.6521      -999.2500         7.4862         7.3575        42.0899
    2048.86560        12.2500         8.9306        86.5160      -999.2500         7.4477         7.4129        42.0387
    2049.01800        12.2500         8.9229        87.2579      -999.2500         7.4130         7.4669        41.9583
    2049.17040        12.2500         8.9062        87.0891      -999.2500         7.4062         7.5111        41.6607
    2049.32280        12.2500         8.8894        86.9203      -999.2500         7.3995         7.5552        41.3630
    2049.47520        12.2500         8.8727        86.7515      -999.2500         7.3927         7.5993        41.0653
    2049.62760        12.2500         8.8690        86.5387      -999.2500         7.4231         7.6352        40.6057
    2049.78000        12.2500         8.8679        86.3174      -999.2500         7.4606         7.6694        40.1145
    2049.93240        12.2500         8.8667        86.0961      -999.2500         7.4982         7.7037        39.6234
    2050.08480        12.2500         8.8642        87.0325      -999.2500         7.5352         7.7346        39.5736
    2050.23720        12.2500         8.8605        88.8919      -999.2500         7.5717         7.7629        39.8757
    2050.38960        12.2500         8.8569        90.7513      -999.2500         7.6083         7.7912        40.1777
    2050.54200        12.2500         8.8539        91.4516      -999.2500         7.6600         7.8259        40.4623
    2050.69440        12.2500         8.8526        89.1053      -999.2500         7.7515         7.8773        40.7010
    2050.84680        12.2500         8.8513        86.7590      -999.2500         7.8430         7.9288        40.9397
    2050.99920        12.2500         8.8500        84.4126      -999.2500         7.9345         7.9802        41.1784
    2051.15160        12.2500         8.8502        82.9983      -999.2500         7.9053         8.0531        41.1797
    2051.30400        12.2500         8.8505        81.5890      -999.2500         7.8755         8.1261        41.1797
    2051.45640        12.2500         8.8508        80.1796      -999.2500         7.8457         8.1992        41.1797
    2051.60880        12.2500         8.8506        82.1772      -999.2500         7.8246         8.3591        41.2055
    2051.76120        12.2500         8.8504        85.5401      -999.2500         7.8072         8.5538        41.2416
    2051.91360        12.2500         8.8501        88.9030      -999.2500         7.7897         8.7485        41.2777
    2052.06600        12.2500         8.8510        89.8997      -999.2500         7.7812         8.7422        41.3189
    2052.21840        12.2500         8.8536        87.7989      -999.2500         7.7844         8.4725        41.3668
    2052.37080        12.2500         8.8563        85.6981      -999.2500         7.7876         8.2028        41.4148
    2052.52320        12.2500         8.8565        84.2425      -999.2500         7.7821         7.9827        41.4593
    2052.67560        12.2500         8.8438        86.3797      -999.2500         7.7283         8.0391        41.4849
    2052.82800        12.2500         8.8310        88.5169      -999.2500         7.6745         8.0954        41.5106
    2052.98040        12.2500         8.8183        90.6541      -999.2500         7.6208         8.1517        41.5363
    2053.13280        12.2500         8.8278        89.7061      -999.2500         7.6377         8.1537        41.5396
    2053.28520        12.2500         8.8407        88.3028      -999.2500         7.6652         8.1476        41.5396
    2053.43760        12.2500         8.8535        86.8995      -999.2500         7.6926         8.1415        41.5396
    2053.59000        12.2500         8.8545        87.0128      -999.2500         7.6989         8.1014        41.5396
    2053.74240        12.2500         8.8474        88.1776      -999.2500         7.6904         8.0377        41.5396
    2053.89480        12.2500         8.8402        89.3423      -999.2500         7.6820         7.9740        41.5396
    2054.04720        12.2500         8.8283        90.2349      -999.2500         7.6620         7.9384        41.5396
    2054.19960        12.2500         8.8061        90.5205      -999.2500         7.6162         7.9653        41.5396
    2054.35200        12.2500         8.7838        90.8062      -999.2500         7.5704         7.9923        41.5396
    2054.50440        12.2500         8.7588        91.0779      -999.2500         7.5252         8.0186        41.5396
    2054.65680        12.2500         8.6428        90.8756      -999.2500         7.4994         8.0221        41.5396
    2054.80920        12.2500         8.5268        90.6734      -999.2500         7.4735         8.0256        41.5396
    2054.96160        12.2500         8.4109        90.4712      -999.2500         7.4477         8.0290        41.5396
    2055.11400        12.2500         8.4342        90.2820      -999.2500         7.4370         8.0071        41.5396
    2055.26640        12.2500         8.5043        90.0972      -999.2500         7.4315         7.9767        41.5396
    2055.41880        12.2500         8.5745        89.9124      -999.2500         7.4259         7.9462        41.5396
    2055.57120        12.2500         8.6134        90.0402      -999.2500         7.4303         7.9352        41.5290
    2055.72360        12.2500         8.6167        90.5246      -999.2500         7.4461         7.9462        41.5064
    2055.87600        12.2500         8.6199        91.0089      -999.2500         7.4618         7.9573        41.4839
    2056.02840        12.2500         8.5979        91.1816      -999.2500         7.4663         7.9682        41.4652
    2056.18080        12.2500         8.4655        89.9937      -999.2500         7.4216         7.9785        41.4635
    2056.33320        12.2500         8.3331        88.8058      -999.2500         7.3770         7.9887        41.4618
    2056.48560        12.2500         8.2007        87.6179      -999.2500         7.3323         7.9990        41.4601
    2056.63800        12.2500         8.1901        87.8578      -999.2500         7.2001         7.9917        41.4451
    2056.79040        12.2500         8.1921        88.2467      -999.2500         7.0588         7.9826        41.4287
    2056.94280        12.2500         8.1942        88.6355      -999.2500         6.9174         7.9734        41.4123
    2057.09520        12.2500         8.1953        89.1858      -999.2500         6.8681         7.9650        41.3512
    2057.24760        12.2500         8.1959        89.8331      -999.2500         6.8741         7.9570        41.2632
    2057.40000        12.2500         8.1964        90.4804      -999.2500         6.8802         7.9490        41.1752
    2057.55240        12.2500         8.1998        90.7625      -999.2500         6.8639         7.9381        41.0647
    2057.70480        12.2500         8.2084        90.3477      -999.2500         6.8052         7.9217        40.9114
    2057.85720        12.2500         8.2171        89.9330      -999.2500         6.7465         7.9053        40.7580
