~Version Information Block
VERS .                 2.00:  CWLS LOG ASCII STANDARD - VERSION 2.00
WRAP .                   NO:  One line per depth step
~Well Information Block
#MNEM.UNIT        Data Type   Information
#---------- ----------------  -----------
STRT .M             6.09600:  START DEPTH
STOP .M          3796.43640:  STOP DEPTH
STEP .M             0.15240:  STEP
NULL .              -999.25:  NULL VALUE
COMP .                     :  COMPANY
WELL .             Kapuni-3:  WELL
FLD  .                     :  FIELD
LOC  .                     :  LOCATION
CTRY .                     :  COUNTRY
STAT .                     :  STATE
CNTY .                     :  COUNTY
SRVC .     Shell BP & Todd Oil Services Ltd:  SERVICE COMPANY
DATE .                     :  DATE
API  .                     :  API NUMBER
UWI  .         100000502146:  UNIQUE WELL ID
LATI .          -39.5051918:  LATITUDE
LONG .          174.1760385:  LONGITUDE
~Curve Information Block
#MNEM.UNIT         API CODE   Curve Description
#---------- ----------------  -----------------
DEPTH.M                    :  
BS   .IN                   :  Bit Size (Created in Geolog)
CALI .IN                   :  (CALI)
DTC  .US/F                 :  (DT)
GR   .GAPI                 :  (GR)
RESD .OHMM                 :  Long normal (ES) (RES_DEP)
RESM .OHMM                 :  I6FR (IES) (RES_MED)
SP   .MV                   :  SP-10 (SP)
~Parameter Information Block
#MNEM.UNIT            Value   Description
#---------- ----------------  -----------
CUR_INT_BOT.M              3796.5:  Current interpolated bottom
PROJECT.     New Zealand Log QC Project:  
SET  .     A0_FINAL_INTER_REF_D:  
ELEVATION_AMSL.M              136.86:  Elevation above mean sea level
ELEVATION_REF.                   DF:  Measurement reference
FORMATION_AT_TD.         Kapuni Group:  Formation at TD
GL_ELEVATION_AMSL.M            131.1000:  Ground level elevation above mean sea level
LICENCE_NUMBER.             PML38839:  Licence number
ONSHORE_OR_OFFSHORE.              Onshore:  Onshore/offshore
PR_NUMBER.                PR465:  Petroleum report number
SPUD_DATE.           21/04/1962:  Spud date
STATUS_AT_COMPLETION.     Tested and completed as a potential producer:  Status at completion
TD_DATE.           24/06/1962:  Total depth date
TOTAL_DEPTH_DRILLED.M              3796.9:  Total depth drilled
~Other Information Block
# 
~A       DEPTH             BS           CALI            DTC             GR           RESD           RESM             SP 
# ...
    3784.09200         8.5000         8.6587        73.1975        91.7817        12.5259        14.5461        79.9414
    3784.24440         8.5000         8.6684        72.9084        93.0061        12.9913        14.4325        82.6909
    3784.39680         8.5000         8.6780        72.6193        94.2305        13.4567        14.3188        85.4404
    3784.54920         8.5000         8.6874        72.4262        95.5291        14.0804        14.1529        88.2424
    3784.70160         8.5000         8.6960        72.4345        96.9833        15.0362        13.8773        91.1546
    3784.85400         8.5000         8.7047        72.4427        98.4374        15.9920        13.6016        94.0668
    3785.00640         8.5000         8.7123        72.4291        99.8602        16.9251        13.3447        96.9112
    3785.15880         8.5000         8.6961        71.9161       100.5663        17.3409        13.5139        98.2083
    3785.31120         8.5000         8.6799        71.4030       101.2724        17.7568        13.6831        99.5054
    3785.46360         8.5000         8.6637        70.8900       101.9785        18.1726        13.8524       100.8025
    3785.61600         8.5000         8.6575        71.7151       101.6120        18.2719        13.8369       101.4937
    3785.76840         8.5000         8.6546        72.9602       100.9088        18.2719        13.7635       101.9948
    3785.92080         8.5000         8.6516        74.2052       100.2057        18.2719        13.6901       102.4959
    3786.07320         8.5000         8.6496        75.0292        99.5929        18.2912        13.4870       102.9770
    3786.22560         8.5000         8.6486        75.3975        99.0779        18.3313        13.1435       103.4366
    3786.37800         8.5000         8.6475        75.7659        98.5629        18.3714        12.8000       103.8962
    3786.53040         8.5000         8.6473        76.0447        98.4072        18.4034        12.4738       104.3358
    3786.68280         8.5000         8.6501        75.9642        99.6935        18.4033        12.2167       104.6956
    3786.83520         8.5000         8.6529        75.8837       100.9798        18.4032        11.9596       105.0555
    3786.98760         8.5000         8.6558        75.8032       102.2661        18.4030        11.7025       105.4153
    3787.14000         8.5000         8.6564        75.8785       103.1804        18.2619        11.7974       105.5553
    3787.29240         8.5000         8.6569        75.9676       104.0616        18.1083        11.9234       105.6759
    3787.44480         8.5000         8.6573        76.0567       104.9429        17.9546        12.0494       105.7965
    3787.59720         8.5000         8.6601        76.0498       104.2957        17.8022        12.0197       105.8168
    3787.74960         8.5000         8.6642        75.9883       102.7806        17.6504        11.9016       105.7801
    3787.90200         8.5000         8.6683        75.9269       101.2654        17.4987        11.7834       105.7434
    3788.05440         8.5000         8.6581        75.8896        99.9879        17.3758        11.7318       105.6819
    3788.20680         8.5000         8.6222        75.8959        99.1386        17.3051        11.8000       105.5757
    3788.35920         8.5000         8.5864        75.9022        98.2893        17.2343        11.8682       105.4695
    3788.51160         8.5000         8.5527        75.9219        97.5280        17.1626        11.9456       105.3627
    3788.66400         8.5000         8.5464        76.1038        97.8363        17.0789        12.1356       105.2493
    3788.81640         8.5000         8.5400        76.2856        98.1446        16.9952        12.3255       105.1360
    3788.96880         8.5000         8.5337        76.4675        98.4529        16.9115        12.5154       105.0226
    3789.12120         8.5000         8.5047        75.9346        99.1782        16.8325        12.6390       104.8807
    3789.27360         8.5000         8.4700        75.2178       100.0109        16.7546        12.7456       104.7314
    3789.42600         8.5000         8.4352        74.5010       100.8436        16.6767        12.8522       104.5821
    3789.57840         8.5000         8.3306        74.3550       101.6329        16.5412        12.9332       104.3041
    3789.73080         8.5000         8.1599        74.7479       102.3814        16.3513        12.9902       103.9045
    3789.88320         8.5000         7.9892        75.1408       103.1300        16.1615        13.0472       103.5050
    3790.03560         8.5000         7.8322        75.9081       103.5778        15.9467        12.8498       103.1139
    3790.18800         8.5000         7.7201        77.9039       103.0390        15.6497        11.8178       102.7509
    3790.34040         8.5000         7.6080        79.8996       102.5002        15.3528        10.7858       102.3878
    3790.49280         8.5000         7.4959        81.8954       101.9615        15.0559         9.7537       102.0248
    3790.64520         8.5000         7.4959        82.6844        97.4963        14.5009         8.5753       101.4100
    3790.79760         8.5000         7.5014        83.4136        92.8364        13.9331         7.3896       100.7827
    3790.95000         8.5000         7.5070        84.1428        88.1766        13.3653         6.2039       100.1555
    3791.10240         8.5000         7.4888        83.7235        82.3059        12.8084         5.5897        99.1307
    3791.25480         8.5000         7.4590        82.7433        75.8439        12.2568         5.2547        97.9119
    3791.40720         8.5000         7.4292        81.7631        69.3820        11.7051         4.9196        96.6931
    3791.55960         8.5000         7.3991        81.0341        65.1079        11.2235         4.7024        95.2056
    3791.71200         8.5000         7.3685        80.6962        64.2404        10.8508         4.6685        93.2998
    3791.86440         8.5000         7.3380        80.3583        63.3729        10.4782         4.6346        91.3941
    3792.01680         8.5000         7.3088        80.0606        62.5881        10.1351         4.6188        89.3179
    3792.16920         8.5000         7.2896        80.0875        62.4712        10.0308         4.7491        85.8664
    3792.32160         8.5000         7.2705        80.1145        62.3542         9.9264         4.8794        82.4149
    3792.47400         8.5000         7.2514        80.1414        62.2373         9.8220         5.0098        78.9634
    3792.62640         8.5000         7.2731        80.7237        62.5375         9.8356         5.1371        75.8722
    3792.77880         8.5000         7.3031        81.4203        62.9234         9.8735         5.2638        72.8551
    3792.93120         8.5000         7.3332        82.1168        63.3094         9.9114         5.3906        69.8380
    3793.08360         8.5000         7.3489        81.3974        63.8694         9.9701         5.5786        68.3585
    3793.23600         8.5000         7.3527        79.5126        64.5728        10.0459         5.8171        68.1445
    3793.38840         8.5000         7.3565        77.6279        65.2762        10.1217         6.0556        67.9305
    3793.54080         8.5000         7.3551        75.7419        65.9964        10.2174         6.3465        67.8020
    3793.69320         8.5000         7.3394        73.8525        66.7629        10.3677         6.7804        67.9073
    3793.84560         8.5000         7.3238        71.9631        67.5293        10.5180         7.2144        68.0126
    3793.99800         8.5000         7.3081        70.0737        68.2958        10.6683         7.6484        68.1180
    3794.15040         8.5000         7.3037        69.1462        68.8601        10.7804         8.1897        68.2280
