~Version Information Block
VERS .                 2.00:  CWLS LOG ASCII STANDARD - VERSION 2.00
WRAP .                   NO:  One line per depth step
~Well Information Block
#MNEM.UNIT        Data Type   Information
#---------- ----------------  -----------
STRT .M             6.09600:  START DEPTH
STOP .M          3796.43640:  STOP DEPTH
STEP .M             0.15240:  STEP
NULL .              -999.25:  NULL VALUE
COMP .                     :  COMPANY
WELL .             Kapuni-3:  WELL
FLD  .                     :  FIELD
LOC  .                     :  LOCATION
CTRY .                     :  COUNTRY
STAT .                     :  STATE
CNTY .                     :  COUNTY
SRVC .     Shell BP & Todd Oil Services Ltd:  SERVICE COMPANY
DATE .                     :  DATE
API  .                     :  API NUMBER
UWI  .         100000502146:  UNIQUE WELL ID
LATI .          -39.5051918:  LATITUDE
LONG .          174.1760385:  LONGITUDE
~Curve Information Block
#MNEM.UNIT         API CODE   Curve Description
#---------- ----------------  -----------------
DEPTH.M                    :  
BS   .IN                   :  Bit Size (Created in Geolog)
CALI .IN                   :  (CALI)
DTC  .US/F                 :  (DT)
GR   .GAPI                 :  (GR)
RESD .OHMM                 :  Long normal (ES) (RES_DEP)
RESM .OHMM                 :  I6FR (IES) (RES_MED)
SP   .MV                   :  SP-10 (SP)
~Parameter Information Block
#MNEM.UNIT            Value   Description
#---------- ----------------  -----------
CUR_INT_BOT.M              3796.5:  Current interpolated bottom
PROJECT.     New Zealand Log QC Project:  
SET  .     A0_FINAL_INTER_REF_D:  
ELEVATION_AMSL.M              136.86:  Elevation above mean sea level
ELEVATION_REF.                   DF:  Measurement reference
FORMATION_AT_TD.         Kapuni Group:  Formation at TD
GL_ELEVATION_AMSL.M            131.1000:  Ground level elevation above mean sea level
LICENCE_NUMBER.             PML38839:  Licence number
ONSHORE_OR_OFFSHORE.              Onshore:  Onshore/offshore
PR_NUMBER.                PR465:  Petroleum report number
SPUD_DATE.           21/04/1962:  Spud date
STATUS_AT_COMPLETION.     Tested and completed as a potential producer:  Status at completion
TD_DATE.           24/06/1962:  Total depth date
TOTAL_DEPTH_DRILLED.M              3796.9:  Total depth drilled
~Other Information Block
# 
~A       DEPTH             BS           CALI            DTC             GR           RESD           RESM             SP 
# ...
    2660.90400        12.2500      -999.2500        79.2871      -999.2500         3.6957      -999.2500        88.1924
    2661.05640        12.2500      -999.2500        79.2537      -999.2500         3.7130      -999.2500        88.3221
    2661.20880        12.2500      -999.2500        79.5555      -999.2500         3.7515      -999.2500        88.3309
    2661.36120        12.2500      -999.2500        79.8572      -999.2500         3.7899      -999.2500        88.3396
    2661.51360        12.2500      -999.2500        80.0958      -999.2500         3.8285      -999.2500        88.3712
    2661.66600        12.2500      -999.2500        79.6905      -999.2500         3.8696      -999.2500        88.6355
    2661.81840        12.2500      -999.2500        79.2851      -999.2500         3.9107      -999.2500        88.8997
    2661.97080        12.2500      -999.2500        78.8797      -999.2500         3.9517      -999.2500        89.1640
    2662.12320        12.2500      -999.2500        79.5583      -999.2500         4.0144      -999.2500        89.2469
    2662.27560        12.2500      -999.2500        80.4939      -999.2500         4.0822      -999.2500        89.2868
    2662.42800        12.2500      -999.2500        81.4294      -999.2500         4.1500      -999.2500        89.3267
    2662.58040        12.2500      -999.2500        81.8094      -999.2500         4.2165      -999.2500        89.2335
    2662.73280        12.2500      -999.2500        81.6917      -999.2500         4.2816      -999.2500        89.0211
    2662.88520        12.2500      -999.2500        81.5740      -999.2500         4.3468      -999.2500        88.8087
    2663.03760        12.2500      -999.2500        81.1454      -999.2500         4.4030      -999.2500        88.5598
    2663.19000        12.2500      -999.2500        79.7677      -999.2500         4.4317      -999.2500        88.1996
    2663.34240        12.2500      -999.2500        78.3900      -999.2500         4.4603      -999.2500        87.8394
    2663.49480        12.2500      -999.2500        77.0122      -999.2500         4.4890      -999.2500        87.4792
    2663.64720        12.2500      -999.2500        78.2887      -999.2500         4.4873      -999.2500        87.4641
    2663.79960        12.2500      -999.2500        79.6590      -999.2500         4.4846      -999.2500        87.4612
    2663.95200        12.2500      -999.2500        81.0292      -999.2500         4.4818      -999.2500        87.4583
    2664.10440        12.2500      -999.2500        81.4559      -999.2500         4.4572      -999.2500        87.6441
    2664.25680        12.2500      -999.2500        81.4487      -999.2500         4.4226      -999.2500        87.9168
    2664.40920        12.2500      -999.2500        81.4415      -999.2500         4.3880      -999.2500        88.1895
    2664.56160        12.2500      -999.2500        81.1214      -999.2500         4.3410      -999.2500        88.4197
    2664.71400        12.2500      -999.2500        80.3400      -999.2500         4.2756      -999.2500        88.5871
    2664.86640        12.2500      -999.2500        79.5586      -999.2500         4.2103      -999.2500        88.7546
    2665.01880        12.2500      -999.2500        78.9446      -999.2500         4.1487      -999.2500        88.8681
    2665.17120        12.2500      -999.2500        79.5199      -999.2500         4.1139      -999.2500        88.5980
    2665.32360        12.2500      -999.2500        80.0953      -999.2500         4.0790      -999.2500        88.3279
    2665.47600        12.2500      -999.2500        80.6706      -999.2500         4.0442      -999.2500        88.0579
    2665.62840        12.2500      -999.2500        79.9039      -999.2500         4.0105      -999.2500        88.1531
    2665.78080        12.2500      -999.2500        78.8864      -999.2500         3.9769      -999.2500        88.3166
    2665.93320        12.2500      -999.2500        77.8689      -999.2500         3.9434      -999.2500        88.4801
    2666.08560        12.2500      -999.2500        77.9560      -999.2500         3.8900      -999.2500        88.4113
    2666.23800        12.2500      -999.2500        78.9053      -999.2500         3.8210      -999.2500        88.1613
    2666.39040        12.2500      -999.2500        79.8546      -999.2500         3.7520      -999.2500        87.9113
    2666.54280        12.2500      -999.2500        80.5506      -999.2500         3.7117      -999.2500        87.7299
    2666.69520        12.2500      -999.2500        80.5980      -999.2500         3.7451      -999.2500        87.7241
    2666.84760        12.2500      -999.2500        80.6453      -999.2500         3.7786      -999.2500        87.7183
    2667.00000        12.2500      -999.2500        80.6927      -999.2500         3.8120      -999.2500        87.7125
    2667.15240        12.2500      -999.2500        80.3890      -999.2500         3.7815      -999.2500        87.7131
    2667.30480        12.2500      -999.2500        80.0853      -999.2500         3.7510      -999.2500        87.7136
    2667.45720        12.2500      -999.2500        79.7816      -999.2500         3.7206      -999.2500        87.7142
    2667.60960        12.2500      -999.2500        80.0603      -999.2500         3.7226      -999.2500        87.6804
    2667.76200        12.2500      -999.2500        80.5664      -999.2500         3.7374      -999.2500        87.6332
    2667.91440        12.2500      -999.2500        81.0726      -999.2500         3.7521      -999.2500        87.5860
    2668.06680        12.2500      -999.2500        81.4215      -999.2500         3.7581      -999.2500        87.6134
    2668.21920        12.2500      -999.2500        81.5689      -999.2500         3.7527      -999.2500        87.7365
    2668.37160        12.2500      -999.2500        81.7163      -999.2500         3.7473      -999.2500        87.8595
    2668.52400        12.2500      -999.2500        81.7860      -999.2500         3.7330      -999.2500        87.9555
    2668.67640        12.2500      -999.2500        81.4403      -999.2500         3.6716      -999.2500        87.9073
    2668.82880        12.2500      -999.2500        81.0946      -999.2500         3.6101      -999.2500        87.8590
    2668.98120        12.2500      -999.2500        80.7488      -999.2500         3.5487      -999.2500        87.8108
    2669.13360        12.2500      -999.2500        80.8003      -999.2500         3.5350      -999.2500        87.9339
    2669.28600        12.2500      -999.2500        80.9076      -999.2500         3.5280      -999.2500        88.0812
    2669.43840        12.2500      -999.2500        81.0150      -999.2500         3.5210      -999.2500        88.2285
    2669.59080        12.2500      -999.2500        81.6866      -999.2500         3.4990      -999.2500        88.1506
    2669.74320        12.2500      -999.2500        82.7409      -999.2500         3.4668      -999.2500        87.9198
    2669.89560        12.2500      -999.2500        83.7953      -999.2500         3.4346      -999.2500        87.6891
    2670.04800        12.2500      -999.2500        84.3567      -999.2500         3.4205      -999.2500        87.4664
    2670.20040        12.2500      -999.2500        83.8457      -999.2500         3.4457      -999.2500        87.2610
    2670.35280        12.2500      -999.2500        83.3348      -999.2500         3.4709      -999.2500        87.0557
    2670.50520        12.2500      -999.2500        82.7822      -999.2500         3.4958      -999.2500        86.8581
    2670.65760        12.2500      -999.2500        81.0491      -999.2500         3.5097      -999.2500        86.8796
    2670.81000        12.2500      -999.2500        79.3161      -999.2500         3.5237      -999.2500        86.9011
    2670.96240        12.2500      -999.2500        77.5831      -999.2500         3.5376      -999.2500        86.9226
