~Version Information Block
VERS .                 2.00:  CWLS LOG ASCII STANDARD - VERSION 2.00
WRAP .                   NO:  One line per depth step
~Well Information Block
#MNEM.UNIT        Data Type   Information
#---------- ----------------  -----------
STRT .M             0.00000:  START DEPTH
STOP .M          3900.98280:  STOP DEPTH
STEP .M             0.15240:  STEP
NULL .              -999.25:  NULL VALUE
COMP .                     :  COMPANY
WELL .             Kapuni-4:  WELL
FLD  .                     :  FIELD
LOC  .                     :  LOCATION
CTRY .                     :  COUNTRY
STAT .                     :  STATE
CNTY .                     :  COUNTY
SRVC .     Shell BP & Todd Oil Services Ltd:  SERVICE COMPANY
DATE .                     :  DATE
API  .                     :  API NUMBER
UWI  .         100000021909:  UNIQUE WELL ID
LATI .           -39.450469:  LATITUDE
LONG .           174.172705:  LONGITUDE
~Curve Information Block
#MNEM.UNIT         API CODE   Curve Description
#---------- ----------------  -----------------
DEPTH.M                    :  
BS   .IN                   :  (BS)
CALI .IN                   :  (CALI)
DTC  .US/F                 :  (DT)
GR   .GAPI                 :  (GR)
RESD .OHMM                 :  LN (RES_DEP)
RESM .OHMM                 :  I5FR_01r (RES_MED)
SP   .MV                   :  SP+150 (SP)
~Parameter Information Block
#MNEM.UNIT            Value   Description
#---------- ----------------  -----------
CUR_INT_BOT.M                3901:  Current interpolated bottom
PROJECT.     New Zealand Log QC Project:  
SET  .     A0_FINAL_INTER_REF_D:  
ELEVATION_AMSL.M              232.56:  Elevation above mean sea level
ELEVATION_REF.                   DF:  Measurement reference
FORMATION_AT_TD.         Kapuni Group:  Formation at TD
GL_ELEVATION_AMSL.M            226.5000:  Ground level elevation above mean sea level
LICENCE_NUMBER.             PML38839:  Licence number
ONSHORE_OR_OFFSHORE.              Onshore:  Onshore/offshore
PR_NUMBER.                PR466:  Petroleum report number
SPUD_DATE.           20/08/1962:  Spud date
STATUS_AT_COMPLETION.     Completed as a future production well:  Status at completion
TD_DATE.           26/10/1962:  Total depth date
TOTAL_DEPTH_DRILLED.M             3901.44:  Total depth drilled
~Other Information Block
# 
~A       DEPTH             BS           CALI            DTC             GR           RESD           RESM             SP 
# ...
    2113.63560        12.2500      -999.2500        78.9852      -999.2500        14.6740      -999.2500        -6.7291
    2113.78800        12.2500      -999.2500        79.1226      -999.2500        14.9848      -999.2500        -7.4621
    2113.94040        12.2500      -999.2500        79.2600      -999.2500        15.2957      -999.2500        -8.1950
    2114.09280        12.2500      -999.2500        79.1657      -999.2500        15.6461      -999.2500        -8.5460
    2114.24520        12.2500      -999.2500        78.9227      -999.2500        16.0219      -999.2500        -8.6516
    2114.39760        12.2500      -999.2500        78.6796      -999.2500        16.3976      -999.2500        -8.7572
    2114.55000        12.2500      -999.2500        78.4988      -999.2500        16.6342      -999.2500        -9.0505
    2114.70240        12.2500      -999.2500        78.4454      -999.2500        16.5857      -999.2500        -9.7280
    2114.85480        12.2500      -999.2500        78.3920      -999.2500        16.5372      -999.2500       -10.4055
    2115.00720        12.2500      -999.2500        78.3448      -999.2500        16.5163      -999.2500       -11.0943
    2115.15960        12.2500      -999.2500        78.4233      -999.2500        17.0526      -999.2500       -12.0126
    2115.31200        12.2500      -999.2500        78.5018      -999.2500        17.5889      -999.2500       -12.9309
    2115.46440        12.2500      -999.2500        78.5803      -999.2500        18.1252      -999.2500       -13.8492
    2115.61680        12.2500      -999.2500        77.9965      -999.2500        17.9129      -999.2500       -14.7340
    2115.76920        12.2500      -999.2500        77.2108      -999.2500        17.4723      -999.2500       -15.6087
    2115.92160        12.2500      -999.2500        76.4252      -999.2500        17.0318      -999.2500       -16.4833
    2116.07400        12.2500      -999.2500        76.2440      -999.2500        16.9404      -999.2500       -16.9651
    2116.22640        12.2500      -999.2500        76.7032      -999.2500        17.2190      -999.2500       -17.0308
    2116.37880        12.2500      -999.2500        77.1623      -999.2500        17.4976      -999.2500       -17.0965
    2116.53120        12.2500      -999.2500        77.5700      -999.2500        17.6699      -999.2500       -17.0169
    2116.68360        12.2500      -999.2500        77.7776      -999.2500        17.4297      -999.2500       -16.3730
    2116.83600        12.2500      -999.2500        77.9852      -999.2500        17.1894      -999.2500       -15.7291
    2116.98840        12.2500      -999.2500        78.1927      -999.2500        16.9492      -999.2500       -15.0852
    2117.14080        12.2500      -999.2500        78.4464      -999.2500        16.7909      -999.2500       -14.3079
    2117.29320        12.2500      -999.2500        78.7039      -999.2500        16.6393      -999.2500       -13.5196
    2117.44560        12.2500      -999.2500        78.9614      -999.2500        16.4877      -999.2500       -12.7314
    2117.59800        12.2500      -999.2500        79.0261      -999.2500        16.4152      -999.2500       -12.9912
    2117.75040        12.2500      -999.2500        78.9837      -999.2500        16.3867      -999.2500       -13.8327
    2117.90280        12.2500      -999.2500        78.9413      -999.2500        16.3582      -999.2500       -14.6743
    2118.05520        12.2500      -999.2500        78.6601      -999.2500        16.3716      -999.2500       -15.4149
    2118.20760        12.2500      -999.2500        77.9582      -999.2500        16.4590      -999.2500       -15.9779
    2118.36000        12.2500      -999.2500        77.2563      -999.2500        16.5464      -999.2500       -16.5408
    2118.51240        12.2500      -999.2500        76.6414      -999.2500        16.6317      -999.2500       -17.0801
    2118.66480        12.2500      -999.2500        77.0085      -999.2500        16.6930      -999.2500       -17.3526
    2118.81720        12.2500      -999.2500        77.3755      -999.2500        16.7543      -999.2500       -17.6252
    2118.96960        12.2500      -999.2500        77.7425      -999.2500        16.8156      -999.2500       -17.8977
    2119.12200        12.2500      -999.2500        78.6993      -999.2500        16.8201      -999.2500       -18.0928
    2119.27440        12.2500      -999.2500        79.8030      -999.2500        16.8105      -999.2500       -18.2686
    2119.42680        12.2500      -999.2500        80.9067      -999.2500        16.8009      -999.2500       -18.4444
    2119.57920        12.2500      -999.2500        81.2597      -999.2500        16.7546      -999.2500       -18.3764
    2119.73160        12.2500      -999.2500        80.9188      -999.2500        16.6744      -999.2500       -18.0829
    2119.88400        12.2500      -999.2500        80.5779      -999.2500        16.5943      -999.2500       -17.7895
    2120.03640        12.2500      -999.2500        80.2067      -999.2500        16.4549      -999.2500       -17.5637
    2120.18880        12.2500      -999.2500        79.7391      -999.2500        16.1267      -999.2500       -17.5535
    2120.34120        12.2500      -999.2500        79.2715      -999.2500        15.7985      -999.2500       -17.5432
    2120.49360        12.2500      -999.2500        78.8040      -999.2500        15.4703      -999.2500       -17.5329
    2120.64600        12.2500      -999.2500        78.7709      -999.2500        15.3420      -999.2500       -16.7602
    2120.79840        12.2500      -999.2500        78.7569      -999.2500        15.2224      -999.2500       -15.9541
    2120.95080        12.2500      -999.2500        78.7429      -999.2500        15.1028      -999.2500       -15.1479
    2121.10320        12.2500      -999.2500        79.2261      -999.2500        14.9666      -999.2500       -14.3394
    2121.25560        12.2500      -999.2500        79.9464      -999.2500        14.8225      -999.2500       -13.5296
    2121.40800        12.2500      -999.2500        80.6666      -999.2500        14.6785      -999.2500       -12.7199
    2121.56040        12.2500      -999.2500        81.1381      -999.2500        14.5454      -999.2500       -12.2592
    2121.71280        12.2500      -999.2500        81.2304      -999.2500        14.4291      -999.2500       -12.3302
    2121.86520        12.2500      -999.2500        81.3228      -999.2500        14.3128      -999.2500       -12.4011
    2122.01760        12.2500      -999.2500        81.3472      -999.2500        14.2087      -999.2500       -12.5162
    2122.17000        12.2500      -999.2500        80.8506      -999.2500        14.1975      -999.2500       -12.9690
    2122.32240        12.2500      -999.2500        80.3540      -999.2500        14.1864      -999.2500       -13.4218
    2122.47480        12.2500      -999.2500        79.8575      -999.2500        14.1752      -999.2500       -13.8745
    2122.62720        12.2500      -999.2500        78.5485      -999.2500        14.2057      -999.2500       -14.0865
    2122.77960        12.2500      -999.2500        77.0786      -999.2500        14.2444      -999.2500       -14.2508
    2122.93200        12.2500      -999.2500        75.6087      -999.2500        14.2832      -999.2500       -14.4151
    2123.08440        12.2500      -999.2500        74.3718      -999.2500        14.4030      -999.2500       -14.1457
    2123.23680        12.2500      -999.2500        73.3227      -999.2500        14.5883      -999.2500       -13.5269
    2123.38920        12.2500      -999.2500        72.2736      -999.2500        14.7735      -999.2500       -12.9081
    2123.54160        12.2500      -999.2500        71.6350      -999.2500        14.8892      -999.2500       -12.1519
    2123.69400        12.2500      -999.2500        72.0894      -999.2500        14.8198      -999.2500       -11.0298
