~Version Information Block
VERS .                 2.00:  CWLS LOG ASCII STANDARD - VERSION 2.00
WRAP .                   NO:  One line per depth step
~Well Information Block
#MNEM.UNIT        Data Type   Information
#---------- ----------------  -----------
STRT .M             5.63880:  START DEPTH
STOP .M          4194.35280:  STOP DEPTH
STEP .M             0.15240:  STEP
NULL .              -999.25:  NULL VALUE
COMP .                     :  COMPANY
WELL .             Kapuni-2:  WELL
FLD  .                     :  FIELD
LOC  .                     :  LOCATION
CTRY .                     :  COUNTRY
STAT .                     :  STATE
CNTY .                     :  COUNTY
SRVC .     Shell BP & Todd Oil Services Ltd:  SERVICE COMPANY
DATE .                     :  DATE
API  .                     :  API NUMBER
UWI  .         100000021910:  UNIQUE WELL ID
LATI .          -39.4921223:  LATITUDE
LONG .          174.1702607:  LONGITUDE
~Curve Information Block
#MNEM.UNIT         API CODE   Curve Description
#---------- ----------------  -----------------
DEPTH.M                    :  
BS   .IN                   :  Bit Size (Created in Geolog)
CALI .IN                   :  Normalised log, not for display purpose (CALI)
DTC  .US/F                 :  splice of bcsl & bcsl_01r (DT)
GR   .GAPI                 :  (GR)
RESD .OHMM                 :  ln_e (RES_DEP)
RESM .OHMM                 :  i5fr_00j (RES_MED)
SP   .MV                   :  SP_E+130, K1 & K2 bit + 100 (SP)
~Parameter Information Block
#MNEM.UNIT            Value   Description
#---------- ----------------  -----------
CUR_INT_BOT.M              4194.5:  Current interpolated bottom
PROJECT.     New Zealand Log QC Project:  
SET  .     A0_FINAL_INTER_REF_D:  
ELEVATION_AMSL.M               157.3:  Elevation above mean sea level
ELEVATION_REF.                   DF:  Measurement reference
FORMATION_AT_TD.           Mangaotaki:  Formation at TD
GL_ELEVATION_AMSL.M            152.1000:  Ground level elevation above mean sea level
LICENCE_NUMBER.             PML38839:  Licence number
ONSHORE_OR_OFFSHORE.              Onshore:  Onshore/offshore
PR_NUMBER.                PR464:  Petroleum report number
SPUD_DATE.           09/11/1961:  Spud date
STATUS_AT_COMPLETION.            Completed:  Status at completion
TD_DATE.           27/01/1962:  Total depth date
TOTAL_DEPTH_DRILLED.M             4194.66:  Total depth drilled
~Other Information Block
# 
~A       DEPTH             BS           CALI            DTC             GR           RESD           RESM             SP 
# ...
    3068.87880        12.2500        10.5925        87.3806      -999.2500         2.0100         2.6187        41.8310
    3069.03120        12.2500        10.5502        85.3930      -999.2500         2.0100         2.6281        41.8534
    3069.18360        12.2500        10.3757        87.1376      -999.2500         2.0100         2.6290        41.8218
    3069.33600        12.2500        10.2012        88.8822      -999.2500         2.0100         2.6298        41.7901
    3069.48840        12.2500        10.0267        90.6268      -999.2500         2.0100         2.6307        41.7585
    3069.64080        12.2500         9.8464        88.3706      -999.2500         2.0110         2.6430        41.7193
    3069.79320        12.2500         9.6656        85.7847      -999.2500         2.0121         2.6563        41.6796
    3069.94560        12.2500         9.4849        83.1989      -999.2500         2.0132         2.6695        41.6398
    3070.09800        12.2500         9.5108        83.4143      -999.2500         2.0232         2.6831        41.6166
    3070.25040        12.2500         9.6515        85.1846      -999.2500         2.0382         2.6967        41.6027
    3070.40280        12.2500         9.7922        86.9549      -999.2500         2.0531         2.7104        41.5887
    3070.55520        12.2500         9.8947        88.0692      -999.2500         2.0749         2.7342        41.5798
    3070.70760        12.2500         9.9300        88.0284      -999.2500         2.1085         2.7759        41.5798
    3070.86000        12.2500         9.9654        87.9876      -999.2500         2.1422         2.8176        41.5798
    3071.01240        12.2500         9.9900        87.7347      -999.2500         2.1796         2.8600        41.5809
    3071.16480        12.2500         9.8946        85.0887      -999.2500         2.2591         2.9107        41.5943
    3071.31720        12.2500         9.7992        82.4427      -999.2500         2.3386         2.9613        41.6078
    3071.46960        12.2500         9.7038        79.7966      -999.2500         2.4181         3.0119        41.6212
    3071.62200        12.2500         9.8165        80.2531      -999.2500         2.4390         3.0578        41.6640
    3071.77440        12.2500         9.9810        81.4827      -999.2500         2.4454         3.1026        41.7141
    3071.92680        12.2500        10.1455        82.7122      -999.2500         2.4517         3.1473        41.7642
    3072.07920        12.2500        10.2393        84.3653      -999.2500         2.4689         3.2016        41.8171
    3072.23160        12.2500        10.2676        86.4097      -999.2500         2.4962         3.2646        41.8726
    3072.38400        12.2500        10.2958        88.4542      -999.2500         2.5234         3.3277        41.9281
    3072.53640        12.2500        10.3373        89.7160      -999.2500         2.5593         3.3770        42.0059
    3072.68880        12.2500        10.4208        88.4834      -999.2500         2.6228         3.3823        42.1549
    3072.84120        12.2500        10.5043        87.2509      -999.2500         2.6862         3.3877        42.3038
    3072.99360        12.2500        10.5877        86.0184      -999.2500         2.7497         3.3931        42.4528
    3073.14600        12.2500        10.5961        86.5090      -999.2500         2.7944         3.4525        42.5819
    3073.29840        12.2500        10.6012        87.0751      -999.2500         2.8383         3.5142        42.7102
    3073.45080        12.2500        10.6062        87.6412      -999.2500         2.8823         3.5759        42.8385
    3073.60320        12.2500        10.6388        87.3503      -999.2500         2.9110         3.7009        42.8923
    3073.75560        12.2500        10.6844        86.6509      -999.2500         2.9325         3.8561        42.9106
    3073.90800        12.2500        10.7300        85.9515      -999.2500         2.9541         4.0112        42.9289
    3074.06040        12.2500        10.7592        86.3236      -999.2500         2.8838         4.2135        42.9399
    3074.21280        12.2500        10.7634        88.3278      -999.2500         2.6737         4.4876        42.9399
    3074.36520        12.2500        10.7675        90.3321      -999.2500         2.4636         4.7617        42.9399
    3074.51760        12.2500        10.7713        90.7409      -999.2500         2.2683         5.0005        42.9399
    3074.67000        12.2500        10.7724        78.9308      -999.2500         2.1867         4.9683        42.9399
    3074.82240        12.2500        10.7734        67.1206      -999.2500         2.1051         4.9360        42.9399
    3074.97480        12.2500        10.7745        55.3104      -999.2500         2.0235         4.9038        42.9399
    3075.12720        12.2500        10.7901        59.4493      -999.2500         2.0292         4.7869        42.9399
    3075.27960        12.2500        10.8087        66.7480      -999.2500         2.0522         4.6532        42.9399
    3075.43200        12.2500        10.8273        74.0466      -999.2500         2.0753         4.5195        42.9399
    3075.58440        12.2500        10.7612        78.9864      -999.2500         2.0906         4.3899        42.9804
    3075.73680        12.2500        10.6270        82.0257      -999.2500         2.0998         4.2636        43.0536
    3075.88920        12.2500        10.4927        85.0651      -999.2500         2.1090         4.1373        43.1267
    3076.04160        12.2500        10.3964        86.7353      -999.2500         2.1377         3.9992        43.1849
    3076.19400        12.2500        10.4011        84.7588      -999.2500         2.2184         3.8296        43.2032
    3076.34640        12.2500        10.4059        82.7824      -999.2500         2.2990         3.6599        43.2215
    3076.49880        12.2500        10.4107        80.8059      -999.2500         2.3797         3.4903        43.2398
    3076.65120        12.2500        10.4280        81.6024      -999.2500         2.4571         3.4080        43.2400
    3076.80360        12.2500        10.4454        82.4208      -999.2500         2.5344         3.3265        43.2400
    3076.95600        12.2500        10.4628        83.2393      -999.2500         2.6118         3.2449        43.2400
    3077.10840        12.2500        10.4622        84.5612      -999.2500         2.6571         3.2102        43.2388
    3077.26080        12.2500        10.4544        86.0876      -999.2500         2.6894         3.1946        43.2370
    3077.41320        12.2500        10.4466        87.6139      -999.2500         2.7216         3.1789        43.2353
    3077.56560        12.2500        10.4479        88.5146      -999.2500         2.7439         3.1739        43.2186
    3077.71800        12.2500        10.4613        88.5877      -999.2500         2.7531         3.1831        43.1820
    3077.87040        12.2500        10.4747        88.6607      -999.2500         2.7622         3.1922        43.1454
    3078.02280        12.2500        10.4851        87.9422      -999.2500         2.7667         3.2002        43.1086
    3078.17520        12.2500        10.4780        82.7244      -999.2500         2.7445         3.2014        43.0701
    3078.32760        12.2500        10.4709        77.5066      -999.2500         2.7224         3.2026        43.0316
    3078.48000        12.2500        10.4638        72.2888      -999.2500         2.7003         3.2038        42.9931
    3078.63240        12.2500        10.5205        76.3399      -999.2500         2.6779         3.2135        42.9004
    3078.78480        12.2500        10.5868        81.7911      -999.2500         2.6555         3.2245        42.7995
    3078.93720        12.2500        10.6531        87.2423      -999.2500         2.6330         3.2355        42.6985
