~Version Information Block
VERS .                 2.00:  CWLS LOG ASCII STANDARD - VERSION 2.00
WRAP .                   NO:  One line per depth step
~Well Information Block
#MNEM.UNIT        Data Type   Information
#---------- ----------------  -----------
STRT .M             5.63880:  START DEPTH
STOP .M          4194.35280:  STOP DEPTH
STEP .M             0.15240:  STEP
NULL .              -999.25:  NULL VALUE
COMP .                     :  COMPANY
WELL .             Kapuni-2:  WELL
FLD  .                     :  FIELD
LOC  .                     :  LOCATION
CTRY .                     :  COUNTRY
STAT .                     :  STATE
CNTY .                     :  COUNTY
SRVC .     Shell BP & Todd Oil Services Ltd:  SERVICE COMPANY
DATE .                     :  DATE
API  .                     :  API NUMBER
UWI  .         100000021910:  UNIQUE WELL ID
LATI .          -39.4921223:  LATITUDE
LONG .          174.1702607:  LONGITUDE
~Curve Information Block
#MNEM.UNIT         API CODE   Curve Description
#---------- ----------------  -----------------
DEPTH.M                    :  
BS   .IN                   :  Bit Size (Created in Geolog)
CALI .IN                   :  Normalised log, not for display purpose (CALI)
DTC  .US/F                 :  splice of bcsl & bcsl_01r (DT)
GR   .GAPI                 :  (GR)
RESD .OHMM                 :  ln_e (RES_DEP)
RESM .OHMM                 :  i5fr_00j (RES_MED)
SP   .MV                   :  SP_E+130, K1 & K2 bit + 100 (SP)
~Parameter Information Block
#MNEM.UNIT            Value   Description
#---------- ----------------  -----------
CUR_INT_BOT.M              4194.5:  Current interpolated bottom
PROJECT.     New Zealand Log QC Project:  
SET  .     A0_FINAL_INTER_REF_D:  
ELEVATION_AMSL.M               157.3:  Elevation above mean sea level
ELEVATION_REF.                   DF:  Measurement reference
FORMATION_AT_TD.           Mangaotaki:  Formation at TD
GL_ELEVATION_AMSL.M            152.1000:  Ground level elevation above mean sea level
LICENCE_NUMBER.             PML38839:  Licence number
ONSHORE_OR_OFFSHORE.              Onshore:  Onshore/offshore
PR_NUMBER.                PR464:  Petroleum report number
SPUD_DATE.           09/11/1961:  Spud date
STATUS_AT_COMPLETION.            Completed:  Status at completion
TD_DATE.           27/01/1962:  Total depth date
TOTAL_DEPTH_DRILLED.M             4194.66:  Total depth drilled
~Other Information Block
# 
~A       DEPTH             BS           CALI            DTC             GR           RESD           RESM             SP 
# ...
    1281.98880        17.5000        13.6554       107.7014      -999.2500        53.3639      -999.2500        83.5061
    1282.14120        17.5000        13.6714       101.8618      -999.2500        52.3998      -999.2500        83.4599
    1282.29360        17.5000        13.6894        95.5769      -999.2500        51.4052      -999.2500        83.3951
    1282.44600        17.5000        13.7074        89.2920      -999.2500        50.4105      -999.2500        83.3303
    1282.59840        17.5000        13.7245        86.5928      -999.2500        49.6672      -999.2500        83.0567
    1282.75080        17.5000        13.7412        85.8613      -999.2500        49.0618      -999.2500        82.6685
    1282.90320        17.5000        13.7579        85.1299      -999.2500        48.4565      -999.2500        82.2803
    1283.05560        17.5000        13.7514        85.8478      -999.2500        48.2687      -999.2500        81.6719
    1283.20800        17.5000        13.7048        89.0890      -999.2500        48.8078      -999.2500        80.6804
    1283.36040        17.5000        13.6581        92.3302      -999.2500        49.3470      -999.2500        79.6888
    1283.51280        17.5000        13.6116        95.6189      -999.2500        49.8685      -999.2500        78.7709
    1283.66520        17.5000        13.5666        99.4258      -999.2500        50.1972      -999.2500        78.6561
    1283.81760        17.5000        13.5216       103.2328      -999.2500        50.5260      -999.2500        78.5414
    1283.97000        17.5000        13.4766       107.0398      -999.2500        50.8547      -999.2500        78.4266
    1284.12240        17.5000        13.4593       107.1992      -999.2500        50.6100      -999.2500        78.3754
    1284.27480        17.5000        13.4487       106.4647      -999.2500        50.2247      -999.2500        78.3397
    1284.42720        17.5000        13.4382       105.7301      -999.2500        49.8394      -999.2500        78.3040
    1284.57960        17.5000        13.4257       103.5445      -999.2500        49.3686      -999.2500        78.2759
    1284.73200        17.5000        13.4113       100.0317      -999.2500        48.8195      -999.2500        78.2546
    1284.88440        17.5000        13.3970        96.5189      -999.2500        48.2704      -999.2500        78.2333
    1285.03680        17.5000        13.3881        94.3092      -999.2500        47.8094      -999.2500        78.1610
    1285.18920        17.5000        13.3961        96.1925      -999.2500        47.6248      -999.2500        77.9285
    1285.34160        17.5000        13.4040        98.0758      -999.2500        47.4403      -999.2500        77.6959
    1285.49400        17.5000        13.4120        99.9592      -999.2500        47.2557      -999.2500        77.4633
    1285.64640        17.5000        13.4370       101.8507      -999.2500        47.3237      -999.2500        77.1967
    1285.79880        17.5000        13.4627       103.7425      -999.2500        47.4019      -999.2500        76.9286
    1285.95120        17.5000        13.4884       105.6343      -999.2500        47.4802      -999.2500        76.6606
    1286.10360        17.5000        13.4993       106.7915      -999.2500        47.6349      -999.2500        76.5410
    1286.25600        17.5000        13.5033       107.6025      -999.2500        47.8256      -999.2500        76.4913
    1286.40840        17.5000        13.5072       108.4136      -999.2500        48.0163      -999.2500        76.4416
    1286.56080        17.5000        13.5013       108.8726      -999.2500        48.1104      -999.2500        76.3068
    1286.71320        17.5000        13.4804       108.8013      -999.2500        48.0591      -999.2500        76.0435
    1286.86560        17.5000        13.4596       108.7301      -999.2500        48.0077      -999.2500        75.7803
    1287.01800        17.5000        13.4401       108.6294      -999.2500        47.9529      -999.2500        75.5556
    1287.17040        17.5000        13.4299       108.3097      -999.2500        47.8727      -999.2500        75.6183
    1287.32280        17.5000        13.4198       107.9899      -999.2500        47.7925      -999.2500        75.6810
    1287.47520        17.5000        13.4096       107.6701      -999.2500        47.7124      -999.2500        75.7437
    1287.62760        17.5000        13.3611       107.4943      -999.2500        47.4987      -999.2500        75.9363
    1287.78000        17.5000        13.3050       107.3465      -999.2500        47.2592      -999.2500        76.1543
    1287.93240        17.5000        13.2490       107.1987      -999.2500        47.0196      -999.2500        76.3722
    1288.08480        17.5000        13.2670       107.4280      -999.2500        46.8181      -999.2500        76.4504
    1288.23720        17.5000        13.3440       107.9579      -999.2500        46.6471      -999.2500        76.4172
    1288.38960        17.5000        13.4209       108.4879      -999.2500        46.4761      -999.2500        76.3840
    1288.54200        17.5000        13.4936       109.0985      -999.2500        46.1836      -999.2500        76.3548
    1288.69440        17.5000        13.5552       109.9211      -999.2500        45.5716      -999.2500        76.3360
    1288.84680        17.5000        13.6167       110.7437      -999.2500        44.9597      -999.2500        76.3172
    1288.99920        17.5000        13.6782       111.5664      -999.2500        44.3477      -999.2500        76.2984
    1289.15160        17.5000        13.7001       108.4210      -999.2500        43.5058      -999.2500        75.9202
    1289.30400        17.5000        13.7218       105.2546      -999.2500        42.6626      -999.2500        75.5401
    1289.45640        17.5000        13.7435       102.0883      -999.2500        41.8195      -999.2500        75.1600
    1289.60880        17.5000        13.7629       101.1288      -999.2500        41.2699      -999.2500        74.4898
    1289.76120        17.5000        13.7815       101.0535      -999.2500        40.8380      -999.2500        73.7033
    1289.91360        17.5000        13.8001       100.9783      -999.2500        40.4060      -999.2500        72.9169
    1290.06600        17.5000        13.8127       102.0748      -999.2500        40.1289      -999.2500        71.9077
    1290.21840        17.5000        13.8176       104.7051      -999.2500        40.0544      -999.2500        70.6071
    1290.37080        17.5000        13.8224       107.3355      -999.2500        39.9800      -999.2500        69.3065
    1290.52320        17.5000        13.8240       109.4954      -999.2500        39.9167      -999.2500        68.0965
    1290.67560        17.5000        13.8070       109.0347      -999.2500        39.9154      -999.2500        67.3906
    1290.82800        17.5000        13.7901       108.5740      -999.2500        39.9141      -999.2500        66.6848
    1290.98040        17.5000        13.7731       108.1133      -999.2500        39.9128      -999.2500        65.9789
    1291.13280        17.5000        13.7725       106.9316      -999.2500        39.9068      -999.2500        65.1400
    1291.28520        17.5000        13.7744       105.6435      -999.2500        39.9001      -999.2500        64.2814
    1291.43760        17.5000        13.7763       104.3554      -999.2500        39.8934      -999.2500        63.4228
    1291.59000        17.5000        13.7920       103.4985      -999.2500        39.8722      -999.2500        62.7717
    1291.74240        17.5000        13.8175       102.9406      -999.2500        39.8411      -999.2500        62.2646
    1291.89480        17.5000        13.8429       102.3827      -999.2500        39.8099      -999.2500        61.7575
    1292.04720        17.5000        13.8517       102.2049      -999.2500        39.7728      -999.2500        61.3025
