~Version Information Block
VERS .                 2.00:  CWLS LOG ASCII STANDARD - VERSION 2.00
WRAP .                   NO:  One line per depth step
~Well Information Block
#MNEM.UNIT        Data Type   Information
#---------- ----------------  -----------
STRT .M             6.09600:  START DEPTH
STOP .M          3796.43640:  STOP DEPTH
STEP .M             0.15240:  STEP
NULL .              -999.25:  NULL VALUE
COMP .                     :  COMPANY
WELL .             Kapuni-3:  WELL
FLD  .                     :  FIELD
LOC  .                     :  LOCATION
CTRY .                     :  COUNTRY
STAT .                     :  STATE
CNTY .                     :  COUNTY
SRVC .     Shell BP & Todd Oil Services Ltd:  SERVICE COMPANY
DATE .                     :  DATE
API  .                     :  API NUMBER
UWI  .         100000502146:  UNIQUE WELL ID
LATI .          -39.5051918:  LATITUDE
LONG .          174.1760385:  LONGITUDE
~Curve Information Block
#MNEM.UNIT         API CODE   Curve Description
#---------- ----------------  -----------------
DEPTH.M                    :  
BS   .IN                   :  Bit Size (Created in Geolog)
CALI .IN                   :  (CALI)
DTC  .US/F                 :  (DT)
GR   .GAPI                 :  (GR)
RESD .OHMM                 :  Long normal (ES) (RES_DEP)
RESM .OHMM                 :  I6FR (IES) (RES_MED)
SP   .MV                   :  SP-10 (SP)
~Parameter Information Block
#MNEM.UNIT            Value   Description
#---------- ----------------  -----------
CUR_INT_BOT.M              3796.5:  Current interpolated bottom
PROJECT.     New Zealand Log QC Project:  
SET  .     A0_FINAL_INTER_REF_D:  
ELEVATION_AMSL.M              136.86:  Elevation above mean sea level
ELEVATION_REF.                   DF:  Measurement reference
FORMATION_AT_TD.         Kapuni Group:  Formation at TD
GL_ELEVATION_AMSL.M            131.1000:  Ground level elevation above mean sea level
LICENCE_NUMBER.             PML38839:  Licence number
ONSHORE_OR_OFFSHORE.              Onshore:  Onshore/offshore
PR_NUMBER.                PR465:  Petroleum report number
SPUD_DATE.           21/04/1962:  Spud date
STATUS_AT_COMPLETION.     Tested and completed as a potential producer:  Status at completion
TD_DATE.           24/06/1962:  Total depth date
TOTAL_DEPTH_DRILLED.M              3796.9:  Total depth drilled
~Other Information Block
# 
~A       DEPTH             BS           CALI            DTC             GR           RESD           RESM             SP 
# ...
    3508.40040         8.5000         9.7171        69.0386        87.6766        24.5777        11.2651       103.1335
    3508.55280         8.5000         9.6666        69.1808        87.2356        25.1846        11.8166       103.1806
    3508.70520         8.5000         9.6614        70.3354        85.7917        25.8347        12.8456       103.3817
    3508.85760         8.5000         9.6563        71.4900        84.3477        26.4847        13.8746       103.5829
    3509.01000         8.5000         9.6512        73.0410        82.8241        27.0924        14.9009       103.7789
    3509.16240         8.5000         9.6463        80.2362        80.1667        27.0964        15.8883       103.9020
    3509.31480         8.5000         9.6415        87.4314        77.5092        27.1003        16.8758       104.0251
    3509.46720         8.5000         9.6366        94.6265        74.8518        27.1042        17.8632       104.1482
    3509.61960         8.5000         9.6313        96.9845        73.3259        26.9421        17.3761       104.2243
    3509.77200         8.5000         9.6260        98.0158        72.1104        26.7343        16.4847       104.2875
    3509.92440         8.5000         9.6206        99.0471        70.8948        26.5266        15.5932       104.3507
    3510.07680         8.5000         9.6799        95.9052        71.3227        26.2033        14.6945       104.4263
    3510.22920         8.5000         9.8030        88.6553        73.3683        25.7661        13.7885       104.5140
    3510.38160         8.5000         9.9260        81.4054        75.4139        25.3290        12.8826       104.6018
    3510.53400         8.5000        10.0299        75.4759        76.7929        25.3058        12.1598       104.6603
    3510.68640         8.5000        10.0668        74.1445        75.8509        26.7240        12.0749       104.6172
    3510.83880         8.5000        10.1038        72.8132        74.9088        28.1422        11.9900       104.5740
    3510.99120         8.5000        10.1408        71.4819        73.9667        29.5604        11.9051       104.5308
    3511.14360         8.5000        10.0261        76.4905        73.2419        29.9410        12.0821       104.4973
    3511.29600         8.5000         9.9020        81.8877        72.5304        30.2580        12.2751       104.4643
    3511.44840         8.5000         9.7780        87.2849        71.8188        30.5750        12.4681       104.4314
    3511.60080         8.5000         9.7152        88.7539        72.2675        29.9999        12.3736       104.2849
    3511.75320         8.5000         9.6838        88.2122        73.3100        28.9681        12.1319       104.0803
    3511.90560         8.5000         9.6524        87.6704        74.3525        27.9364        11.8902       103.8756
    3512.05800         8.5000         9.6398        85.2277        76.2696        26.8997        11.6060       103.5702
    3512.21040         8.5000         9.6580        79.6910        79.6100        25.8548        11.2528       103.1006
    3512.36280         8.5000         9.6762        74.1543        82.9505        24.8100        10.8996       102.6311
    3512.51520         8.5000         9.6980        69.0602        86.1638        23.9931        10.5758       102.1520
    3512.66760         8.5000         9.7526        67.9609        88.2286        25.2331        10.5183       101.5871
    3512.82000         8.5000         9.8072        66.8617        90.2934        26.4732        10.4608       101.0223
    3512.97240         8.5000         9.8618        65.7624        92.3582        27.7133        10.4033       100.4574
    3513.12480         8.5000         9.7819        67.2884        90.8440        29.0970        10.9924       100.5447
    3513.27720         8.5000         9.6722        69.3950        88.5383        30.5126        11.7245       100.7761
    3513.42960         8.5000         9.5625        71.5015        86.2327        31.9282        12.4566       101.0076
    3513.58200         8.5000         9.5071        77.2536        83.6466        32.6294        13.6030       101.3255
    3513.73440         8.5000         9.4983        86.1355        80.8199        32.7173        15.1051       101.7177
    3513.88680         8.5000         9.4896        95.0173        77.9931        32.8053        16.6072       102.1099
    3514.03920         8.5000         9.4809       103.2149        75.5127        32.6953        17.6774       102.4759
    3514.19160         8.5000         9.4724       109.4364        74.0327        32.0136        17.5004       102.7662
    3514.34400         8.5000         9.4640       115.6580        72.5526        31.3319        17.3234       103.0566
    3514.49640         8.5000         9.4555       121.8796        71.0725        30.6503        17.1465       103.3470
    3514.64880         8.5000         9.5571       115.3404        72.7730        30.2402        15.8947       103.4625
    3514.80120         8.5000         9.6613       108.4926        74.5504        29.8368        14.6170       103.5738
    3514.95360         8.5000         9.7656       101.6447        76.3278        29.4334        13.3393       103.6852
    3515.10600         8.5000         9.9896        97.6889        77.8186        30.4725        13.1364       103.3715
    3515.25840         8.5000        10.2661        94.9991        79.1840        32.1430        13.4040       102.8719
    3515.41080         8.5000        10.5426        92.3093        80.5494        33.8136        13.6716       102.3723
    3515.56320         8.5000        10.5892        91.6956        80.5879        34.7417        14.1583       102.1033
    3515.71560         8.5000        10.3114        94.0122        78.7536        34.6220        14.9543       102.1599
    3515.86800         8.5000        10.0336        96.3287        76.9193        34.5022        15.7502       102.2165
    3516.02040         8.5000         9.7949        97.4529        75.3710        34.1262        16.4531       102.2300
    3516.17280         8.5000         9.8091        90.8627        75.6734        32.0922        16.5535       101.9655
    3516.32520         8.5000         9.8232        84.2724        75.9759        30.0582        16.6539       101.7009
    3516.47760         8.5000         9.8374        77.6822        76.2783        28.0243        16.7543       101.4363
    3516.63000         8.5000         9.7632        73.5574        76.8329        27.5073        16.5986       101.2222
    3516.78240         8.5000         9.6738        69.8574        77.4310        27.2517        16.3988       101.0168
    3516.93480         8.5000         9.5843        66.1575        78.0290        26.9961        16.1989       100.8114
    3517.08720         8.5000         9.5747        64.0321        78.4629        27.8825        16.2074       100.4194
    3517.23960         8.5000         9.6248        63.0842        78.7740        29.6227        16.3717        99.8878
    3517.39200         8.5000         9.6748        62.1362        79.0850        31.3630        16.5360        99.3563
    3517.54440         8.5000         9.6848        61.5066        79.2054        32.7456        16.4417        98.9388
    3517.69680         8.5000         9.5974        61.6515        78.8616        33.2581        15.7183        98.7985
    3517.84920         8.5000         9.5100        61.7964        78.5179        33.7705        14.9949        98.6582
    3518.00160         8.5000         9.4234        61.9414        78.1859        34.2750        14.2737        98.5249
    3518.15400         8.5000         9.4132        62.0960        78.9653        34.0259        13.7605        99.0512
    3518.30640         8.5000         9.4030        62.2505        79.7447        33.7767        13.2473        99.5775
    3518.45880         8.5000         9.3928        62.4051        80.5241        33.5276        12.7341       100.1038
