~Version Information Block
VERS .                 2.00:  CWLS LOG ASCII STANDARD - VERSION 2.00
WRAP .                   NO:  One line per depth step
~Well Information Block
#MNEM.UNIT        Data Type   Information
#---------- ----------------  -----------
STRT .M             5.63880:  START DEPTH
STOP .M          4194.35280:  STOP DEPTH
STEP .M             0.15240:  STEP
NULL .              -999.25:  NULL VALUE
COMP .                     :  COMPANY
WELL .             Kapuni-2:  WELL
FLD  .                     :  FIELD
LOC  .                     :  LOCATION
CTRY .                     :  COUNTRY
STAT .                     :  STATE
CNTY .                     :  COUNTY
SRVC .     Shell BP & Todd Oil Services Ltd:  SERVICE COMPANY
DATE .                     :  DATE
API  .                     :  API NUMBER
UWI  .         100000021910:  UNIQUE WELL ID
LATI .          -39.4921223:  LATITUDE
LONG .          174.1702607:  LONGITUDE
~Curve Information Block
#MNEM.UNIT         API CODE   Curve Description
#---------- ----------------  -----------------
DEPTH.M                    :  
BS   .IN                   :  Bit Size (Created in Geolog)
CALI .IN                   :  Normalised log, not for display purpose (CALI)
DTC  .US/F                 :  splice of bcsl & bcsl_01r (DT)
GR   .GAPI                 :  (GR)
RESD .OHMM                 :  ln_e (RES_DEP)
RESM .OHMM                 :  i5fr_00j (RES_MED)
SP   .MV                   :  SP_E+130, K1 & K2 bit + 100 (SP)
~Parameter Information Block
#MNEM.UNIT            Value   Description
#---------- ----------------  -----------
CUR_INT_BOT.M              4194.5:  Current interpolated bottom
PROJECT.     New Zealand Log QC Project:  
SET  .     A0_FINAL_INTER_REF_D:  
ELEVATION_AMSL.M               157.3:  Elevation above mean sea level
ELEVATION_REF.                   DF:  Measurement reference
FORMATION_AT_TD.           Mangaotaki:  Formation at TD
GL_ELEVATION_AMSL.M            152.1000:  Ground level elevation above mean sea level
LICENCE_NUMBER.             PML38839:  Licence number
ONSHORE_OR_OFFSHORE.              Onshore:  Onshore/offshore
PR_NUMBER.                PR464:  Petroleum report number
SPUD_DATE.           09/11/1961:  Spud date
STATUS_AT_COMPLETION.            Completed:  Status at completion
TD_DATE.           27/01/1962:  Total depth date
TOTAL_DEPTH_DRILLED.M             4194.66:  Total depth drilled
~Other Information Block
# 
~A       DEPTH             BS           CALI            DTC             GR           RESD           RESM             SP 
# ...
     250.69800        17.5000        13.4472      -999.2500      -999.2500      -999.2500      -999.2500        81.6303
     250.85040        17.5000        13.3539      -999.2500      -999.2500      -999.2500      -999.2500        80.4316
     251.00280        17.5000        13.2622       164.7832      -999.2500      -999.2500      -999.2500        79.2406
     251.15520        17.5000        13.2552       164.0161      -999.2500      -999.2500      -999.2500        78.4548
     251.30760        17.5000        13.2482       163.2489      -999.2500      -999.2500      -999.2500        77.6691
     251.46000        17.5000        13.2412       162.4818      -999.2500      -999.2500      -999.2500        76.8833
     251.61240        17.5000        13.2482       160.4707      -999.2500      -999.2500      -999.2500        76.2160
     251.76480        17.5000        13.2601       158.0168      -999.2500      -999.2500      -999.2500        75.5909
     251.91720        17.5000        13.2720       155.5630      -999.2500      -999.2500      -999.2500        74.9658
     252.06960        17.5000        13.2946       155.6112      -999.2500        31.6010      -999.2500        74.5499
     252.22200        17.5000        13.3299       158.6361      -999.2500        31.7639      -999.2500        74.3830
     252.37440        17.5000        13.3653       161.6609      -999.2500        31.9268      -999.2500        74.2160
     252.52680        17.5000        13.3877       164.3205      -999.2500        32.1438      -999.2500        74.0068
     252.67920        17.5000        13.3493       165.2678      -999.2500        32.6145      -999.2500        73.5990
     252.83160        17.5000        13.3109       166.2151      -999.2500        33.0852      -999.2500        73.1912
     252.98400        17.5000        13.2725       167.1624      -999.2500        33.5559      -999.2500        72.7834
     253.13640        17.5000        13.2849       167.7256      -999.2500        33.8303      -999.2500        72.2279
     253.28880        17.5000        13.3032       168.2436      -999.2500        34.0817      -999.2500        71.6550
     253.44120        17.5000        13.3215       168.7616      -999.2500        34.3331      -999.2500        71.0822
     253.59360        17.5000        13.3394       168.6667      -999.2500        34.4299      -999.2500        70.5814
     253.74600        17.5000        13.3572       168.1865      -999.2500        34.4296      -999.2500        70.1259
     253.89840        17.5000        13.3750       167.7064      -999.2500        34.4293      -999.2500        69.6703
     254.05080        17.5000        13.3762       167.2224      -999.2500        34.4191      -999.2500        69.2904
     254.20320        17.5000        13.3444       166.7305      -999.2500        34.3894      -999.2500        69.0616
     254.35560        17.5000        13.3126       166.2385      -999.2500        34.3596      -999.2500        68.8329
     254.50800        17.5000        13.2834       165.8366      -999.2500        34.3462      -999.2500        68.6012
     254.66040        17.5000        13.3001       167.0593      -999.2500        34.6282      -999.2500        68.3147
     254.81280        17.5000        13.3168       168.2819      -999.2500        34.9101      -999.2500        68.0282
     254.96520        17.5000        13.3336       169.5045      -999.2500        35.1921      -999.2500        67.7417
     255.11760        17.5000        13.3898       169.5783      -999.2500        35.3511      -999.2500        67.6997
     255.27000        17.5000        13.4577       169.3121      -999.2500        35.4739      -999.2500        67.7302
     255.42240        17.5000        13.5256       169.0460      -999.2500        35.5966      -999.2500        67.7607
     255.57480        17.5000        13.5890       168.9456      -999.2500        35.5794      -999.2500        67.6757
     255.72720        17.5000        13.6478       169.0171      -999.2500        35.4171      -999.2500        67.4711
     255.87960        17.5000        13.7066       169.0886      -999.2500        35.2548      -999.2500        67.2664
     256.03200        17.5000        13.7338       169.2151      -999.2500        35.1959      -999.2500        67.0766
     256.18440        17.5000        13.6416       169.5484      -999.2500        35.5266      -999.2500        66.9423
     256.33680        17.5000        13.5495       169.8817      -999.2500        35.8572      -999.2500        66.8081
     256.48920        17.5000        13.4574       170.2149      -999.2500        36.1878      -999.2500        66.6739
     256.64160        17.5000        13.4670       167.9874      -999.2500        35.9023      -999.2500        66.3218
     256.79400        17.5000        13.4842       165.5646      -999.2500        35.5697      -999.2500        65.9531
     256.94640        17.5000        13.5015       163.1418      -999.2500        35.2371      -999.2500        65.5844
     257.09880        17.5000        13.5564       161.0591      -999.2500        35.1173      -999.2500        65.3924
     257.25120        17.5000        13.6317       159.1610      -999.2500        35.1128      -999.2500        65.2962
     257.40360        17.5000        13.7070       157.2628      -999.2500        35.1084      -999.2500        65.2001
     257.55600        17.5000        13.7540       156.2370      -999.2500        34.9906      -999.2500        65.1352
     257.70840        17.5000        13.7523       156.7129      -999.2500        34.6779      -999.2500        65.1241
     257.86080        17.5000        13.7506       157.1887      -999.2500        34.3651      -999.2500        65.1131
     258.01320        17.5000        13.7501       157.5541      -999.2500        34.0974      -999.2500        65.0970
     258.16560        17.5000        13.7630       156.7553      -999.2500        34.3047      -999.2500        65.0286
     258.31800        17.5000        13.7759       155.9565      -999.2500        34.5119      -999.2500        64.9601
     258.47040        17.5000        13.7888       155.1576      -999.2500        34.7191      -999.2500        64.8917
     258.62280        17.5000        13.7715       154.0660      -999.2500        34.6048      -999.2500        64.6769
     258.77520        17.5000        13.7470       152.9037      -999.2500        34.4130      -999.2500        64.4269
     258.92760        17.5000        13.7225       151.7414      -999.2500        34.2211      -999.2500        64.1769
     259.08000        17.5000        13.7199       151.6630      -999.2500        34.2454      -999.2500        64.0975
     259.23240        17.5000        13.7373       152.5654      -999.2500        34.4652      -999.2500        64.1724
     259.38480        17.5000        13.7546       153.4678      -999.2500        34.6851      -999.2500        64.2473
     259.53720        17.5000        13.7646       154.5709      -999.2500        34.7723      -999.2500        64.2752
     259.68960        17.5000        13.7519       156.2954      -999.2500        34.4491      -999.2500        64.1576
     259.84200        17.5000        13.7391       158.0199      -999.2500        34.1258      -999.2500        64.0399
     259.99440        17.5000        13.7263       159.7443      -999.2500        33.8026      -999.2500        63.9223
     260.14680        17.5000        13.7581       159.1121      -999.2500        33.8323      -999.2500        63.9988
     260.29920        17.5000        13.7916       158.3900      -999.2500        33.8755      -999.2500        64.0828
     260.45160        17.5000        13.8250       157.6679      -999.2500        33.9187      -999.2500        64.1667
     260.60400        17.5000        13.8040       157.7943      -999.2500        33.9672      -999.2500        64.1142
     260.75640        17.5000        13.7575       158.3156      -999.2500        34.0180      -999.2500        63.9982
