~Version Information Block
VERS .                 2.00:  CWLS LOG ASCII STANDARD - VERSION 2.00
WRAP .                   NO:  One line per depth step
~Well Information Block
#MNEM.UNIT        Data Type   Information
#---------- ----------------  -----------
STRT .M             0.00000:  START DEPTH
STOP .M          3900.98280:  STOP DEPTH
STEP .M             0.15240:  STEP
NULL .              -999.25:  NULL VALUE
COMP .                     :  COMPANY
WELL .             Kapuni-4:  WELL
FLD  .                     :  FIELD
LOC  .                     :  LOCATION
CTRY .                     :  COUNTRY
STAT .                     :  STATE
CNTY .                     :  COUNTY
SRVC .     Shell BP & Todd Oil Services Ltd:  SERVICE COMPANY
DATE .                     :  DATE
API  .                     :  API NUMBER
UWI  .         100000021909:  UNIQUE WELL ID
LATI .           -39.450469:  LATITUDE
LONG .           174.172705:  LONGITUDE
~Curve Information Block
#MNEM.UNIT         API CODE   Curve Description
#---------- ----------------  -----------------
DEPTH.M                    :  
BS   .IN                   :  (BS)
CALI .IN                   :  (CALI)
DTC  .US/F                 :  (DT)
GR   .GAPI                 :  (GR)
RESD .OHMM                 :  LN (RES_DEP)
RESM .OHMM                 :  I5FR_01r (RES_MED)
SP   .MV                   :  SP+150 (SP)
~Parameter Information Block
#MNEM.UNIT            Value   Description
#---------- ----------------  -----------
CUR_INT_BOT.M                3901:  Current interpolated bottom
PROJECT.     New Zealand Log QC Project:  
SET  .     A0_FINAL_INTER_REF_D:  
ELEVATION_AMSL.M              232.56:  Elevation above mean sea level
ELEVATION_REF.                   DF:  Measurement reference
FORMATION_AT_TD.         Kapuni Group:  Formation at TD
GL_ELEVATION_AMSL.M            226.5000:  Ground level elevation above mean sea level
LICENCE_NUMBER.             PML38839:  Licence number
ONSHORE_OR_OFFSHORE.              Onshore:  Onshore/offshore
PR_NUMBER.                PR466:  Petroleum report number
SPUD_DATE.           20/08/1962:  Spud date
STATUS_AT_COMPLETION.     Completed as a future production well:  Status at completion
TD_DATE.           26/10/1962:  Total depth date
TOTAL_DEPTH_DRILLED.M             3901.44:  Total depth drilled
~Other Information Block
# 
~A       DEPTH             BS           CALI            DTC             GR           RESD           RESM             SP 
# ...
    3451.25040         8.5000         9.3591        69.0682        75.1301        19.5198        11.4691        28.0191
    3451.40280         8.5000         9.3657        68.9211        75.2762        19.8971        11.6290        27.3047
    3451.55520         8.5000         9.3459        68.7372        75.2705        20.1286        11.6267        26.6227
    3451.70760         8.5000         9.2799        68.4884        74.9973        20.1036        11.3386        25.9974
    3451.86000         8.5000         9.2138        68.2397        74.7241        20.0786        11.0505        25.3722
    3452.01240         8.5000         9.1566        68.2398        74.5132        20.0300        10.7918        24.7744
    3452.16480         8.5000         9.1990        71.0500        75.0047        19.7144        10.8649        24.4860
    3452.31720         8.5000         9.2415        73.8602        75.4961        19.3988        10.9381        24.1977
    3452.46960         8.5000         9.2839        76.6704        75.9876        19.0832        11.0113        23.9093
    3452.62200         8.5000         9.2741        78.6562        74.4441        18.5665        11.0034        23.5054
    3452.77440         8.5000         9.2512        80.4365        72.3935        17.9997        10.9754        23.0726
    3452.92680         8.5000         9.2283        82.2169        70.3429        17.4328        10.9474        22.6399
    3453.07920         8.5000         9.1378        83.1003        68.8527        16.9862        10.9364        22.1701
    3453.23160         8.5000         8.9849        83.1548        67.8805        16.6506        10.9411        21.6660
    3453.38400         8.5000         8.8320        83.2093        66.9083        16.3150        10.9458        21.1620
    3453.53640         8.5000         8.7540        83.1664        66.0681        16.1924        11.0159        20.5684
    3453.68880         8.5000         8.9143        82.8130        65.6486        16.7488        11.2944        19.6898
    3453.84120         8.5000         9.0747        82.4597        65.2292        17.3053        11.5728        18.8112
    3453.99360         8.5000         9.2351        82.1063        64.8097        17.8617        11.8513        17.9325
    3454.14600         8.5000         9.1380        80.5827        63.0359        19.0680        12.1724        17.2728
    3454.29840         8.5000         9.0296        79.0078        61.2028        20.3029        12.4954        16.6226
    3454.45080         8.5000         8.9213        77.4329        59.3696        21.5377        12.8184        15.9725
    3454.60320         8.5000         8.8487        76.1356        58.7074        22.4327        13.1931        15.0309
    3454.75560         8.5000         8.7931        74.9706        58.6034        23.1655        13.5925        13.9504
    3454.90800         8.5000         8.7376        73.8056        58.4994        23.8984        13.9919        12.8699
    3455.06040         8.5000         8.7091        73.7949        59.0278        24.2424        13.9921        11.9354
    3455.21280         8.5000         8.7220        75.5423        60.5195        23.9938        13.3841        11.2235
    3455.36520         8.5000         8.7348        77.2896        62.0113        23.7453        12.7762        10.5116
    3455.51760         8.5000         8.7229        79.0826        63.1172        23.4831        12.1348         9.8640
    3455.67000         8.5000         8.5218        81.2248        61.2675        23.1165        11.2366         9.7086
    3455.82240         8.5000         8.3206        83.3670        59.4179        22.7500        10.3384         9.5533
    3455.97480         8.5000         8.1195        85.5093        57.5682        22.3834         9.4402         9.3979
    3456.12720         8.5000         8.0833        86.1954        57.5775        21.3485         9.3803         8.6529
    3456.27960         8.5000         8.0798        86.5932        57.9551        20.1812         9.4865         7.7911
    3456.43200         8.5000         8.0762        86.9909        58.3328        19.0139         9.5927         6.9292
    3456.58440         8.5000         8.0739        87.4769        58.3104        17.9533         9.6958         6.2612
    3456.73680         8.5000         8.0725        88.0340        57.9657        16.9787         9.7963         5.7493
    3456.88920         8.5000         8.0711        88.5911        57.6210        16.0041         9.8969         5.2374
    3457.04160         8.5000         8.0663        89.0995        56.5878        15.2747         9.9907         4.8490
    3457.19400         8.5000         8.0526        89.4783        53.7211        15.1982        10.0668         4.7898
    3457.34640         8.5000         8.0388        89.8571        50.8544        15.1218        10.1430         4.7306
    3457.49880         8.5000         8.0250        90.2359        47.9876        15.0454        10.2191         4.6714
    3457.65120         8.5000         8.1020        89.1577        51.7591        15.7511        10.1622         4.7126
    3457.80360         8.5000         8.1797        88.0679        55.5832        16.4630        10.1044         4.7545
    3457.95600         8.5000         8.2574        86.9781        59.4073        17.1750        10.0465         4.7965
    3458.10840         8.5000         8.4401        84.9940        64.9440        17.5972        10.0765         5.0219
    3458.26080         8.5000         8.6654        82.6469        71.1759        17.9019        10.1423         5.3218
    3458.41320         8.5000         8.8907        80.2999        77.4078        18.2066        10.2080         5.6218
    3458.56560         8.5000         9.0186        78.5501        80.4981        18.3039        10.2413         6.7094
    3458.71800         8.5000         9.0176        77.5908        79.4318        18.1269        10.2317         8.8393
    3458.87040         8.5000         9.0166        76.6315        78.3654        17.9499        10.2221        10.9693
    3459.02280         8.5000         9.0195        75.7491        77.5949        17.8284        10.1662        13.1474
    3459.17520         8.5000         9.0445        75.3037        78.5064        18.0217         9.8472        15.5998
    3459.32760         8.5000         9.0695        74.8584        79.4178        18.2151         9.5282        18.0521
    3459.48000         8.5000         9.0945        74.4130        80.3292        18.4085         9.2092        20.5044
    3459.63240         8.5000         9.0980        74.1279        80.9480        18.4681         9.1888        20.9847
    3459.78480         8.5000         9.0982        73.8670        81.5227        18.5074         9.2134        21.1671
    3459.93720         8.5000         9.0985        73.6061        82.0974        18.5467         9.2381        21.3494
    3460.08960         8.5000         9.0790        74.0347        81.4995        18.5358         9.2641        21.6894
    3460.24200         8.5000         9.0457        74.9466        80.0798        18.4896         9.2912        22.1397
    3460.39440         8.5000         9.0124        75.8585        78.6601        18.4434         9.3182        22.5901
    3460.54680         8.5000         8.9425        76.7067        76.8461        18.3808         9.3373        22.8389
    3460.69920         8.5000         8.7899        77.4110        74.1422        18.2812         9.3385        22.6330
    3460.85160         8.5000         8.6372        78.1152        71.4383        18.1815         9.3396        22.4272
    3461.00400         8.5000         8.4867        78.8109        68.7493        18.0754         9.3402        22.2011
    3461.15640         8.5000         8.4137        79.1850        66.6106        17.7312         9.3179        21.2258
    3461.30880         8.5000         8.3407        79.5590        64.4719        17.3870         9.2956        20.2504
