~Version Information Block
VERS .                 2.00:  CWLS LOG ASCII STANDARD - VERSION 2.00
WRAP .                   NO:  One line per depth step
~Well Information Block
#MNEM.UNIT        Data Type   Information
#---------- ----------------  -----------
STRT .M             0.00000:  START DEPTH
STOP .M          3900.98280:  STOP DEPTH
STEP .M             0.15240:  STEP
NULL .              -999.25:  NULL VALUE
COMP .                     :  COMPANY
WELL .             Kapuni-4:  WELL
FLD  .                     :  FIELD
LOC  .                     :  LOCATION
CTRY .                     :  COUNTRY
STAT .                     :  STATE
CNTY .                     :  COUNTY
SRVC .     Shell BP & Todd Oil Services Ltd:  SERVICE COMPANY
DATE .                     :  DATE
API  .                     :  API NUMBER
UWI  .         100000021909:  UNIQUE WELL ID
LATI .           -39.450469:  LATITUDE
LONG .           174.172705:  LONGITUDE
~Curve Information Block
#MNEM.UNIT         API CODE   Curve Description
#---------- ----------------  -----------------
DEPTH.M                    :  
BS   .IN                   :  (BS)
CALI .IN                   :  (CALI)
DTC  .US/F                 :  (DT)
GR   .GAPI                 :  (GR)
RESD .OHMM                 :  LN (RES_DEP)
RESM .OHMM                 :  I5FR_01r (RES_MED)
SP   .MV                   :  SP+150 (SP)
~Parameter Information Block
#MNEM.UNIT            Value   Description
#---------- ----------------  -----------
CUR_INT_BOT.M                3901:  Current interpolated bottom
PROJECT.     New Zealand Log QC Project:  
SET  .     A0_FINAL_INTER_REF_D:  
ELEVATION_AMSL.M              232.56:  Elevation above mean sea level
ELEVATION_REF.                   DF:  Measurement reference
FORMATION_AT_TD.         Kapuni Group:  Formation at TD
GL_ELEVATION_AMSL.M            226.5000:  Ground level elevation above mean sea level
LICENCE_NUMBER.             PML38839:  Licence number
ONSHORE_OR_OFFSHORE.              Onshore:  Onshore/offshore
PR_NUMBER.                PR466:  Petroleum report number
SPUD_DATE.           20/08/1962:  Spud date
STATUS_AT_COMPLETION.     Completed as a future production well:  Status at completion
TD_DATE.           26/10/1962:  Total depth date
TOTAL_DEPTH_DRILLED.M             3901.44:  Total depth drilled
~Other Information Block
# 
~A       DEPTH             BS           CALI            DTC             GR           RESD           RESM             SP 
# ...
    2266.79760        12.2500      -999.2500        74.1561      -999.2500        14.7099      -999.2500         1.6340
    2266.95000        12.2500      -999.2500        74.4012      -999.2500        14.5539      -999.2500         1.7302
    2267.10240        12.2500      -999.2500        74.6142      -999.2500        14.3812      -999.2500         1.5839
    2267.25480        12.2500      -999.2500        74.8115      -999.2500        14.2005      -999.2500         1.3191
    2267.40720        12.2500      -999.2500        75.0088      -999.2500        14.0197      -999.2500         1.0543
    2267.55960        12.2500      -999.2500        74.9663      -999.2500        13.9539      -999.2500         1.0467
    2267.71200        12.2500      -999.2500        74.5503      -999.2500        14.0672      -999.2500         1.4397
    2267.86440        12.2500      -999.2500        74.1342      -999.2500        14.1804      -999.2500         1.8327
    2268.01680        12.2500      -999.2500        73.7908      -999.2500        14.2946      -999.2500         2.1894
    2268.16920        12.2500      -999.2500        74.0330      -999.2500        14.4161      -999.2500         2.2538
    2268.32160        12.2500      -999.2500        74.2752      -999.2500        14.5377      -999.2500         2.3182
    2268.47400        12.2500      -999.2500        74.5174      -999.2500        14.6593      -999.2500         2.3826
    2268.62640        12.2500      -999.2500        74.5918      -999.2500        14.7270      -999.2500         2.3873
    2268.77880        12.2500      -999.2500        74.6317      -999.2500        14.7836      -999.2500         2.3798
    2268.93120        12.2500      -999.2500        74.6717      -999.2500        14.8402      -999.2500         2.3723
    2269.08360        12.2500      -999.2500        74.2216      -999.2500        14.9150      -999.2500         2.3610
    2269.23600        12.2500      -999.2500        73.3684      -999.2500        15.0049      -999.2500         2.3465
    2269.38840        12.2500      -999.2500        72.5151      -999.2500        15.0947      -999.2500         2.3320
    2269.54080        12.2500      -999.2500        72.1887      -999.2500        15.1980      -999.2500         2.3014
    2269.69320        12.2500      -999.2500        73.3033      -999.2500        15.3381      -999.2500         2.2271
    2269.84560        12.2500      -999.2500        74.4179      -999.2500        15.4781      -999.2500         2.1527
    2269.99800        12.2500      -999.2500        75.5325      -999.2500        15.6182      -999.2500         2.0783
    2270.15040        12.2500      -999.2500        76.9515      -999.2500        15.6552      -999.2500         1.5431
    2270.30280        12.2500      -999.2500        78.3745      -999.2500        15.6909      -999.2500         1.0017
    2270.45520        12.2500      -999.2500        79.7975      -999.2500        15.7265      -999.2500         0.4603
    2270.60760        12.2500      -999.2500        80.0877      -999.2500        15.9774      -999.2500        -0.1655
    2270.76000        12.2500      -999.2500        79.9062      -999.2500        16.3178      -999.2500        -0.8265
    2270.91240        12.2500      -999.2500        79.7248      -999.2500        16.6582      -999.2500        -1.4875
    2271.06480        12.2500      -999.2500        81.6112      -999.2500        17.0555      -999.2500        -2.2133
    2271.21720        12.2500      -999.2500        86.2930      -999.2500        17.5296      -999.2500        -3.0267
    2271.36960        12.2500      -999.2500        90.9749      -999.2500        18.0036      -999.2500        -3.8401
    2271.52200        12.2500      -999.2500        94.1712      -999.2500        18.4537      -999.2500        -4.6036
    2271.67440        12.2500      -999.2500        88.5629      -999.2500        18.7619      -999.2500        -5.0712
    2271.82680        12.2500      -999.2500        82.9545      -999.2500        19.0702      -999.2500        -5.5388
    2271.97920        12.2500      -999.2500        77.3462      -999.2500        19.3784      -999.2500        -6.0064
    2272.13160        12.2500      -999.2500        76.5863      -999.2500        19.2514      -999.2500        -6.2332
    2272.28400        12.2500      -999.2500        76.5928      -999.2500        19.0556      -999.2500        -6.4221
    2272.43640        12.2500      -999.2500        76.5993      -999.2500        18.8599      -999.2500        -6.6109
    2272.58880        12.2500      -999.2500        76.6565      -999.2500        18.7895      -999.2500        -6.5296
    2272.74120        12.2500      -999.2500        76.7501      -999.2500        18.8089      -999.2500        -6.2549
    2272.89360        12.2500      -999.2500        76.8436      -999.2500        18.8283      -999.2500        -5.9802
    2273.04600        12.2500      -999.2500        76.6196      -999.2500        18.7606      -999.2500        -5.5766
    2273.19840        12.2500      -999.2500        75.6613      -999.2500        18.4914      -999.2500        -4.8748
    2273.35080        12.2500      -999.2500        74.7030      -999.2500        18.2221      -999.2500        -4.1731
    2273.50320        12.2500      -999.2500        73.7435      -999.2500        17.9528      -999.2500        -3.4862
    2273.65560        12.2500      -999.2500        72.7267      -999.2500        17.6833      -999.2500        -3.4904
    2273.80800        12.2500      -999.2500        71.7099      -999.2500        17.4138      -999.2500        -3.4947
    2273.96040        12.2500      -999.2500        70.6930      -999.2500        17.1443      -999.2500        -3.4989
    2274.11280        12.2500      -999.2500        71.4397      -999.2500        16.3848      -999.2500        -3.4468
    2274.26520        12.2500      -999.2500        72.8055      -999.2500        15.4533      -999.2500        -3.3750
    2274.41760        12.2500      -999.2500        74.1713      -999.2500        14.5218      -999.2500        -3.3032
    2274.57000        12.2500      -999.2500        75.6262      -999.2500        13.6965      -999.2500        -2.9486
    2274.72240        12.2500      -999.2500        77.1861      -999.2500        12.9963      -999.2500        -2.2610
    2274.87480        12.2500      -999.2500        78.7459      -999.2500        12.2960      -999.2500        -1.5734
    2275.02720        12.2500      -999.2500        79.7779      -999.2500        11.6703      -999.2500        -0.8612
    2275.17960        12.2500      -999.2500        78.3797      -999.2500        11.3879      -999.2500        -0.0362
    2275.33200        12.2500      -999.2500        76.9816      -999.2500        11.1055      -999.2500         0.7888
    2275.48440        12.2500      -999.2500        75.5834      -999.2500        10.8231      -999.2500         1.6138
    2275.63680        12.2500      -999.2500        75.1241      -999.2500        10.3393      -999.2500         2.2917
    2275.78920        12.2500      -999.2500        74.7718      -999.2500         9.8326      -999.2500         2.9528
    2275.94160        12.2500      -999.2500        74.4195      -999.2500         9.3258      -999.2500         3.6139
    2276.09400        12.2500      -999.2500        75.7693      -999.2500         8.9380      -999.2500         3.9047
    2276.24640        12.2500      -999.2500        78.1766      -999.2500         8.6240      -999.2500         3.9656
    2276.39880        12.2500      -999.2500        80.5839      -999.2500         8.3100      -999.2500         4.0264
    2276.55120        12.2500      -999.2500        82.2022      -999.2500         8.0972      -999.2500         4.0943
    2276.70360        12.2500      -999.2500        82.2607      -999.2500         8.0846      -999.2500         4.1762
    2276.85600        12.2500      -999.2500        82.3193      -999.2500         8.0719      -999.2500         4.2582
