~Version Information Block
VERS .                 2.00:  CWLS LOG ASCII STANDARD - VERSION 2.00
WRAP .                   NO:  One line per depth step
~Well Information Block
#MNEM.UNIT        Data Type   Information
#---------- ----------------  -----------
STRT .M             0.00000:  START DEPTH
STOP .M          3900.98280:  STOP DEPTH
STEP .M             0.15240:  STEP
NULL .              -999.25:  NULL VALUE
COMP .                     :  COMPANY
WELL .             Kapuni-4:  WELL
FLD  .                     :  FIELD
LOC  .                     :  LOCATION
CTRY .                     :  COUNTRY
STAT .                     :  STATE
CNTY .                     :  COUNTY
SRVC .     Shell BP & Todd Oil Services Ltd:  SERVICE COMPANY
DATE .                     :  DATE
API  .                     :  API NUMBER
UWI  .         100000021909:  UNIQUE WELL ID
LATI .           -39.450469:  LATITUDE
LONG .           174.172705:  LONGITUDE
~Curve Information Block
#MNEM.UNIT         API CODE   Curve Description
#---------- ----------------  -----------------
DEPTH.M                    :  
BS   .IN                   :  (BS)
CALI .IN                   :  (CALI)
DTC  .US/F                 :  (DT)
GR   .GAPI                 :  (GR)
RESD .OHMM                 :  LN (RES_DEP)
RESM .OHMM                 :  I5FR_01r (RES_MED)
SP   .MV                   :  SP+150 (SP)
~Parameter Information Block
#MNEM.UNIT            Value   Description
#---------- ----------------  -----------
CUR_INT_BOT.M                3901:  Current interpolated bottom
PROJECT.     New Zealand Log QC Project:  
SET  .     A0_FINAL_INTER_REF_D:  
ELEVATION_AMSL.M              232.56:  Elevation above mean sea level
ELEVATION_REF.                   DF:  Measurement reference
FORMATION_AT_TD.         Kapuni Group:  Formation at TD
GL_ELEVATION_AMSL.M            226.5000:  Ground level elevation above mean sea level
LICENCE_NUMBER.             PML38839:  Licence number
ONSHORE_OR_OFFSHORE.              Onshore:  Onshore/offshore
PR_NUMBER.                PR466:  Petroleum report number
SPUD_DATE.           20/08/1962:  Spud date
STATUS_AT_COMPLETION.     Completed as a future production well:  Status at completion
TD_DATE.           26/10/1962:  Total depth date
TOTAL_DEPTH_DRILLED.M             3901.44:  Total depth drilled
~Other Information Block
# 
~A       DEPTH             BS           CALI            DTC             GR           RESD           RESM             SP 
# ...
    3155.13720        12.2500      -999.2500        89.5048      -999.2500         2.8176      -999.2500        22.1117
    3155.28960        12.2500      -999.2500        88.4461      -999.2500         2.8038      -999.2500        22.0803
    3155.44200        12.2500      -999.2500        87.3873      -999.2500         2.7900      -999.2500        22.0490
    3155.59440        12.2500      -999.2500        86.3236      -999.2500         2.7776      -999.2500        22.1331
    3155.74680        12.2500      -999.2500        85.2568      -999.2500         2.7660      -999.2500        22.2881
    3155.89920        12.2500      -999.2500        84.1901      -999.2500         2.7544      -999.2500        22.4432
    3156.05160        12.2500      -999.2500        83.9041      -999.2500         2.7269      -999.2500        22.5348
    3156.20400        12.2500      -999.2500        85.1434      -999.2500         2.6684      -999.2500        22.5026
    3156.35640        12.2500      -999.2500        86.3828      -999.2500         2.6098      -999.2500        22.4703
    3156.50880        12.2500      -999.2500        87.5365      -999.2500         2.5519      -999.2500        22.4399
    3156.66120        12.2500      -999.2500        87.2930      -999.2500         2.5048      -999.2500        22.4399
    3156.81360        12.2500      -999.2500        87.0494      -999.2500         2.4576      -999.2500        22.4399
    3156.96600        12.2500      -999.2500        86.8059      -999.2500         2.4105      -999.2500        22.4399
    3157.11840        12.2500      -999.2500        86.2763      -999.2500         2.4178      -999.2500        22.2475
    3157.27080        12.2500      -999.2500        85.6646      -999.2500         2.4408      -999.2500        21.9998
    3157.42320        12.2500      -999.2500        85.0530      -999.2500         2.4637      -999.2500        21.7521
    3157.57560        12.2500      -999.2500        84.9377      -999.2500         2.4960      -999.2500        21.5958
    3157.72800        12.2500      -999.2500        85.3268      -999.2500         2.5377      -999.2500        21.5324
    3157.88040        12.2500      -999.2500        85.7159      -999.2500         2.5794      -999.2500        21.4691
    3158.03280        12.2500      -999.2500        85.9375      -999.2500         2.6074      -999.2500        21.5199
    3158.18520        12.2500      -999.2500        85.5488      -999.2500         2.5854      -999.2500        21.9875
    3158.33760        12.2500      -999.2500        85.1601      -999.2500         2.5634      -999.2500        22.4551
    3158.49000        12.2500      -999.2500        84.7714      -999.2500         2.5414      -999.2500        22.9227
    3158.64240        12.2500      -999.2500        85.7589      -999.2500         2.5400      -999.2500        22.8720
    3158.79480        12.2500      -999.2500        86.8431      -999.2500         2.5400      -999.2500        22.7849
    3158.94720        12.2500      -999.2500        87.9273      -999.2500         2.5400      -999.2500        22.6978
    3159.09960        12.2500      -999.2500        88.2301      -999.2500         2.5268      -999.2500        22.6526
    3159.25200        12.2500      -999.2500        88.1187      -999.2500         2.5066      -999.2500        22.6297
    3159.40440        12.2500      -999.2500        88.0073      -999.2500         2.4864      -999.2500        22.6068
    3159.55680        12.2500      -999.2500        87.7834      -999.2500         2.4813      -999.2500        22.6151
    3159.70920        12.2500      -999.2500        87.3701      -999.2500         2.5014      -999.2500        22.6761
    3159.86160        12.2500      -999.2500        86.9569      -999.2500         2.5216      -999.2500        22.7371
    3160.01400        12.2500      -999.2500        86.5050      -999.2500         2.5462      -999.2500        22.7828
    3160.16640        12.2500      -999.2500        85.6718      -999.2500         2.6132      -999.2500        22.6771
    3160.31880        12.2500      -999.2500        84.8385      -999.2500         2.6803      -999.2500        22.5715
    3160.47120        12.2500      -999.2500        84.0053      -999.2500         2.7473      -999.2500        22.4659
    3160.62360        12.2500      -999.2500        82.9827      -999.2500         2.7341      -999.2500        22.4979
    3160.77600        12.2500      -999.2500        81.9160      -999.2500         2.7022      -999.2500        22.5620
    3160.92840        12.2500      -999.2500        80.8493      -999.2500         2.6703      -999.2500        22.6262
    3161.08080        12.2500      -999.2500        80.5738      -999.2500         2.6694      -999.2500        22.7385
    3161.23320        12.2500      -999.2500        80.9996      -999.2500         2.6960      -999.2500        22.8936
    3161.38560        12.2500      -999.2500        81.4254      -999.2500         2.7226      -999.2500        23.0487
    3161.53800        12.2500      -999.2500        82.2464      -999.2500         2.7492      -999.2500        23.2468
    3161.69040        12.2500      -999.2500        84.2573      -999.2500         2.7758      -999.2500        23.5742
    3161.84280        12.2500      -999.2500        86.2683      -999.2500         2.8025      -999.2500        23.9016
    3161.99520        12.2500      -999.2500        88.2792      -999.2500         2.8292      -999.2500        24.2290
    3162.14760        12.2500      -999.2500        88.8688      -999.2500         2.8272      -999.2500        24.0296
    3162.30000        12.2500      -999.2500        89.4121      -999.2500         2.8244      -999.2500        23.8129
    3162.45240        12.2500      -999.2500        89.9554      -999.2500         2.8215      -999.2500        23.5963
    3162.60480        12.2500      -999.2500        90.1169      -999.2500         2.7888      -999.2500        23.3092
    3162.75720        12.2500      -999.2500        90.1050      -999.2500         2.7425      -999.2500        22.9900
    3162.90960        12.2500      -999.2500        90.0931      -999.2500         2.6963      -999.2500        22.6708
    3163.06200        12.2500      -999.2500        89.7447      -999.2500         2.6023      -999.2500        22.6422
    3163.21440        12.2500      -999.2500        88.9059      -999.2500         2.4389      -999.2500        23.0370
    3163.36680        12.2500      -999.2500        88.0671      -999.2500         2.2754      -999.2500        23.4319
    3163.51920        12.2500      -999.2500        87.2920      -999.2500         2.1263      -999.2500        23.7624
    3163.67160        12.2500      -999.2500        86.9598      -999.2500         2.0768      -999.2500        23.6464
    3163.82400        12.2500      -999.2500        86.6275      -999.2500         2.0272      -999.2500        23.5303
    3163.97640        12.2500      -999.2500        86.2952      -999.2500         1.9777      -999.2500        23.4143
    3164.12880        12.2500      -999.2500        85.6794      -999.2500         1.9197      -999.2500        23.2494
    3164.28120        12.2500      -999.2500        85.0116      -999.2500         1.8601      -999.2500        23.0756
    3164.43360        12.2500      -999.2500        84.3437      -999.2500         1.8006      -999.2500        22.9017
    3164.58600        12.2500      -999.2500        84.6932      -999.2500         1.7237      -999.2500        22.8465
    3164.73840        12.2500      -999.2500        85.8280      -999.2500         1.6334      -999.2500        22.8828
    3164.89080        12.2500      -999.2500        86.9629      -999.2500         1.5432      -999.2500        22.9192
    3165.04320        12.2500      -999.2500        87.7297      -999.2500         1.4804      -999.2500        22.9068
    3165.19560        12.2500      -999.2500        87.5663      -999.2500         1.4869      -999.2500        22.7711
