~Version Information Block
VERS .                 2.00:  CWLS LOG ASCII STANDARD - VERSION 2.00
WRAP .                   NO:  One line per depth step
~Well Information Block
#MNEM.UNIT        Data Type   Information
#---------- ----------------  -----------
STRT .M             5.63880:  START DEPTH
STOP .M          4194.35280:  STOP DEPTH
STEP .M             0.15240:  STEP
NULL .              -999.25:  NULL VALUE
COMP .                     :  COMPANY
WELL .             Kapuni-2:  WELL
FLD  .                     :  FIELD
LOC  .                     :  LOCATION
CTRY .                     :  COUNTRY
STAT .                     :  STATE
CNTY .                     :  COUNTY
SRVC .     Shell BP & Todd Oil Services Ltd:  SERVICE COMPANY
DATE .                     :  DATE
API  .                     :  API NUMBER
UWI  .         100000021910:  UNIQUE WELL ID
LATI .          -39.4921223:  LATITUDE
LONG .          174.1702607:  LONGITUDE
~Curve Information Block
#MNEM.UNIT         API CODE   Curve Description
#---------- ----------------  -----------------
DEPTH.M                    :  
BS   .IN                   :  Bit Size (Created in Geolog)
CALI .IN                   :  Normalised log, not for display purpose (CALI)
DTC  .US/F                 :  splice of bcsl & bcsl_01r (DT)
GR   .GAPI                 :  (GR)
RESD .OHMM                 :  ln_e (RES_DEP)
RESM .OHMM                 :  i5fr_00j (RES_MED)
SP   .MV                   :  SP_E+130, K1 & K2 bit + 100 (SP)
~Parameter Information Block
#MNEM.UNIT            Value   Description
#---------- ----------------  -----------
CUR_INT_BOT.M              4194.5:  Current interpolated bottom
PROJECT.     New Zealand Log QC Project:  
SET  .     A0_FINAL_INTER_REF_D:  
ELEVATION_AMSL.M               157.3:  Elevation above mean sea level
ELEVATION_REF.                   DF:  Measurement reference
FORMATION_AT_TD.           Mangaotaki:  Formation at TD
GL_ELEVATION_AMSL.M            152.1000:  Ground level elevation above mean sea level
LICENCE_NUMBER.             PML38839:  Licence number
ONSHORE_OR_OFFSHORE.              Onshore:  Onshore/offshore
PR_NUMBER.                PR464:  Petroleum report number
SPUD_DATE.           09/11/1961:  Spud date
STATUS_AT_COMPLETION.            Completed:  Status at completion
TD_DATE.           27/01/1962:  Total depth date
TOTAL_DEPTH_DRILLED.M             4194.66:  Total depth drilled
~Other Information Block
# 
~A       DEPTH             BS           CALI            DTC             GR           RESD           RESM             SP 
# ...
    2813.60880        12.2500         9.3267        92.1420      -999.2500         3.0516         3.4200        63.4625
    2813.76120        12.2500         9.3477        89.8894      -999.2500         3.0549         3.4200        63.4099
    2813.91360        12.2500         9.3688        87.6368      -999.2500         3.0581         3.4200        63.3573
    2814.06600        12.2500         9.3850        86.5247      -999.2500         3.0552         3.4200        63.3480
    2814.21840        12.2500         9.3949        86.9053      -999.2500         3.0442         3.4200        63.3955
    2814.37080        12.2500         9.4047        87.2860      -999.2500         3.0331         3.4200        63.4430
    2814.52320        12.2500         9.4096        87.5853      -999.2500         3.0231         3.4195        63.4877
    2814.67560        12.2500         9.3864        87.4315      -999.2500         3.0189         3.4160        63.5172
    2814.82800        12.2500         9.3633        87.2777      -999.2500         3.0147         3.4126        63.5466
    2814.98040        12.2500         9.3401        87.1239      -999.2500         3.0105         3.4092        63.5760
    2815.13280        12.2500         9.3509        86.7628      -999.2500         3.0153         3.4117        63.5853
    2815.28520        12.2500         9.3667        86.3710      -999.2500         3.0214         3.4151        63.5915
    2815.43760        12.2500         9.3826        85.9793      -999.2500         3.0275         3.4186        63.5978
    2815.59000        12.2500         9.4021        85.8446      -999.2500         3.0185         3.4183        63.6820
    2815.74240        12.2500         9.4242        85.8881      -999.2500         2.9991         3.4155        63.8202
    2815.89480        12.2500         9.4463        85.9317      -999.2500         2.9796         3.4127        63.9584
    2816.04720        12.2500         9.4627        85.9596      -999.2500         2.9684         3.4153        64.1375
    2816.19960        12.2500         9.4664        85.9527      -999.2500         2.9755         3.4299        64.4076
    2816.35200        12.2500         9.4701        85.9459      -999.2500         2.9825         3.4446        64.6777
    2816.50440        12.2500         9.4740        85.9483      -999.2500         2.9898         3.4591        64.9379
    2816.65680        12.2500         9.4863        86.2654      -999.2500         3.0021         3.4663        64.8653
    2816.80920        12.2500         9.4985        86.5826      -999.2500         3.0145         3.4735        64.7928
    2816.96160        12.2500         9.5108        86.8997      -999.2500         3.0269         3.4807        64.7203
    2817.11400        12.2500         9.5150        86.9301      -999.2500         3.0300         3.4842        64.4806
    2817.26640        12.2500         9.5166        86.8639      -999.2500         3.0300         3.4865        64.1845
    2817.41880        12.2500         9.5182        86.7977      -999.2500         3.0300         3.4888        63.8885
    2817.57120        12.2500         9.5221        87.1108      -999.2500         3.0258         3.4900        63.7158
    2817.72360        12.2500         9.5287        87.8565      -999.2500         3.0168         3.4900        63.6838
    2817.87600        12.2500         9.5353        88.6022      -999.2500         3.0078         3.4900        63.6517
    2818.02840        12.2500         9.5372        88.9673      -999.2500         2.9958         3.4921        63.6346
    2818.18080        12.2500         9.5191        87.6712      -999.2500         2.9707         3.5031        63.6828
    2818.33320        12.2500         9.5009        86.3751      -999.2500         2.9456         3.5141        63.7309
    2818.48560        12.2500         9.4827        85.0790      -999.2500         2.9205         3.5252        63.7790
    2818.63800        12.2500         9.4910        86.0348      -999.2500         2.8984         3.5079        63.9648
    2818.79040        12.2500         9.5020        87.2256      -999.2500         2.8767         3.4878        64.1649
    2818.94280        12.2500         9.5131        88.4164      -999.2500         2.8550         3.4676        64.3650
    2819.09520        12.2500         9.5204        88.0808      -999.2500         2.8398         3.4550        64.6282
    2819.24760        12.2500         9.5256        86.8282      -999.2500         2.8286         3.4470        64.9294
    2819.40000        12.2500         9.5307        85.5755      -999.2500         2.8174         3.4390        65.2307
    2819.55240        12.2500         9.5363        84.9345      -999.2500         2.7804         3.4323        65.4330
    2819.70480        12.2500         9.5427        85.4607      -999.2500         2.6944         3.4281        65.4464
    2819.85720        12.2500         9.5491        85.9869      -999.2500         2.6084         3.4239        65.4599
    2820.00960        12.2500         9.5558        86.5151      -999.2500         2.5250         3.4200        65.4647
    2820.16200        12.2500         9.5671        87.0735      -999.2500         2.4799         3.4200        65.3408
    2820.31440        12.2500         9.5785        87.6319      -999.2500         2.4349         3.4200        65.2168
    2820.46680        12.2500         9.5898        88.1904      -999.2500         2.3898         3.4200        65.0929
    2820.61920        12.2500         9.5965        89.7739      -999.2500         2.3860         3.4140        65.0144
    2820.77160        12.2500         9.6019        91.6430      -999.2500         2.3936         3.4064        64.9486
    2820.92400        12.2500         9.6073        93.5120      -999.2500         2.4012         3.3988        64.8827
    2821.07640        12.2500         9.6129        93.3336      -999.2500         2.4069         3.3942        64.8422
    2821.22880        12.2500         9.6186        91.1185      -999.2500         2.4108         3.3927        64.8270
    2821.38120        12.2500         9.6244        88.9034      -999.2500         2.4147         3.3912        64.8117
    2821.53360        12.2500         9.6296        86.9776      -999.2500         2.4409         3.3900        64.8039
    2821.68600        12.2500         9.6332        86.0751      -999.2500         2.5459         3.3900        64.8226
    2821.83840        12.2500         9.6367        85.1726      -999.2500         2.6509         3.3900        64.8413
    2821.99080        12.2500         9.6403        84.2701      -999.2500         2.7558         3.3900        64.8599
    2822.14320        12.2500         9.6381        85.0220      -999.2500         2.8246         3.3900        64.8837
    2822.29560        12.2500         9.6355        85.8802      -999.2500         2.8911         3.3900        64.9077
    2822.44800        12.2500         9.6330        86.7384      -999.2500         2.9575         3.3900        64.9317
    2822.60040        12.2500         9.6389        86.6827      -999.2500         2.9758         3.3820        64.8680
    2822.75280        12.2500         9.6491        86.1538      -999.2500         2.9691         3.3698        64.7588
    2822.90520        12.2500         9.6593        85.6249      -999.2500         2.9623         3.3576        64.6496
    2823.05760        12.2500         9.6732        85.3096      -999.2500         2.9572         3.3546        64.5653
    2823.21000        12.2500         9.6929        85.3460      -999.2500         2.9547         3.3668        64.5221
    2823.36240        12.2500         9.7127        85.3824      -999.2500         2.9522         3.3790        64.4789
    2823.51480        12.2500         9.7315        85.4518      -999.2500         2.9500         3.3901        64.4525
    2823.66720        12.2500         9.7409        85.8284      -999.2500         2.9500         3.3912        64.5820
