~Version Information Block
VERS .                 2.00:  CWLS LOG ASCII STANDARD - VERSION 2.00
WRAP .                   NO:  One line per depth step
~Well Information Block
#MNEM.UNIT        Data Type   Information
#---------- ----------------  -----------
STRT .M             6.09600:  START DEPTH
STOP .M          3796.43640:  STOP DEPTH
STEP .M             0.15240:  STEP
NULL .              -999.25:  NULL VALUE
COMP .                     :  COMPANY
WELL .             Kapuni-3:  WELL
FLD  .                     :  FIELD
LOC  .                     :  LOCATION
CTRY .                     :  COUNTRY
STAT .                     :  STATE
CNTY .                     :  COUNTY
SRVC .     Shell BP & Todd Oil Services Ltd:  SERVICE COMPANY
DATE .                     :  DATE
API  .                     :  API NUMBER
UWI  .         100000502146:  UNIQUE WELL ID
LATI .          -39.5051918:  LATITUDE
LONG .          174.1760385:  LONGITUDE
~Curve Information Block
#MNEM.UNIT         API CODE   Curve Description
#---------- ----------------  -----------------
DEPTH.M                    :  
BS   .IN                   :  Bit Size (Created in Geolog)
CALI .IN                   :  (CALI)
DTC  .US/F                 :  (DT)
GR   .GAPI                 :  (GR)
RESD .OHMM                 :  Long normal (ES) (RES_DEP)
RESM .OHMM                 :  I6FR (IES) (RES_MED)
SP   .MV                   :  SP-10 (SP)
~Parameter Information Block
#MNEM.UNIT            Value   Description
#---------- ----------------  -----------
CUR_INT_BOT.M              3796.5:  Current interpolated bottom
PROJECT.     New Zealand Log QC Project:  
SET  .     A0_FINAL_INTER_REF_D:  
ELEVATION_AMSL.M              136.86:  Elevation above mean sea level
ELEVATION_REF.                   DF:  Measurement reference
FORMATION_AT_TD.         Kapuni Group:  Formation at TD
GL_ELEVATION_AMSL.M            131.1000:  Ground level elevation above mean sea level
LICENCE_NUMBER.             PML38839:  Licence number
ONSHORE_OR_OFFSHORE.              Onshore:  Onshore/offshore
PR_NUMBER.                PR465:  Petroleum report number
SPUD_DATE.           21/04/1962:  Spud date
STATUS_AT_COMPLETION.     Tested and completed as a potential producer:  Status at completion
TD_DATE.           24/06/1962:  Total depth date
TOTAL_DEPTH_DRILLED.M              3796.9:  Total depth drilled
~Other Information Block
# 
~A       DEPTH             BS           CALI            DTC             GR           RESD           RESM             SP 
# ...
    2946.80640        12.2500      -999.2500        81.7828      -999.2500         3.2595      -999.2500        89.8748
    2946.95880        12.2500      -999.2500        81.5529      -999.2500         3.3105      -999.2500        89.7600
    2947.11120        12.2500      -999.2500        81.5367      -999.2500         3.3475      -999.2500        89.8575
    2947.26360        12.2500      -999.2500        81.5997      -999.2500         3.3794      -999.2500        90.0337
    2947.41600        12.2500      -999.2500        81.6627      -999.2500         3.4112      -999.2500        90.2099
    2947.56840        12.2500      -999.2500        81.7419      -999.2500         3.4369      -999.2500        90.3985
    2947.72080        12.2500      -999.2500        81.8410      -999.2500         3.4549      -999.2500        90.6025
    2947.87320        12.2500      -999.2500        81.9401      -999.2500         3.4729      -999.2500        90.8065
    2948.02560        12.2500      -999.2500        82.0123      -999.2500         3.4903      -999.2500        90.9859
    2948.17800        12.2500      -999.2500        81.9512      -999.2500         3.5050      -999.2500        91.0442
    2948.33040        12.2500      -999.2500        81.8902      -999.2500         3.5197      -999.2500        91.1024
    2948.48280        12.2500      -999.2500        81.8291      -999.2500         3.5344      -999.2500        91.1607
    2948.63520        12.2500      -999.2500        81.6904      -999.2500         3.5361      -999.2500        91.2014
    2948.78760        12.2500      -999.2500        81.5418      -999.2500         3.5361      -999.2500        91.2398
    2948.94000        12.2500      -999.2500        81.3932      -999.2500         3.5361      -999.2500        91.2783
    2949.09240        12.2500      -999.2500        81.5567      -999.2500         3.5361      -999.2500        91.2934
    2949.24480        12.2500      -999.2500        81.9227      -999.2500         3.5361      -999.2500        91.2934
    2949.39720        12.2500      -999.2500        82.2887      -999.2500         3.5361      -999.2500        91.2934
    2949.54960        12.2500      -999.2500        82.5625      -999.2500         3.5276      -999.2500        91.2861
    2949.70200        12.2500      -999.2500        82.6453      -999.2500         3.5015      -999.2500        91.2635
    2949.85440        12.2500      -999.2500        82.7281      -999.2500         3.4754      -999.2500        91.2410
    2950.00680        12.2500      -999.2500        82.8025      -999.2500         3.4489      -999.2500        91.2173
    2950.15920        12.2500      -999.2500        82.6979      -999.2500         3.4136      -999.2500        91.1685
    2950.31160        12.2500      -999.2500        82.5932      -999.2500         3.3783      -999.2500        91.1197
    2950.46400        12.2500      -999.2500        82.4886      -999.2500         3.3430      -999.2500        91.0709
    2950.61640        12.2500      -999.2500        82.5213      -999.2500         3.3120      -999.2500        91.0206
    2950.76880        12.2500      -999.2500        82.5965      -999.2500         3.2823      -999.2500        90.9698
    2950.92120        12.2500      -999.2500        82.6718      -999.2500         3.2527      -999.2500        90.9191
    2951.07360        12.2500      -999.2500        82.7896      -999.2500         3.2294      -999.2500        90.8645
    2951.22600        12.2500      -999.2500        82.9532      -999.2500         3.2131      -999.2500        90.8058
    2951.37840        12.2500      -999.2500        83.1168      -999.2500         3.1967      -999.2500        90.7471
    2951.53080        12.2500      -999.2500        83.3081      -999.2500         3.1803      -999.2500        90.6689
    2951.68320        12.2500      -999.2500        83.6089      -999.2500         3.1640      -999.2500        90.5138
    2951.83560        12.2500      -999.2500        83.9097      -999.2500         3.1476      -999.2500        90.3587
    2951.98800        12.2500      -999.2500        84.2105      -999.2500         3.1313      -999.2500        90.2036
    2952.14040        12.2500      -999.2500        84.1958      -999.2500         3.0979      -999.2500        90.4775
    2952.29280        12.2500      -999.2500        84.1542      -999.2500         3.0632      -999.2500        90.7880
    2952.44520        12.2500      -999.2500        84.1125      -999.2500         3.0284      -999.2500        91.0986
    2952.59760        12.2500      -999.2500        84.0705      -999.2500         2.9875      -999.2500        91.2139
    2952.75000        12.2500      -999.2500        84.0284      -999.2500         2.9433      -999.2500        91.2195
    2952.90240        12.2500      -999.2500        83.9864      -999.2500         2.8990      -999.2500        91.2251
    2953.05480        12.2500      -999.2500        83.9283      -999.2500         2.8548      -999.2500        91.1848
    2953.20720        12.2500      -999.2500        83.8419      -999.2500         2.8105      -999.2500        91.0628
    2953.35960        12.2500      -999.2500        83.7555      -999.2500         2.7662      -999.2500        90.9407
    2953.51200        12.2500      -999.2500        83.6871      -999.2500         2.7219      -999.2500        90.8056
    2953.66440        12.2500      -999.2500        83.8302      -999.2500         2.6759      -999.2500        90.5167
    2953.81680        12.2500      -999.2500        83.9734      -999.2500         2.6300      -999.2500        90.2278
    2953.96920        12.2500      -999.2500        84.1165      -999.2500         2.5840      -999.2500        89.9389
    2954.12160        12.2500      -999.2500        84.4017      -999.2500         2.5376      -999.2500        89.9883
    2954.27400        12.2500      -999.2500        84.7229      -999.2500         2.4911      -999.2500        90.1232
    2954.42640        12.2500      -999.2500        85.0441      -999.2500         2.4446      -999.2500        90.2582
    2954.57880        12.2500      -999.2500        85.3079      -999.2500         2.3986      -999.2500        90.4975
    2954.73120        12.2500      -999.2500        85.5181      -999.2500         2.3531      -999.2500        90.8341
    2954.88360        12.2500      -999.2500        85.7283      -999.2500         2.3077      -999.2500        91.1707
    2955.03600        12.2500      -999.2500        85.7897      -999.2500         2.2723      -999.2500        91.3762
    2955.18840        12.2500      -999.2500        85.3698      -999.2500         2.2693      -999.2500        91.1574
    2955.34080        12.2500      -999.2500        84.9499      -999.2500         2.2662      -999.2500        90.9387
    2955.49320        12.2500      -999.2500        84.5300      -999.2500         2.2632      -999.2500        90.7200
    2955.64560        12.2500      -999.2500        83.4517      -999.2500         2.2631      -999.2500        90.6440
    2955.79800        12.2500      -999.2500        82.3427      -999.2500         2.2631      -999.2500        90.5747
    2955.95040        12.2500      -999.2500        81.2336      -999.2500         2.2631      -999.2500        90.5053
    2956.10280        12.2500      -999.2500        80.4739      -999.2500         2.2639      -999.2500        90.5238
    2956.25520        12.2500      -999.2500        79.8827      -999.2500         2.2651      -999.2500        90.5847
    2956.40760        12.2500      -999.2500        79.2916      -999.2500         2.2663      -999.2500        90.6456
    2956.56000        12.2500      -999.2500        79.2490      -999.2500         2.2786      -999.2500        90.6553
    2956.71240        12.2500      -999.2500        80.0512      -999.2500         2.3082      -999.2500        90.5861
    2956.86480        12.2500      -999.2500        80.8534      -999.2500         2.3378      -999.2500        90.5169
