~Version Information Block
VERS .                 2.00:  CWLS LOG ASCII STANDARD - VERSION 2.00
WRAP .                   NO:  One line per depth step
~Well Information Block
#MNEM.UNIT        Data Type   Information
#---------- ----------------  -----------
STRT .M             6.09600:  START DEPTH
STOP .M          3796.43640:  STOP DEPTH
STEP .M             0.15240:  STEP
NULL .              -999.25:  NULL VALUE
COMP .                     :  COMPANY
WELL .             Kapuni-3:  WELL
FLD  .                     :  FIELD
LOC  .                     :  LOCATION
CTRY .                     :  COUNTRY
STAT .                     :  STATE
CNTY .                     :  COUNTY
SRVC .     Shell BP & Todd Oil Services Ltd:  SERVICE COMPANY
DATE .                     :  DATE
API  .                     :  API NUMBER
UWI  .         100000502146:  UNIQUE WELL ID
LATI .          -39.5051918:  LATITUDE
LONG .          174.1760385:  LONGITUDE
~Curve Information Block
#MNEM.UNIT         API CODE   Curve Description
#---------- ----------------  -----------------
DEPTH.M                    :  
BS   .IN                   :  Bit Size (Created in Geolog)
CALI .IN                   :  (CALI)
DTC  .US/F                 :  (DT)
GR   .GAPI                 :  (GR)
RESD .OHMM                 :  Long normal (ES) (RES_DEP)
RESM .OHMM                 :  I6FR (IES) (RES_MED)
SP   .MV                   :  SP-10 (SP)
~Parameter Information Block
#MNEM.UNIT            Value   Description
#---------- ----------------  -----------
CUR_INT_BOT.M              3796.5:  Current interpolated bottom
PROJECT.     New Zealand Log QC Project:  
SET  .     A0_FINAL_INTER_REF_D:  
ELEVATION_AMSL.M              136.86:  Elevation above mean sea level
ELEVATION_REF.                   DF:  Measurement reference
FORMATION_AT_TD.         Kapuni Group:  Formation at TD
GL_ELEVATION_AMSL.M            131.1000:  Ground level elevation above mean sea level
LICENCE_NUMBER.             PML38839:  Licence number
ONSHORE_OR_OFFSHORE.              Onshore:  Onshore/offshore
PR_NUMBER.                PR465:  Petroleum report number
SPUD_DATE.           21/04/1962:  Spud date
STATUS_AT_COMPLETION.     Tested and completed as a potential producer:  Status at completion
TD_DATE.           24/06/1962:  Total depth date
TOTAL_DEPTH_DRILLED.M              3796.9:  Total depth drilled
~Other Information Block
# 
~A       DEPTH             BS           CALI            DTC             GR           RESD           RESM             SP 
# ...
    2242.26120        12.2500      -999.2500        76.7649      -999.2500         8.3478      -999.2500        46.6585
    2242.41360        12.2500      -999.2500        76.3252      -999.2500         8.3922      -999.2500        45.8683
    2242.56600        12.2500      -999.2500        76.1596      -999.2500         8.4394      -999.2500        45.4271
    2242.71840        12.2500      -999.2500        76.3530      -999.2500         8.4899      -999.2500        45.4427
    2242.87080        12.2500      -999.2500        76.5464      -999.2500         8.5405      -999.2500        45.4584
    2243.02320        12.2500      -999.2500        76.5083      -999.2500         8.5602      -999.2500        45.5032
    2243.17560        12.2500      -999.2500        75.1813      -999.2500         8.4082      -999.2500        45.7104
    2243.32800        12.2500      -999.2500        73.8542      -999.2500         8.2562      -999.2500        45.9176
    2243.48040        12.2500      -999.2500        72.5271      -999.2500         8.1042      -999.2500        46.1248
    2243.63280        12.2500      -999.2500        71.7761      -999.2500         8.0549      -999.2500        46.1078
    2243.78520        12.2500      -999.2500        71.1101      -999.2500         8.0207      -999.2500        46.0578
    2243.93760        12.2500      -999.2500        70.4440      -999.2500         7.9865      -999.2500        46.0079
    2244.09000        12.2500      -999.2500        71.3162      -999.2500         7.9692      -999.2500        46.0459
    2244.24240        12.2500      -999.2500        73.2550      -999.2500         7.9638      -999.2500        46.1451
    2244.39480        12.2500      -999.2500        75.1938      -999.2500         7.9583      -999.2500        46.2442
    2244.54720        12.2500      -999.2500        76.6824      -999.2500         7.9426      -999.2500        46.4129
    2244.69960        12.2500      -999.2500        77.1680      -999.2500         7.9041      -999.2500        46.7364
    2244.85200        12.2500      -999.2500        77.6535      -999.2500         7.8655      -999.2500        47.0600
    2245.00440        12.2500      -999.2500        78.1232      -999.2500         7.8314      -999.2500        47.3748
    2245.15680        12.2500      -999.2500        78.0592      -999.2500         7.9465      -999.2500        47.3941
    2245.30920        12.2500      -999.2500        77.9952      -999.2500         8.0615      -999.2500        47.4135
    2245.46160        12.2500      -999.2500        77.9313      -999.2500         8.1766      -999.2500        47.4328
    2245.61400        12.2500      -999.2500        77.6724      -999.2500         8.3237      -999.2500        47.4034
    2245.76640        12.2500      -999.2500        77.3479      -999.2500         8.4816      -999.2500        47.3574
    2245.91880        12.2500      -999.2500        77.0234      -999.2500         8.6395      -999.2500        47.3115
    2246.07120        12.2500      -999.2500        76.1509      -999.2500         8.7984      -999.2500        47.4083
    2246.22360        12.2500      -999.2500        74.6534      -999.2500         8.9586      -999.2500        47.6680
    2246.37600        12.2500      -999.2500        73.1560      -999.2500         9.1188      -999.2500        47.9276
    2246.52840        12.2500      -999.2500        71.9628      -999.2500         9.2643      -999.2500        48.1414
    2246.68080        12.2500      -999.2500        72.0982      -999.2500         9.3460      -999.2500        48.1552
    2246.83320        12.2500      -999.2500        72.2336      -999.2500         9.4277      -999.2500        48.1690
    2246.98560        12.2500      -999.2500        72.3690      -999.2500         9.5093      -999.2500        48.1828
    2247.13800        12.2500      -999.2500        73.1000      -999.2500         9.5170      -999.2500        48.7746
    2247.29040        12.2500      -999.2500        73.8930      -999.2500         9.5170      -999.2500        49.4267
    2247.44280        12.2500      -999.2500        74.6861      -999.2500         9.5170      -999.2500        50.0788
    2247.59520        12.2500      -999.2500        75.7703      -999.2500         9.5223      -999.2500        51.5429
    2247.74760        12.2500      -999.2500        77.0294      -999.2500         9.5306      -999.2500        53.4949
    2247.90000        12.2500      -999.2500        78.2885      -999.2500         9.5390      -999.2500        55.4469
    2248.05240        12.2500      -999.2500        79.2938      -999.2500         9.5715      -999.2500        57.7602
    2248.20480        12.2500      -999.2500        79.8148      -999.2500         9.6500      -999.2500        60.7628
    2248.35720        12.2500      -999.2500        80.3359      -999.2500         9.7285      -999.2500        63.7654
    2248.50960        12.2500      -999.2500        80.8262      -999.2500         9.8096      -999.2500        66.7336
    2248.66200        12.2500      -999.2500        80.8592      -999.2500         9.9289      -999.2500        69.1907
    2248.81440        12.2500      -999.2500        80.8922      -999.2500        10.0482      -999.2500        71.6478
    2248.96680        12.2500      -999.2500        80.9252      -999.2500        10.1674      -999.2500        74.1048
    2249.11920        12.2500      -999.2500        80.0399      -999.2500        10.2324      -999.2500        75.1425
    2249.27160        12.2500      -999.2500        78.8987      -999.2500        10.2823      -999.2500        75.7849
    2249.42400        12.2500      -999.2500        77.7576      -999.2500        10.3322      -999.2500        76.4272
    2249.57640        12.2500      -999.2500        76.8680      -999.2500        10.3955      -999.2500        76.7697
    2249.72880        12.2500      -999.2500        76.2285      -999.2500        10.4723      -999.2500        76.8139
    2249.88120        12.2500      -999.2500        75.5891      -999.2500        10.5490      -999.2500        76.8580
    2250.03360        12.2500      -999.2500        74.9835      -999.2500        10.6219      -999.2500        76.9063
    2250.18600        12.2500      -999.2500        74.4976      -999.2500        10.6811      -999.2500        76.9688
    2250.33840        12.2500      -999.2500        74.0117      -999.2500        10.7403      -999.2500        77.0314
    2250.49080        12.2500      -999.2500        73.5258      -999.2500        10.7995      -999.2500        77.0940
    2250.64320        12.2500      -999.2500        74.4556      -999.2500        10.9112      -999.2500        77.1430
    2250.79560        12.2500      -999.2500        75.4763      -999.2500        11.0262      -999.2500        77.1910
    2250.94800        12.2500      -999.2500        76.4971      -999.2500        11.1412      -999.2500        77.2391
    2251.10040        12.2500      -999.2500        75.8617      -999.2500        11.2562      -999.2500        76.9719
    2251.25280        12.2500      -999.2500        74.3685      -999.2500        11.3712      -999.2500        76.5415
    2251.40520        12.2500      -999.2500        72.8753      -999.2500        11.4863      -999.2500        76.1111
    2251.55760        12.2500      -999.2500        72.3421      -999.2500        11.5302      -999.2500        75.8358
    2251.71000        12.2500      -999.2500        73.3888      -999.2500        11.4571      -999.2500        75.8158
    2251.86240        12.2500      -999.2500        74.4355      -999.2500        11.3840      -999.2500        75.7958
    2252.01480        12.2500      -999.2500        75.5029      -999.2500        11.2712      -999.2500        75.7308
    2252.16720        12.2500      -999.2500        76.7629      -999.2500        10.7889      -999.2500        75.2478
    2252.31960        12.2500      -999.2500        78.0230      -999.2500        10.3067      -999.2500        74.7648
