~Version Information Block
VERS .                 2.00:  CWLS LOG ASCII STANDARD - VERSION 2.00
WRAP .                   NO:  One line per depth step
~Well Information Block
#MNEM.UNIT        Data Type   Information
#---------- ----------------  -----------
STRT .M             5.63880:  START DEPTH
STOP .M          4194.35280:  STOP DEPTH
STEP .M             0.15240:  STEP
NULL .              -999.25:  NULL VALUE
COMP .                     :  COMPANY
WELL .             Kapuni-2:  WELL
FLD  .                     :  FIELD
LOC  .                     :  LOCATION
CTRY .                     :  COUNTRY
STAT .                     :  STATE
CNTY .                     :  COUNTY
SRVC .     Shell BP & Todd Oil Services Ltd:  SERVICE COMPANY
DATE .                     :  DATE
API  .                     :  API NUMBER
UWI  .         100000021910:  UNIQUE WELL ID
LATI .          -39.4921223:  LATITUDE
LONG .          174.1702607:  LONGITUDE
~Curve Information Block
#MNEM.UNIT         API CODE   Curve Description
#---------- ----------------  -----------------
DEPTH.M                    :  
BS   .IN                   :  Bit Size (Created in Geolog)
CALI .IN                   :  Normalised log, not for display purpose (CALI)
DTC  .US/F                 :  splice of bcsl & bcsl_01r (DT)
GR   .GAPI                 :  (GR)
RESD .OHMM                 :  ln_e (RES_DEP)
RESM .OHMM                 :  i5fr_00j (RES_MED)
SP   .MV                   :  SP_E+130, K1 & K2 bit + 100 (SP)
~Parameter Information Block
#MNEM.UNIT            Value   Description
#---------- ----------------  -----------
CUR_INT_BOT.M              4194.5:  Current interpolated bottom
PROJECT.     New Zealand Log QC Project:  
SET  .     A0_FINAL_INTER_REF_D:  
ELEVATION_AMSL.M               157.3:  Elevation above mean sea level
ELEVATION_REF.                   DF:  Measurement reference
FORMATION_AT_TD.           Mangaotaki:  Formation at TD
GL_ELEVATION_AMSL.M            152.1000:  Ground level elevation above mean sea level
LICENCE_NUMBER.             PML38839:  Licence number
ONSHORE_OR_OFFSHORE.              Onshore:  Onshore/offshore
PR_NUMBER.                PR464:  Petroleum report number
SPUD_DATE.           09/11/1961:  Spud date
STATUS_AT_COMPLETION.            Completed:  Status at completion
TD_DATE.           27/01/1962:  Total depth date
TOTAL_DEPTH_DRILLED.M             4194.66:  Total depth drilled
~Other Information Block
# 
~A       DEPTH             BS           CALI            DTC             GR           RESD           RESM             SP 
# ...
     505.96800        17.5000        13.8566       143.2797      -999.2500        22.3100      -999.2500        50.2045
     506.12040        17.5000        13.7325       143.5343      -999.2500        22.3100      -999.2500        50.3144
     506.27280        17.5000        13.5921       143.8016      -999.2500        22.3100      -999.2500        50.4148
     506.42520        17.5000        13.4518       144.0689      -999.2500        22.3100      -999.2500        50.5152
     506.57760        17.5000        13.4513       144.4014      -999.2500        22.3100      -999.2500        50.5793
     506.73000        17.5000        13.5857       144.7968      -999.2500        22.3100      -999.2500        50.6084
     506.88240        17.5000        13.7201       145.1922      -999.2500        22.3100      -999.2500        50.6375
     507.03480        17.5000        13.7677       145.2592      -999.2500        22.3100      -999.2500        50.6615
     507.18720        17.5000        13.5215       144.2165      -999.2500        22.3102      -999.2500        50.6684
     507.33960        17.5000        13.2754       143.1738      -999.2500        22.3104      -999.2500        50.6753
     507.49200        17.5000        13.0293       142.1311      -999.2500        22.3105      -999.2500        50.6822
     507.64440        17.5000        13.2482       142.8956      -999.2500        22.3426      -999.2500        50.7578
     507.79680        17.5000        13.4929       143.7603      -999.2500        22.3765      -999.2500        50.8373
     507.94920        17.5000        13.7376       144.6250      -999.2500        22.4103      -999.2500        50.9168
     508.10160        17.5000        13.7237       144.7717      -999.2500        22.4596      -999.2500        51.0629
     508.25400        17.5000        13.5804       144.5594      -999.2500        22.5165      -999.2500        51.2423
     508.40640        17.5000        13.4372       144.3471      -999.2500        22.5734      -999.2500        51.4217
     508.55880        17.5000        13.3007       144.1092      -999.2500        22.6252      -999.2500        51.5814
     508.71120        17.5000        13.1747       143.8306      -999.2500        22.6688      -999.2500        51.7096
     508.86360        17.5000        13.0487       143.5520      -999.2500        22.7124      -999.2500        51.8379
     509.01600        17.5000        12.9343       143.2765      -999.2500        22.7752      -999.2500        51.9309
     509.16840        17.5000        12.9179       143.0280      -999.2500        23.0010      -999.2500        51.7237
     509.32080        17.5000        12.9016       142.7795      -999.2500        23.2269      -999.2500        51.5165
     509.47320        17.5000        12.8853       142.5311      -999.2500        23.4527      -999.2500        51.3093
     509.62560        17.5000        12.8809       143.4110      -999.2500        23.5571      -999.2500        51.0717
     509.77800        17.5000        12.8790       144.5317      -999.2500        23.6355      -999.2500        50.8276
     509.93040        17.5000        12.8771       145.6525      -999.2500        23.7139      -999.2500        50.5835
     510.08280        17.5000        12.8398       145.5824      -999.2500        23.7627      -999.2500        50.6040
     510.23520        17.5000        12.7729       144.5115      -999.2500        23.7864      -999.2500        50.8469
     510.38760        17.5000        12.7060       143.4406      -999.2500        23.8102      -999.2500        51.0899
     510.54000        17.5000        12.6615       142.0610      -999.2500        23.8988      -999.2500        51.6159
     510.69240        17.5000        12.6802       139.8139      -999.2500        24.1696      -999.2500        52.9373
     510.84480        17.5000        12.6990       137.5669      -999.2500        24.4403      -999.2500        54.2588
     510.99720        17.5000        12.7177       135.3198      -999.2500        24.7111      -999.2500        55.5802
     511.14960        17.5000        12.6957       137.7593      -999.2500        25.1479      -999.2500        56.7181
     511.30200        17.5000        12.6729       140.2866      -999.2500        25.5878      -999.2500        57.8526
     511.45440        17.5000        12.6500       142.8138      -999.2500        26.0277      -999.2500        58.9871
     511.60680        17.5000        12.6229       142.0306      -999.2500        26.3838      -999.2500        59.0225
     511.75920        17.5000        12.5940       139.8339      -999.2500        26.7043      -999.2500        58.5886
     511.91160        17.5000        12.5650       137.6372      -999.2500        27.0247      -999.2500        58.1547
     512.06400        17.5000        12.5730       136.2665      -999.2500        27.2332      -999.2500        58.1258
     512.21640        17.5000        12.6320       136.0365      -999.2500        27.2873      -999.2500        58.6562
     512.36880        17.5000        12.6911       135.8065      -999.2500        27.3414      -999.2500        59.1867
     512.52120        17.5000        12.7355       135.6405      -999.2500        27.4096      -999.2500        59.5572
     512.67360        17.5000        12.6899       135.8706      -999.2500        27.5650      -999.2500        58.9381
     512.82600        17.5000        12.6443       136.1008      -999.2500        27.7203      -999.2500        58.3189
     512.97840        17.5000        12.5987       136.3309      -999.2500        27.8756      -999.2500        57.6998
     513.13080        17.5000        12.6608       136.9844      -999.2500        28.2756      -999.2500        57.6529
     513.28320        17.5000        12.7407       137.7077      -999.2500        28.7160      -999.2500        57.7005
     513.43560        17.5000        12.8206       138.4310      -999.2500        29.1564      -999.2500        57.7481
     513.58800        17.5000        12.8425       137.9904      -999.2500        29.5321      -999.2500        58.6141
     513.74040        17.5000        12.8220       136.6979      -999.2500        29.8605      -999.2500        60.0790
     513.89280        17.5000        12.8014       135.4054      -999.2500        30.1889      -999.2500        61.5440
     514.04520        17.5000        12.7890       134.6324      -999.2500        30.6027      -999.2500        62.5458
     514.19760        17.5000        12.7956       135.0914      -999.2500        31.2191      -999.2500        62.4495
     514.35000        17.5000        12.8022       135.5504      -999.2500        31.8355      -999.2500        62.3531
     514.50240        17.5000        12.8086       136.0272      -999.2500        32.4553      -999.2500        62.2505
     514.65480        17.5000        12.7963       137.6209      -999.2500        33.2832      -999.2500        61.7623
     514.80720        17.5000        12.7839       139.2146      -999.2500        34.1111      -999.2500        61.2741
     514.95960        17.5000        12.7716       140.8082      -999.2500        34.9390      -999.2500        60.7858
     515.11200        17.5000        12.7824       139.8922      -999.2500        36.0232      -999.2500        61.9754
     515.26440        17.5000        12.8015       138.0708      -999.2500        37.1999      -999.2500        63.7702
     515.41680        17.5000        12.8205       136.2495      -999.2500        38.3766      -999.2500        65.5650
     515.56920        17.5000        12.8313       134.8481      -999.2500        39.7350      -999.2500        67.9691
     515.72160        17.5000        12.8323       133.9516      -999.2500        41.3118      -999.2500        71.1059
     515.87400        17.5000        12.8332       133.0551      -999.2500        42.8886      -999.2500        74.2426
     516.02640        17.5000        12.8341       132.4914      -999.2500        44.4903      -999.2500        77.2457
