~Version Information Block
VERS .                 2.00:  CWLS LOG ASCII STANDARD - VERSION 2.00
WRAP .                   NO:  One line per depth step
~Well Information Block
#MNEM.UNIT        Data Type   Information
#---------- ----------------  -----------
STRT .M             6.09600:  START DEPTH
STOP .M          3796.43640:  STOP DEPTH
STEP .M             0.15240:  STEP
NULL .              -999.25:  NULL VALUE
COMP .                     :  COMPANY
WELL .             Kapuni-3:  WELL
FLD  .                     :  FIELD
LOC  .                     :  LOCATION
CTRY .                     :  COUNTRY
STAT .                     :  STATE
CNTY .                     :  COUNTY
SRVC .     Shell BP & Todd Oil Services Ltd:  SERVICE COMPANY
DATE .                     :  DATE
API  .                     :  API NUMBER
UWI  .         100000502146:  UNIQUE WELL ID
LATI .          -39.5051918:  LATITUDE
LONG .          174.1760385:  LONGITUDE
~Curve Information Block
#MNEM.UNIT         API CODE   Curve Description
#---------- ----------------  -----------------
DEPTH.M                    :  
BS   .IN                   :  Bit Size (Created in Geolog)
CALI .IN                   :  (CALI)
DTC  .US/F                 :  (DT)
GR   .GAPI                 :  (GR)
RESD .OHMM                 :  Long normal (ES) (RES_DEP)
RESM .OHMM                 :  I6FR (IES) (RES_MED)
SP   .MV                   :  SP-10 (SP)
~Parameter Information Block
#MNEM.UNIT            Value   Description
#---------- ----------------  -----------
CUR_INT_BOT.M              3796.5:  Current interpolated bottom
PROJECT.     New Zealand Log QC Project:  
SET  .     A0_FINAL_INTER_REF_D:  
ELEVATION_AMSL.M              136.86:  Elevation above mean sea level
ELEVATION_REF.                   DF:  Measurement reference
FORMATION_AT_TD.         Kapuni Group:  Formation at TD
GL_ELEVATION_AMSL.M            131.1000:  Ground level elevation above mean sea level
LICENCE_NUMBER.             PML38839:  Licence number
ONSHORE_OR_OFFSHORE.              Onshore:  Onshore/offshore
PR_NUMBER.                PR465:  Petroleum report number
SPUD_DATE.           21/04/1962:  Spud date
STATUS_AT_COMPLETION.     Tested and completed as a potential producer:  Status at completion
TD_DATE.           24/06/1962:  Total depth date
TOTAL_DEPTH_DRILLED.M              3796.9:  Total depth drilled
~Other Information Block
# 
~A       DEPTH             BS           CALI            DTC             GR           RESD           RESM             SP 
# ...
    1823.61840        12.2500      -999.2500        73.9628      -999.2500        13.2542      -999.2500        57.2003
    1823.77080        12.2500      -999.2500        79.6598      -999.2500        13.4389      -999.2500        57.7011
    1823.92320        12.2500      -999.2500        85.3569      -999.2500        13.6236      -999.2500        58.2020
    1824.07560        12.2500      -999.2500        89.3441      -999.2500        13.7113      -999.2500        58.0042
    1824.22800        12.2500      -999.2500        91.5943      -999.2500        13.7002      -999.2500        57.0967
    1824.38040        12.2500      -999.2500        93.8444      -999.2500        13.6891      -999.2500        56.1893
    1824.53280        12.2500      -999.2500        95.3718      -999.2500        13.6957      -999.2500        55.4804
    1824.68520        12.2500      -999.2500        94.2636      -999.2500        13.7664      -999.2500        55.4953
    1824.83760        12.2500      -999.2500        93.1554      -999.2500        13.8371      -999.2500        55.5102
    1824.99000        12.2500      -999.2500        92.0472      -999.2500        13.9078      -999.2500        55.5251
    1825.14240        12.2500      -999.2500        90.7024      -999.2500        13.9857      -999.2500        55.6947
    1825.29480        12.2500      -999.2500        89.3410      -999.2500        14.0641      -999.2500        55.8752
    1825.44720        12.2500      -999.2500        87.9796      -999.2500        14.1426      -999.2500        56.0557
    1825.59960        12.2500      -999.2500        87.2672      -999.2500        14.1526      -999.2500        56.0025
    1825.75200        12.2500      -999.2500        86.8988      -999.2500        14.1265      -999.2500        55.8255
    1825.90440        12.2500      -999.2500        86.5305      -999.2500        14.1003      -999.2500        55.6484
    1826.05680        12.2500      -999.2500        86.0148      -999.2500        14.1238      -999.2500        55.6386
    1826.20920        12.2500      -999.2500        85.2512      -999.2500        14.2311      -999.2500        55.9100
    1826.36160        12.2500      -999.2500        84.4876      -999.2500        14.3383      -999.2500        56.1814
    1826.51400        12.2500      -999.2500        83.8956      -999.2500        14.4359      -999.2500        56.4843
    1826.66640        12.2500      -999.2500        84.9997      -999.2500        14.4385      -999.2500        57.0987
    1826.81880        12.2500      -999.2500        86.1038      -999.2500        14.4411      -999.2500        57.7131
    1826.97120        12.2500      -999.2500        87.2080      -999.2500        14.4437      -999.2500        58.3275
    1827.12360        12.2500      -999.2500        87.7792      -999.2500        14.2562      -999.2500        58.3326
    1827.27600        12.2500      -999.2500        88.2264      -999.2500        14.0243      -999.2500        58.1956
    1827.42840        12.2500      -999.2500        88.6735      -999.2500        13.7925      -999.2500        58.0586
    1827.58080        12.2500      -999.2500        88.6309      -999.2500        13.4597      -999.2500        57.9786
    1827.73320        12.2500      -999.2500        88.1543      -999.2500        13.0373      -999.2500        57.9492
    1827.88560        12.2500      -999.2500        87.6777      -999.2500        12.6150      -999.2500        57.9198
    1828.03800        12.2500      -999.2500        86.7858      -999.2500        12.2822      -999.2500        57.9772
    1828.19040        12.2500      -999.2500        84.6437      -999.2500        12.2192      -999.2500        58.2962
    1828.34280        12.2500      -999.2500        82.5015      -999.2500        12.1561      -999.2500        58.6152
    1828.49520        12.2500      -999.2500        80.3594      -999.2500        12.0930      -999.2500        58.9342
    1828.64760        12.2500      -999.2500        79.3752      -999.2500        12.2128      -999.2500        58.5555
    1828.80000        12.2500      -999.2500        78.4286      -999.2500        12.3385      -999.2500        58.1542
    1828.95240        12.2500      -999.2500        77.4820      -999.2500        12.4642      -999.2500        57.7529
    1829.10480        12.2500      -999.2500        76.1645      -999.2500        12.6258      -999.2500        57.6743
    1829.25720        12.2500      -999.2500        74.6785      -999.2500        12.8035      -999.2500        57.7423
    1829.40960        12.2500      -999.2500        73.1926      -999.2500        12.9813      -999.2500        57.8103
    1829.56200        12.2500      -999.2500        73.0665      -999.2500        13.0323      -999.2500        57.8428
    1829.71440        12.2500      -999.2500        74.9231      -999.2500        12.8984      -999.2500        57.8236
    1829.86680        12.2500      -999.2500        76.7798      -999.2500        12.7645      -999.2500        57.8043
    1830.01920        12.2500      -999.2500        78.8764      -999.2500        12.6218      -999.2500        57.7063
    1830.17160        12.2500      -999.2500        82.6379      -999.2500        12.4177      -999.2500        57.0618
    1830.32400        12.2500      -999.2500        86.3994      -999.2500        12.2137      -999.2500        56.4174
    1830.47640        12.2500      -999.2500        90.1609      -999.2500        12.0096      -999.2500        55.7729
    1830.62880        12.2500      -999.2500        88.6169      -999.2500        12.0882      -999.2500        56.0726
    1830.78120        12.2500      -999.2500        86.1007      -999.2500        12.2186      -999.2500        56.5453
    1830.93360        12.2500      -999.2500        83.5846      -999.2500        12.3489      -999.2500        57.0180
    1831.08600        12.2500      -999.2500        82.4137      -999.2500        12.4027      -999.2500        57.3971
    1831.23840        12.2500      -999.2500        82.2813      -999.2500        12.3973      -999.2500        57.7038
    1831.39080        12.2500      -999.2500        82.1490      -999.2500        12.3919      -999.2500        58.0106
    1831.54320        12.2500      -999.2500        82.5124      -999.2500        12.3584      -999.2500        58.1715
    1831.69560        12.2500      -999.2500        84.1290      -999.2500        12.2537      -999.2500        57.9636
    1831.84800        12.2500      -999.2500        85.7455      -999.2500        12.1490      -999.2500        57.7557
    1832.00040        12.2500      -999.2500        87.3591      -999.2500        12.0442      -999.2500        57.5487
    1832.15280        12.2500      -999.2500        87.8518      -999.2500        11.8979      -999.2500        57.7153
    1832.30520        12.2500      -999.2500        88.3446      -999.2500        11.7515      -999.2500        57.8819
    1832.45760        12.2500      -999.2500        88.8373      -999.2500        11.6052      -999.2500        58.0484
    1832.61000        12.2500      -999.2500        89.2721      -999.2500        11.4416      -999.2500        58.0620
    1832.76240        12.2500      -999.2500        89.6847      -999.2500        11.2713      -999.2500        58.0167
    1832.91480        12.2500      -999.2500        90.0972      -999.2500        11.1011      -999.2500        57.9713
    1833.06720        12.2500      -999.2500        90.5860      -999.2500        10.9123      -999.2500        57.9237
    1833.21960        12.2500      -999.2500        91.1713      -999.2500        10.7000      -999.2500        57.8732
    1833.37200        12.2500      -999.2500        91.7565      -999.2500        10.4876      -999.2500        57.8227
    1833.52440        12.2500      -999.2500        92.3449      -999.2500        10.2991      -999.2500        57.8067
    1833.67680        12.2500      -999.2500        92.9494      -999.2500        10.2352      -999.2500        57.9712
