~Version Information Block
VERS .                 2.00:  CWLS LOG ASCII STANDARD - VERSION 2.00
WRAP .                   NO:  One line per depth step
~Well Information Block
#MNEM.UNIT        Data Type   Information
#---------- ----------------  -----------
STRT .M             5.63880:  START DEPTH
STOP .M          4194.35280:  STOP DEPTH
STEP .M             0.15240:  STEP
NULL .              -999.25:  NULL VALUE
COMP .                     :  COMPANY
WELL .             Kapuni-2:  WELL
FLD  .                     :  FIELD
LOC  .                     :  LOCATION
CTRY .                     :  COUNTRY
STAT .                     :  STATE
CNTY .                     :  COUNTY
SRVC .     Shell BP & Todd Oil Services Ltd:  SERVICE COMPANY
DATE .                     :  DATE
API  .                     :  API NUMBER
UWI  .         100000021910:  UNIQUE WELL ID
LATI .          -39.4921223:  LATITUDE
LONG .          174.1702607:  LONGITUDE
~Curve Information Block
#MNEM.UNIT         API CODE   Curve Description
#---------- ----------------  -----------------
DEPTH.M                    :  
BS   .IN                   :  Bit Size (Created in Geolog)
CALI .IN                   :  Normalised log, not for display purpose (CALI)
DTC  .US/F                 :  splice of bcsl & bcsl_01r (DT)
GR   .GAPI                 :  (GR)
RESD .OHMM                 :  ln_e (RES_DEP)
RESM .OHMM                 :  i5fr_00j (RES_MED)
SP   .MV                   :  SP_E+130, K1 & K2 bit + 100 (SP)
~Parameter Information Block
#MNEM.UNIT            Value   Description
#---------- ----------------  -----------
CUR_INT_BOT.M              4194.5:  Current interpolated bottom
PROJECT.     New Zealand Log QC Project:  
SET  .     A0_FINAL_INTER_REF_D:  
ELEVATION_AMSL.M               157.3:  Elevation above mean sea level
ELEVATION_REF.                   DF:  Measurement reference
FORMATION_AT_TD.           Mangaotaki:  Formation at TD
GL_ELEVATION_AMSL.M            152.1000:  Ground level elevation above mean sea level
LICENCE_NUMBER.             PML38839:  Licence number
ONSHORE_OR_OFFSHORE.              Onshore:  Onshore/offshore
PR_NUMBER.                PR464:  Petroleum report number
SPUD_DATE.           09/11/1961:  Spud date
STATUS_AT_COMPLETION.            Completed:  Status at completion
TD_DATE.           27/01/1962:  Total depth date
TOTAL_DEPTH_DRILLED.M             4194.66:  Total depth drilled
~Other Information Block
# 
~A       DEPTH             BS           CALI            DTC             GR           RESD           RESM             SP 
# ...
    3334.35960        12.2500         9.2928       100.4442        66.7779        44.4689        27.7535        57.8150
    3334.51200        12.2500         9.3509       113.0242        62.8418        44.4053        31.5189        58.3567
    3334.66440        12.2500         9.4922       120.9993        56.5194        44.3952        42.6298        58.7491
    3334.81680        12.2500         9.6336       128.9743        50.1970        44.3852        53.7407        59.1415
    3334.96920        12.2500         9.7749       136.9493        43.8746        44.3751        64.8516        59.5339
    3335.12160        12.2500         9.8572       138.8827        42.1427        44.5772        65.4114        59.7431
    3335.27400        12.2500         9.9245       139.2857        41.5736        44.8331        63.2987        59.9060
    3335.42640        12.2500         9.9919       139.6888        41.0045        45.0890        61.1860        60.0688
    3335.57880        12.2500        10.0503       138.0999        41.7875        45.6911        56.9434        60.1881
    3335.73120        12.2500        10.1003       134.6505        43.8334        46.6166        50.7114        60.2667
    3335.88360        12.2500        10.1503       131.2011        45.8792        47.5420        44.4795        60.3453
    3336.03600        12.2500        10.1134       128.1388        48.4546        48.7204        38.5250        60.4161
    3336.18840        12.2500         9.7958       126.3283        52.7422        50.7162        33.4673        60.4614
    3336.34080        12.2500         9.4782       124.5179        57.0297        52.7120        28.4097        60.5067
    3336.49320        12.2500         9.1605       122.7074        61.3173        54.7078        23.3521        60.5519
    3336.64560        12.2500         9.0865       108.2932        66.8349        55.5211        21.0055        60.5744
    3336.79800        12.2500         9.0239        93.2905        72.4101        56.2792        18.7855        60.5957
    3336.95040        12.2500         8.9612        78.2877        77.9852        57.0373        16.5655        60.6171
    3337.10280        12.2500         8.9162        73.4779        80.0588        55.7844        15.7618        60.7468
    3337.25520        12.2500         8.8797        73.5861        80.4430        53.5611        15.6415        60.9287
    3337.40760        12.2500         8.8432        73.6943        80.8271        51.3378        15.5212        61.1107
    3337.56000        12.2500         8.8434        74.8115        80.6705        49.1316        15.4989        61.2826
    3337.71240        12.2500         8.9003        77.4827        79.6810        46.9517        15.6273        61.4389
    3337.86480        12.2500         8.9571        80.1538        78.6915        44.7717        15.7558        61.5952
    3338.01720        12.2500         9.0092        82.2381        77.7639        42.6340        15.8300        61.7403
    3338.16960        12.2500         9.0243        79.7098        77.3232        40.8278        15.4778        61.7974
    3338.32200        12.2500         9.0394        77.1815        76.8826        39.0216        15.1255        61.8545
    3338.47440        12.2500         9.0545        74.6533        76.4419        37.2155        14.7732        61.9116
    3338.62680        12.2500         9.5365        85.1392        76.3348        36.2049        14.7930        62.1808
    3338.77920        12.2500        10.1129        98.2526        76.2951        35.3549        14.8880        62.4928
    3338.93160        12.2500        10.6893       111.3660        76.2554        34.5050        14.9830        62.8048
    3339.08400        12.2500        11.0005       117.3913        75.7414        33.8547        14.4833        62.8438
    3339.23640        12.2500        11.0958       117.6449        74.8411        33.3671        13.4993        62.6605
    3339.38880        12.2500        11.1911       117.8984        73.9409        32.8795        12.5153        62.4771
    3339.54120        12.2500        11.1659       116.5921        73.0615        32.4077        11.8261        62.2061
    3339.69360        12.2500        10.8155       111.0756        72.2387        31.9784        11.9325        61.6981
    3339.84600        12.2500        10.4650       105.5591        71.4159        31.5491        12.0390        61.1902
    3339.99840        12.2500        10.1146       100.0425        70.5932        31.1198        12.1454        60.6822
    3340.15080        12.2500        10.0292       108.9814        68.7019        30.8785        13.2755        60.5571
    3340.30320        12.2500         9.9467       118.0737        66.7993        30.6392        14.4164        60.4361
    3340.45560        12.2500         9.8641       127.1660        64.8967        30.3998        15.5573        60.3150
    3340.60800        12.2500         9.6644       120.8407        62.8439        30.6986        16.5809        60.2948
    3340.76040        12.2500         9.4165       108.1772        60.7293        31.2185        17.5563        60.3162
    3340.91280        12.2500         9.1686        95.5136        58.6146        31.7384        18.5317        60.3375
    3341.06520        12.2500         9.0030        85.9297        58.4127        31.9797        18.9934        60.3510
    3341.21760        12.2500         8.9476        80.4646        60.7687        31.8482        18.7680        60.3541
    3341.37000        12.2500         8.8922        74.9995        63.1247        31.7167        18.5426        60.3572
    3341.52240        12.2500         8.8436        70.2185        65.3964        31.5063        18.3170        60.3562
    3341.67480        12.2500         8.8349        69.4078        67.1794        30.8374        18.0906        60.3313
    3341.82720        12.2500         8.8262        68.5970        68.9624        30.1686        17.8642        60.3064
    3341.97960        12.2500         8.8176        67.7862        70.7454        29.4997        17.6378        60.2815
    3342.13200        12.2500         8.9325        76.8475        72.1755        30.0377        18.2838        60.2462
    3342.28440        12.2500         9.0665        87.4345        73.5510        30.7623        19.0647        60.2092
    3342.43680        12.2500         9.2005        98.0214        74.9266        31.4868        19.8456        60.1723
    3342.58920        12.2500         9.1730        96.3528        74.7706        32.4186        19.7358        60.1682
    3342.74160        12.2500         9.0311        86.0007        73.5295        33.4973        18.9948        60.1874
    3342.89400        12.2500         8.8891        75.6487        72.2884        34.5759        18.2538        60.2066
    3343.04640        12.2500         8.7989        70.0586        70.7621        35.2929        18.5559        60.2329
    3343.19880        12.2500         8.8267        75.3470        68.5841        35.1836        21.2409        60.2753
    3343.35120        12.2500         8.8546        80.6355        66.4062        35.0743        23.9259        60.3177
    3343.50360        12.2500         8.8878        86.1786        64.1769        34.9720        26.5410        60.3615
    3343.65600        12.2500         9.1409       102.2507        59.8258        35.1586        26.2632        60.4623
    3343.80840        12.2500         9.3940       118.3227        55.4747        35.3451        25.9854        60.5631
    3343.96080        12.2500         9.6471       134.3948        51.1235        35.5317        25.7075        60.6639
    3344.11320        12.2500         9.8114       136.1606        47.6215        36.9596        32.4913        61.1566
    3344.26560        12.2500         9.9449       132.9723        44.4135        38.8174        41.7204        61.7849
    3344.41800        12.2500        10.0785       129.7840        41.2056        40.6752        50.9495        62.4133
