~Version Information Block
VERS .                 2.00:  CWLS LOG ASCII STANDARD - VERSION 2.00
WRAP .                   NO:  One line per depth step
~Well Information Block
#MNEM.UNIT        Data Type   Information
#---------- ----------------  -----------
STRT .M             0.00000:  START DEPTH
STOP .M          3900.98280:  STOP DEPTH
STEP .M             0.15240:  STEP
NULL .              -999.25:  NULL VALUE
COMP .                     :  COMPANY
WELL .             Kapuni-4:  WELL
FLD  .                     :  FIELD
LOC  .                     :  LOCATION
CTRY .                     :  COUNTRY
STAT .                     :  STATE
CNTY .                     :  COUNTY
SRVC .     Shell BP & Todd Oil Services Ltd:  SERVICE COMPANY
DATE .                     :  DATE
API  .                     :  API NUMBER
UWI  .         100000021909:  UNIQUE WELL ID
LATI .           -39.450469:  LATITUDE
LONG .           174.172705:  LONGITUDE
~Curve Information Block
#MNEM.UNIT         API CODE   Curve Description
#---------- ----------------  -----------------
DEPTH.M                    :  
BS   .IN                   :  (BS)
CALI .IN                   :  (CALI)
DTC  .US/F                 :  (DT)
GR   .GAPI                 :  (GR)
RESD .OHMM                 :  LN (RES_DEP)
RESM .OHMM                 :  I5FR_01r (RES_MED)
SP   .MV                   :  SP+150 (SP)
~Parameter Information Block
#MNEM.UNIT            Value   Description
#---------- ----------------  -----------
CUR_INT_BOT.M                3901:  Current interpolated bottom
PROJECT.     New Zealand Log QC Project:  
SET  .     A0_FINAL_INTER_REF_D:  
ELEVATION_AMSL.M              232.56:  Elevation above mean sea level
ELEVATION_REF.                   DF:  Measurement reference
FORMATION_AT_TD.         Kapuni Group:  Formation at TD
GL_ELEVATION_AMSL.M            226.5000:  Ground level elevation above mean sea level
LICENCE_NUMBER.             PML38839:  Licence number
ONSHORE_OR_OFFSHORE.              Onshore:  Onshore/offshore
PR_NUMBER.                PR466:  Petroleum report number
SPUD_DATE.           20/08/1962:  Spud date
STATUS_AT_COMPLETION.     Completed as a future production well:  Status at completion
TD_DATE.           26/10/1962:  Total depth date
TOTAL_DEPTH_DRILLED.M             3901.44:  Total depth drilled
~Other Information Block
# 
~A       DEPTH             BS           CALI            DTC             GR           RESD           RESM             SP 
# ...
    3594.20160         8.5000         9.1243        68.2632        75.6163        33.9200         9.9125        31.3727
    3594.35400         8.5000         9.0989        68.2581        77.8924        34.0408         9.8595        31.4612
    3594.50640         8.5000         9.0736        68.2615        80.1170        34.1540         9.8274        31.5541
    3594.65880         8.5000         9.0530        68.4607        81.1645        34.0934        10.2713        31.7440
    3594.81120         8.5000         9.0325        68.6598        82.2119        34.0328        10.7153        31.9340
    3594.96360         8.5000         9.0119        68.8590        83.2594        33.9723        11.1592        32.1240
    3595.11600         8.5000         8.8370        70.7473        79.6988        33.3417        11.6370        32.4269
    3595.26840         8.5000         8.6138        73.1657        74.6922        32.5322        12.1253        32.7653
    3595.42080         8.5000         8.3905        75.5840        69.6856        31.7227        12.6137        33.1037
    3595.57320         8.5000         8.2754        78.2662        65.2148        30.6220        12.9987        32.9328
    3595.72560         8.5000         8.2773        81.2337        61.3237        29.2063        13.2720        32.2108
    3595.87800         8.5000         8.2791        84.2012        57.4326        27.7906        13.5453        31.4888
    3596.03040         8.5000         8.3328        86.5161        56.0815        26.5680        13.7480        30.4343
    3596.18280         8.5000         8.5944        86.2122        64.9235        26.1207        13.6674        28.0454
    3596.33520         8.5000         8.8559        85.9082        73.7656        25.6734        13.5867        25.6564
    3596.48760         8.5000         9.1174        85.6042        82.6076        25.2261        13.5060        23.2675
    3596.64000         8.5000         9.1647        85.1998        83.7181        26.4645        12.8406        22.1446
    3596.79240         8.5000         9.1930        84.7865        84.1439        27.8521        12.1234        21.1338
    3596.94480         8.5000         9.2213        84.3732        84.5696        29.2397        11.4063        20.1230
    3597.09720         8.5000         9.2398        83.2279        83.7765        31.0193        11.3848        20.6259
    3597.24960         8.5000         9.2529        81.6669        82.2912        33.0215        11.7584        21.9885
    3597.40200         8.5000         9.2659        80.1059        80.8060        35.0236        12.1320        23.3511
    3597.55440         8.5000         9.2779        79.0413        78.7687        36.4266        12.8708        24.4245
    3597.70680         8.5000         9.2881        78.8708        75.7369        36.7503        14.2675        24.9770
    3597.85920         8.5000         9.2982        78.7004        72.7052        37.0740        15.6641        25.5294
    3598.01160         8.5000         9.3158        79.5942        69.2207        37.2554        17.3387        26.0961
    3598.16400         8.5000         9.4238        93.4063        60.2417        35.7105        22.3869        26.8366
    3598.31640         8.5000         9.5318       107.2183        51.2627        34.1655        27.4352        27.5770
    3598.46880         8.5000         9.6398       121.0303        42.2837        32.6206        32.4834        28.3175
    3598.62120         8.5000         9.6010       125.8124        41.1293        32.7801        30.5262        28.7661
    3598.77360         8.5000         9.5244       128.2699        41.9891        33.3784        26.7655        29.1395
    3598.92600         8.5000         9.4478       130.7274        42.8489        33.9767        23.0049        29.5129
    3599.07840         8.5000         9.3945       126.1482        46.6635        34.2638        19.8683        29.6261
    3599.23080         8.5000         9.3634       114.9273        53.2673        34.2572        17.3208        29.4935
    3599.38320         8.5000         9.3322       103.7063        59.8709        34.2506        14.7733        29.3609
    3599.53560         8.5000         9.3164        93.2334        65.6602        34.2812        12.6545        29.3289
    3599.68800         8.5000         9.3507        85.2144        68.7772        34.4343        11.9421        29.6266
    3599.84040         8.5000         9.3851        77.1955        71.8943        34.5874        11.2297        29.9244
    3599.99280         8.5000         9.4195        69.1766        75.0113        34.7405        10.5173        30.2221
    3600.14520         8.5000         9.3168        69.2788        74.3929        35.6075        10.2242        30.4184
    3600.29760         8.5000         9.2073        69.7838        73.5893        36.5098         9.9520        30.6096
    3600.45000         8.5000         9.0979        70.2887        72.7856        37.4121         9.6797        30.8008
    3600.60240         8.5000         9.0668        70.5607        71.5109        38.7113        10.3511        30.5437
    3600.75480         8.5000         9.0741        70.7190        70.0063        40.2043        11.4832        30.0677
    3600.90720         8.5000         9.0813        70.8772        68.5016        41.6973        12.6153        29.5917
    3601.05960         8.5000         9.0626        70.5300        67.0526        43.3831        14.0156        29.5976
    3601.21200         8.5000         9.0037        69.3958        65.6902        45.3688        15.8333        30.3538
    3601.36440         8.5000         8.9447        68.2616        64.3278        47.3546        17.6510        31.1101
    3601.51680         8.5000         8.8864        66.9365        62.7733        49.3767        19.9826        31.8213
    3601.66920         8.5000         8.8344        64.0697        59.6686        51.6921        26.4622        32.1692
    3601.82160         8.5000         8.7823        61.2030        56.5639        54.0076        32.9418        32.5170
    3601.97400         8.5000         8.7302        58.3363        53.4592        56.3230        39.4214        32.8648
    3602.12640         8.5000         8.7051        57.4265        51.4671        57.1815        45.2093        32.7487
    3602.27880         8.5000         8.6855        56.9193        49.7038        57.7403        50.8549        32.5372
    3602.43120         8.5000         8.6659        56.4120        47.9405        58.2992        56.5005        32.3256
    3602.58360         8.5000         8.6708        56.0701        46.5778        57.0222        56.0519        32.1682
    3602.73600         8.5000         8.6959        55.8643        45.5448        54.2344        50.5878        32.0554
    3602.88840         8.5000         8.7210        55.6584        44.5119        51.4467        45.1238        31.9426
    3603.04080         8.5000         8.7408        55.7892        44.8606        48.7546        39.1169        31.7926
    3603.19320         8.5000         8.7459        56.8410        48.9887        46.3241        31.6249        31.5410
    3603.34560         8.5000         8.7511        57.8927        53.1169        43.8937        24.1328        31.2894
    3603.49800         8.5000         8.7562        58.9445        57.2450        41.4632        16.6408        31.0378
    3603.65040         8.5000         8.7887        61.8812        62.3743        40.0926        14.7655        30.9484
    3603.80280         8.5000         8.8215        64.8431        67.5169        38.7361        12.9648        30.8612
    3603.95520         8.5000         8.8544        67.8049        72.6596        37.3795        11.1642        30.7740
    3604.10760         8.5000         8.8693        69.7222        75.7616        36.3141        10.2540        30.5487
    3604.26000         8.5000         8.8768        71.2045        78.0141        35.3698         9.7147        30.2660
