~Version Information Block
VERS .                 2.00:  CWLS LOG ASCII STANDARD - VERSION 2.00
WRAP .                   NO:  One line per depth step
~Well Information Block
#MNEM.UNIT        Data Type   Information
#---------- ----------------  -----------
STRT .M             0.00000:  START DEPTH
STOP .M          3900.98280:  STOP DEPTH
STEP .M             0.15240:  STEP
NULL .              -999.25:  NULL VALUE
COMP .                     :  COMPANY
WELL .             Kapuni-4:  WELL
FLD  .                     :  FIELD
LOC  .                     :  LOCATION
CTRY .                     :  COUNTRY
STAT .                     :  STATE
CNTY .                     :  COUNTY
SRVC .     Shell BP & Todd Oil Services Ltd:  SERVICE COMPANY
DATE .                     :  DATE
API  .                     :  API NUMBER
UWI  .         100000021909:  UNIQUE WELL ID
LATI .           -39.450469:  LATITUDE
LONG .           174.172705:  LONGITUDE
~Curve Information Block
#MNEM.UNIT         API CODE   Curve Description
#---------- ----------------  -----------------
DEPTH.M                    :  
BS   .IN                   :  (BS)
CALI .IN                   :  (CALI)
DTC  .US/F                 :  (DT)
GR   .GAPI                 :  (GR)
RESD .OHMM                 :  LN (RES_DEP)
RESM .OHMM                 :  I5FR_01r (RES_MED)
SP   .MV                   :  SP+150 (SP)
~Parameter Information Block
#MNEM.UNIT            Value   Description
#---------- ----------------  -----------
CUR_INT_BOT.M                3901:  Current interpolated bottom
PROJECT.     New Zealand Log QC Project:  
SET  .     A0_FINAL_INTER_REF_D:  
ELEVATION_AMSL.M              232.56:  Elevation above mean sea level
ELEVATION_REF.                   DF:  Measurement reference
FORMATION_AT_TD.         Kapuni Group:  Formation at TD
GL_ELEVATION_AMSL.M            226.5000:  Ground level elevation above mean sea level
LICENCE_NUMBER.             PML38839:  Licence number
ONSHORE_OR_OFFSHORE.              Onshore:  Onshore/offshore
PR_NUMBER.                PR466:  Petroleum report number
SPUD_DATE.           20/08/1962:  Spud date
STATUS_AT_COMPLETION.     Completed as a future production well:  Status at completion
TD_DATE.           26/10/1962:  Total depth date
TOTAL_DEPTH_DRILLED.M             3901.44:  Total depth drilled
~Other Information Block
# 
~A       DEPTH             BS           CALI            DTC             GR           RESD           RESM             SP 
# ...
    2409.74880        12.2500      -999.2500        82.4455      -999.2500         6.5867      -999.2500         9.9800
    2409.90120        12.2500      -999.2500        82.4316      -999.2500         6.4808      -999.2500         9.9800
    2410.05360        12.2500      -999.2500        82.1800      -999.2500         6.3351      -999.2500         9.9656
    2410.20600        12.2500      -999.2500        81.4903      -999.2500         6.1158      -999.2500         9.9246
    2410.35840        12.2500      -999.2500        80.8006      -999.2500         5.8965      -999.2500         9.8837
    2410.51080        12.2500      -999.2500        80.1189      -999.2500         5.6852      -999.2500         9.8475
    2410.66320        12.2500      -999.2500        79.5409      -999.2500         5.5793      -999.2500         9.8740
    2410.81560        12.2500      -999.2500        78.9630      -999.2500         5.4734      -999.2500         9.9005
    2410.96800        12.2500      -999.2500        78.3851      -999.2500         5.3675      -999.2500         9.9270
    2411.12040        12.2500      -999.2500        77.8606      -999.2500         5.3976      -999.2500         9.9559
    2411.27280        12.2500      -999.2500        77.3503      -999.2500         5.4639      -999.2500         9.9854
    2411.42520        12.2500      -999.2500        76.8400      -999.2500         5.5302      -999.2500        10.0149
    2411.57760        12.2500      -999.2500        76.3201      -999.2500         5.6965      -999.2500        10.0495
    2411.73000        12.2500      -999.2500        75.7908      -999.2500         5.9593      -999.2500        10.0890
    2411.88240        12.2500      -999.2500        75.2616      -999.2500         6.2222      -999.2500        10.1284
    2412.03480        12.2500      -999.2500        74.6443      -999.2500         6.5157      -999.2500        10.1588
    2412.18720        12.2500      -999.2500        73.7295      -999.2500         6.9130      -999.2500        10.1588
    2412.33960        12.2500      -999.2500        72.8146      -999.2500         7.3102      -999.2500        10.1588
    2412.49200        12.2500      -999.2500        71.8997      -999.2500         7.7075      -999.2500        10.1588
    2412.64440        12.2500      -999.2500        71.7212      -999.2500         7.8193      -999.2500        10.3613
    2412.79680        12.2500      -999.2500        71.5835      -999.2500         7.9153      -999.2500        10.5750
    2412.94920        12.2500      -999.2500        71.4457      -999.2500         8.0113      -999.2500        10.7887
    2413.10160        12.2500      -999.2500        71.3978      -999.2500         8.2611      -999.2500        11.0486
    2413.25400        12.2500      -999.2500        71.3947      -999.2500         8.5877      -999.2500        11.3316
    2413.40640        12.2500      -999.2500        71.3916      -999.2500         8.9143      -999.2500        11.6146
    2413.55880        12.2500      -999.2500        71.5352      -999.2500         9.2426      -999.2500        11.6921
    2413.71120        12.2500      -999.2500        71.9123      -999.2500         9.5733      -999.2500        11.4424
    2413.86360        12.2500      -999.2500        72.2895      -999.2500         9.9040      -999.2500        11.1928
    2414.01600        12.2500      -999.2500        72.6361      -999.2500        10.2331      -999.2500        10.9323
    2414.16840        12.2500      -999.2500        72.7228      -999.2500        10.5481      -999.2500        10.5791
    2414.32080        12.2500      -999.2500        72.8095      -999.2500        10.8631      -999.2500        10.2260
    2414.47320        12.2500      -999.2500        72.8962      -999.2500        11.1781      -999.2500         9.8728
    2414.62560        12.2500      -999.2500        72.7696      -999.2500        11.1162      -999.2500         9.8150
    2414.77800        12.2500      -999.2500        72.5976      -999.2500        10.9740      -999.2500         9.8202
    2414.93040        12.2500      -999.2500        72.4256      -999.2500        10.8317      -999.2500         9.8255
    2415.08280        12.2500      -999.2500        72.8027      -999.2500        10.7542      -999.2500         9.9442
    2415.23520        12.2500      -999.2500        73.6416      -999.2500        10.7311      -999.2500        10.1583
    2415.38760        12.2500      -999.2500        74.4805      -999.2500        10.7081      -999.2500        10.3725
    2415.54000        12.2500      -999.2500        74.8727      -999.2500        10.7033      -999.2500        10.5106
    2415.69240        12.2500      -999.2500        74.0098      -999.2500        10.7497      -999.2500        10.4350
    2415.84480        12.2500      -999.2500        73.1469      -999.2500        10.7961      -999.2500        10.3594
    2415.99720        12.2500      -999.2500        72.2840      -999.2500        10.8425      -999.2500        10.2839
    2416.14960        12.2500      -999.2500        71.5540      -999.2500        11.0987      -999.2500        10.4462
    2416.30200        12.2500      -999.2500        70.8264      -999.2500        11.3589      -999.2500        10.6130
    2416.45440        12.2500      -999.2500        70.0989      -999.2500        11.6191      -999.2500        10.7798
    2416.60680        12.2500      -999.2500        69.8410      -999.2500        11.7611      -999.2500        10.9178
    2416.75920        12.2500      -999.2500        69.7837      -999.2500        11.8526      -999.2500        11.0434
    2416.91160        12.2500      -999.2500        69.7263      -999.2500        11.9441      -999.2500        11.1691
    2417.06400        12.2500      -999.2500        69.4530      -999.2500        12.1654      -999.2500        11.0843
    2417.21640        12.2500      -999.2500        68.8813      -999.2500        12.5658      -999.2500        10.7090
    2417.36880        12.2500      -999.2500        68.3097      -999.2500        12.9663      -999.2500        10.3337
    2417.52120        12.2500      -999.2500        67.8343      -999.2500        13.3196      -999.2500        10.0030
    2417.67360        12.2500      -999.2500        67.9545      -999.2500        13.3816      -999.2500         9.9484
    2417.82600        12.2500      -999.2500        68.0746      -999.2500        13.4435      -999.2500         9.8938
    2417.97840        12.2500      -999.2500        68.1948      -999.2500        13.5054      -999.2500         9.8392
    2418.13080        12.2500      -999.2500        68.7413      -999.2500        13.6950      -999.2500         9.7667
    2418.28320        12.2500      -999.2500        69.3583      -999.2500        13.9057      -999.2500         9.6912
    2418.43560        12.2500      -999.2500        69.9752      -999.2500        14.1163      -999.2500         9.6158
    2418.58800        12.2500      -999.2500        70.1825      -999.2500        14.3085      -999.2500         9.3943
    2418.74040        12.2500      -999.2500        70.0899      -999.2500        14.4871      -999.2500         9.0660
    2418.89280        12.2500      -999.2500        69.9973      -999.2500        14.6657      -999.2500         8.7376
    2419.04520        12.2500      -999.2500        69.7570      -999.2500        14.9898      -999.2500         8.4757
    2419.19760        12.2500      -999.2500        69.1665      -999.2500        15.6591      -999.2500         8.3711
    2419.35000        12.2500      -999.2500        68.5759      -999.2500        16.3285      -999.2500         8.2666
    2419.50240        12.2500      -999.2500        67.9995      -999.2500        16.9881      -999.2500         8.1494
    2419.65480        12.2500      -999.2500        68.3065      -999.2500        17.0372      -999.2500         7.2434
    2419.80720        12.2500      -999.2500        68.6135      -999.2500        17.0863      -999.2500         6.3374
