~Version Information Block
VERS .                 2.00:  CWLS LOG ASCII STANDARD - VERSION 2.00
WRAP .                   NO:  One line per depth step
~Well Information Block
#MNEM.UNIT        Data Type   Information
#---------- ----------------  -----------
STRT .M             0.00000:  START DEPTH
STOP .M          3900.98280:  STOP DEPTH
STEP .M             0.15240:  STEP
NULL .              -999.25:  NULL VALUE
COMP .                     :  COMPANY
WELL .             Kapuni-4:  WELL
FLD  .                     :  FIELD
LOC  .                     :  LOCATION
CTRY .                     :  COUNTRY
STAT .                     :  STATE
CNTY .                     :  COUNTY
SRVC .     Shell BP & Todd Oil Services Ltd:  SERVICE COMPANY
DATE .                     :  DATE
API  .                     :  API NUMBER
UWI  .         100000021909:  UNIQUE WELL ID
LATI .           -39.450469:  LATITUDE
LONG .           174.172705:  LONGITUDE
~Curve Information Block
#MNEM.UNIT         API CODE   Curve Description
#---------- ----------------  -----------------
DEPTH.M                    :  
BS   .IN                   :  (BS)
CALI .IN                   :  (CALI)
DTC  .US/F                 :  (DT)
GR   .GAPI                 :  (GR)
RESD .OHMM                 :  LN (RES_DEP)
RESM .OHMM                 :  I5FR_01r (RES_MED)
SP   .MV                   :  SP+150 (SP)
~Parameter Information Block
#MNEM.UNIT            Value   Description
#---------- ----------------  -----------
CUR_INT_BOT.M                3901:  Current interpolated bottom
PROJECT.     New Zealand Log QC Project:  
SET  .     A0_FINAL_INTER_REF_D:  
ELEVATION_AMSL.M              232.56:  Elevation above mean sea level
ELEVATION_REF.                   DF:  Measurement reference
FORMATION_AT_TD.         Kapuni Group:  Formation at TD
GL_ELEVATION_AMSL.M            226.5000:  Ground level elevation above mean sea level
LICENCE_NUMBER.             PML38839:  Licence number
ONSHORE_OR_OFFSHORE.              Onshore:  Onshore/offshore
PR_NUMBER.                PR466:  Petroleum report number
SPUD_DATE.           20/08/1962:  Spud date
STATUS_AT_COMPLETION.     Completed as a future production well:  Status at completion
TD_DATE.           26/10/1962:  Total depth date
TOTAL_DEPTH_DRILLED.M             3901.44:  Total depth drilled
~Other Information Block
# 
~A       DEPTH             BS           CALI            DTC             GR           RESD           RESM             SP 
# ...
    2859.02400        12.2500      -999.2500        85.5931      -999.2500         2.3587      -999.2500        14.8471
    2859.17640        12.2500      -999.2500        85.5819      -999.2500         2.3507      -999.2500        15.0872
    2859.32880        12.2500      -999.2500        85.5706      -999.2500         2.3427      -999.2500        15.3274
    2859.48120        12.2500      -999.2500        85.5593      -999.2500         2.3347      -999.2500        15.5675
    2859.63360        12.2500      -999.2500        85.2633      -999.2500         2.3450      -999.2500        15.5428
    2859.78600        12.2500      -999.2500        84.9273      -999.2500         2.3580      -999.2500        15.4809
    2859.93840        12.2500      -999.2500        84.5913      -999.2500         2.3709      -999.2500        15.4189
    2860.09080        12.2500      -999.2500        84.4241      -999.2500         2.4067      -999.2500        15.1279
    2860.24320        12.2500      -999.2500        84.3713      -999.2500         2.4579      -999.2500        14.6814
    2860.39560        12.2500      -999.2500        84.3185      -999.2500         2.5092      -999.2500        14.2350
    2860.54800        12.2500      -999.2500        84.3124      -999.2500         2.5685      -999.2500        13.9429
    2860.70040        12.2500      -999.2500        84.4076      -999.2500         2.6457      -999.2500        13.9865
    2860.85280        12.2500      -999.2500        84.5028      -999.2500         2.7228      -999.2500        14.0302
    2861.00520        12.2500      -999.2500        84.5799      -999.2500         2.7976      -999.2500        14.0719
    2861.15760        12.2500      -999.2500        84.1437      -999.2500         2.8076      -999.2500        14.0588
    2861.31000        12.2500      -999.2500        83.7075      -999.2500         2.8176      -999.2500        14.0457
    2861.46240        12.2500      -999.2500        83.2713      -999.2500         2.8275      -999.2500        14.0326
    2861.61480        12.2500      -999.2500        82.9151      -999.2500         2.8231      -999.2500        14.1053
    2861.76720        12.2500      -999.2500        82.5850      -999.2500         2.8140      -999.2500        14.2060
    2861.91960        12.2500      -999.2500        82.2550      -999.2500         2.8048      -999.2500        14.3067
    2862.07200        12.2500      -999.2500        82.5184      -999.2500         2.8035      -999.2500        14.3467
    2862.22440        12.2500      -999.2500        83.4445      -999.2500         2.8109      -999.2500        14.3188
    2862.37680        12.2500      -999.2500        84.3706      -999.2500         2.8183      -999.2500        14.2909
    2862.52920        12.2500      -999.2500        85.1487      -999.2500         2.8235      -999.2500        14.3398
    2862.68160        12.2500      -999.2500        85.3023      -999.2500         2.8197      -999.2500        14.7131
    2862.83400        12.2500      -999.2500        85.4559      -999.2500         2.8159      -999.2500        15.0863
    2862.98640        12.2500      -999.2500        85.6095      -999.2500         2.8121      -999.2500        15.4595
    2863.13880        12.2500      -999.2500        85.2684      -999.2500         2.8279      -999.2500        15.2331
    2863.29120        12.2500      -999.2500        84.8788      -999.2500         2.8457      -999.2500        14.9479
    2863.44360        12.2500      -999.2500        84.4892      -999.2500         2.8634      -999.2500        14.6626
    2863.59600        12.2500      -999.2500        84.4990      -999.2500         2.8720      -999.2500        14.5292
    2863.74840        12.2500      -999.2500        84.7435      -999.2500         2.8752      -999.2500        14.4850
    2863.90080        12.2500      -999.2500        84.9879      -999.2500         2.8784      -999.2500        14.4408
    2864.05320        12.2500      -999.2500        85.1656      -999.2500         2.8794      -999.2500        14.4922
    2864.20560        12.2500      -999.2500        85.2187      -999.2500         2.8762      -999.2500        14.7220
    2864.35800        12.2500      -999.2500        85.2717      -999.2500         2.8730      -999.2500        14.9517
    2864.51040        12.2500      -999.2500        85.3046      -999.2500         2.8700      -999.2500        15.1759
    2864.66280        12.2500      -999.2500        85.0610      -999.2500         2.8700      -999.2500        15.3228
    2864.81520        12.2500      -999.2500        84.8174      -999.2500         2.8700      -999.2500        15.4698
    2864.96760        12.2500      -999.2500        84.5739      -999.2500         2.8700      -999.2500        15.6168
    2865.12000        12.2500      -999.2500        84.3175      -999.2500         2.8653      -999.2500        15.5883
    2865.27240        12.2500      -999.2500        84.0577      -999.2500         2.8592      -999.2500        15.5126
    2865.42480        12.2500      -999.2500        83.7979      -999.2500         2.8532      -999.2500        15.4368
    2865.57720        12.2500      -999.2500        83.7359      -999.2500         2.8572      -999.2500        15.3584
    2865.72960        12.2500      -999.2500        83.8668      -999.2500         2.8710      -999.2500        15.2775
    2865.88200        12.2500      -999.2500        83.9977      -999.2500         2.8848      -999.2500        15.1966
    2866.03440        12.2500      -999.2500        84.0683      -999.2500         2.8938      -999.2500        15.0946
    2866.18680        12.2500      -999.2500        83.9325      -999.2500         2.8866      -999.2500        14.9200
    2866.33920        12.2500      -999.2500        83.7967      -999.2500         2.8793      -999.2500        14.7453
    2866.49160        12.2500      -999.2500        83.6609      -999.2500         2.8720      -999.2500        14.5707
    2866.64400        12.2500      -999.2500        83.4126      -999.2500         2.8712      -999.2500        14.6277
    2866.79640        12.2500      -999.2500        83.1577      -999.2500         2.8707      -999.2500        14.6981
    2866.94880        12.2500      -999.2500        82.9029      -999.2500         2.8702      -999.2500        14.7685
    2867.10120        12.2500      -999.2500        83.1293      -999.2500         2.8700      -999.2500        14.6256
    2867.25360        12.2500      -999.2500        83.5993      -999.2500         2.8700      -999.2500        14.3748
    2867.40600        12.2500      -999.2500        84.0693      -999.2500         2.8700      -999.2500        14.1239
    2867.55840        12.2500      -999.2500        84.4172      -999.2500         2.8704      -999.2500        14.0047
    2867.71080        12.2500      -999.2500        84.5687      -999.2500         2.8713      -999.2500        14.0975
    2867.86320        12.2500      -999.2500        84.7202      -999.2500         2.8722      -999.2500        14.1904
    2868.01560        12.2500      -999.2500        84.8654      -999.2500         2.8717      -999.2500        14.2534
    2868.16800        12.2500      -999.2500        84.9560      -999.2500         2.8586      -999.2500        14.0559
    2868.32040        12.2500      -999.2500        85.0467      -999.2500         2.8455      -999.2500        13.8583
    2868.47280        12.2500      -999.2500        85.1374      -999.2500         2.8323      -999.2500        13.6607
    2868.62520        12.2500      -999.2500        84.7907      -999.2500         2.8300      -999.2500        13.5845
    2868.77760        12.2500      -999.2500        84.3490      -999.2500         2.8300      -999.2500        13.5347
    2868.93000        12.2500      -999.2500        83.9074      -999.2500         2.8300      -999.2500        13.4849
    2869.08240        12.2500      -999.2500        83.5636      -999.2500         2.8300      -999.2500        13.4697
