~Version Information Block
VERS .                 2.00:  CWLS LOG ASCII STANDARD - VERSION 2.00
WRAP .                   NO:  One line per depth step
~Well Information Block
#MNEM.UNIT        Data Type   Information
#---------- ----------------  -----------
STRT .M             0.00000:  START DEPTH
STOP .M          3900.98280:  STOP DEPTH
STEP .M             0.15240:  STEP
NULL .              -999.25:  NULL VALUE
COMP .                     :  COMPANY
WELL .             Kapuni-4:  WELL
FLD  .                     :  FIELD
LOC  .                     :  LOCATION
CTRY .                     :  COUNTRY
STAT .                     :  STATE
CNTY .                     :  COUNTY
SRVC .     Shell BP & Todd Oil Services Ltd:  SERVICE COMPANY
DATE .                     :  DATE
API  .                     :  API NUMBER
UWI  .         100000021909:  UNIQUE WELL ID
LATI .           -39.450469:  LATITUDE
LONG .           174.172705:  LONGITUDE
~Curve Information Block
#MNEM.UNIT         API CODE   Curve Description
#---------- ----------------  -----------------
DEPTH.M                    :  
BS   .IN                   :  (BS)
CALI .IN                   :  (CALI)
DTC  .US/F                 :  (DT)
GR   .GAPI                 :  (GR)
RESD .OHMM                 :  LN (RES_DEP)
RESM .OHMM                 :  I5FR_01r (RES_MED)
SP   .MV                   :  SP+150 (SP)
~Parameter Information Block
#MNEM.UNIT            Value   Description
#---------- ----------------  -----------
CUR_INT_BOT.M                3901:  Current interpolated bottom
PROJECT.     New Zealand Log QC Project:  
SET  .     A0_FINAL_INTER_REF_D:  
ELEVATION_AMSL.M              232.56:  Elevation above mean sea level
ELEVATION_REF.                   DF:  Measurement reference
FORMATION_AT_TD.         Kapuni Group:  Formation at TD
GL_ELEVATION_AMSL.M            226.5000:  Ground level elevation above mean sea level
LICENCE_NUMBER.             PML38839:  Licence number
ONSHORE_OR_OFFSHORE.              Onshore:  Onshore/offshore
PR_NUMBER.                PR466:  Petroleum report number
SPUD_DATE.           20/08/1962:  Spud date
STATUS_AT_COMPLETION.     Completed as a future production well:  Status at completion
TD_DATE.           26/10/1962:  Total depth date
TOTAL_DEPTH_DRILLED.M             3901.44:  Total depth drilled
~Other Information Block
# 
~A       DEPTH             BS           CALI            DTC             GR           RESD           RESM             SP 
# ...
    2705.86200        12.2500      -999.2500        80.8173      -999.2500         9.1931      -999.2500         6.3378
    2706.01440        12.2500      -999.2500        80.5251      -999.2500         9.1897      -999.2500         6.3738
    2706.16680        12.2500      -999.2500        80.5804      -999.2500         9.1869      -999.2500         6.5217
    2706.31920        12.2500      -999.2500        80.6357      -999.2500         9.1840      -999.2500         6.6695
    2706.47160        12.2500      -999.2500        80.6910      -999.2500         9.1812      -999.2500         6.8174
    2706.62400        12.2500      -999.2500        80.6529      -999.2500         9.1029      -999.2500         6.9840
    2706.77640        12.2500      -999.2500        80.5933      -999.2500         9.0074      -999.2500         7.1548
    2706.92880        12.2500      -999.2500        80.5338      -999.2500         8.9118      -999.2500         7.3257
    2707.08120        12.2500      -999.2500        80.7945      -999.2500         8.8193      -999.2500         7.1742
    2707.23360        12.2500      -999.2500        81.3362      -999.2500         8.7295      -999.2500         6.7400
    2707.38600        12.2500      -999.2500        81.8779      -999.2500         8.6396      -999.2500         6.3058
    2707.53840        12.2500      -999.2500        82.3757      -999.2500         8.5675      -999.2500         5.9826
    2707.69080        12.2500      -999.2500        82.7436      -999.2500         8.5482      -999.2500         5.9889
    2707.84320        12.2500      -999.2500        83.1115      -999.2500         8.5288      -999.2500         5.9952
    2707.99560        12.2500      -999.2500        83.4794      -999.2500         8.5094      -999.2500         6.0015
    2708.14800        12.2500      -999.2500        83.2852      -999.2500         8.4827      -999.2500         6.1152
    2708.30040        12.2500      -999.2500        83.0744      -999.2500         8.4559      -999.2500         6.2321
    2708.45280        12.2500      -999.2500        82.8635      -999.2500         8.4290      -999.2500         6.3489
    2708.60520        12.2500      -999.2500        82.6460      -999.2500         8.3639      -999.2500         6.3561
    2708.75760        12.2500      -999.2500        82.4254      -999.2500         8.2816      -999.2500         6.3140
    2708.91000        12.2500      -999.2500        82.2048      -999.2500         8.1992      -999.2500         6.2719
    2709.06240        12.2500      -999.2500        81.9419      -999.2500         8.1137      -999.2500         6.3744
    2709.21480        12.2500      -999.2500        81.6180      -999.2500         8.0236      -999.2500         6.6854
    2709.36720        12.2500      -999.2500        81.2940      -999.2500         7.9334      -999.2500         6.9963
    2709.51960        12.2500      -999.2500        80.9743      -999.2500         7.8562      -999.2500         7.2085
    2709.67200        12.2500      -999.2500        80.6839      -999.2500         7.8669      -999.2500         6.7514
    2709.82440        12.2500      -999.2500        80.3935      -999.2500         7.8777      -999.2500         6.2943
    2709.97680        12.2500      -999.2500        80.1031      -999.2500         7.8884      -999.2500         5.8372
    2710.12920        12.2500      -999.2500        80.1859      -999.2500         7.8596      -999.2500         5.6120
    2710.28160        12.2500      -999.2500        80.3357      -999.2500         7.8237      -999.2500         5.4284
    2710.43400        12.2500      -999.2500        80.4855      -999.2500         7.7879      -999.2500         5.2448
    2710.58640        12.2500      -999.2500        80.6757      -999.2500         7.6890      -999.2500         5.0750
    2710.73880        12.2500      -999.2500        80.8967      -999.2500         7.5420      -999.2500         4.9157
    2710.89120        12.2500      -999.2500        81.1177      -999.2500         7.3950      -999.2500         4.7565
    2711.04360        12.2500      -999.2500        81.3984      -999.2500         7.2892      -999.2500         4.6095
    2711.19600        12.2500      -999.2500        81.8281      -999.2500         7.2861      -999.2500         4.4930
    2711.34840        12.2500      -999.2500        82.2578      -999.2500         7.2830      -999.2500         4.3765
    2711.50080        12.2500      -999.2500        82.6872      -999.2500         7.2794      -999.2500         4.2593
    2711.65320        12.2500      -999.2500        83.0592      -999.2500         7.1949      -999.2500         4.0164
    2711.80560        12.2500      -999.2500        83.4313      -999.2500         7.1103      -999.2500         3.7734
    2711.95800        12.2500      -999.2500        83.8033      -999.2500         7.0257      -999.2500         3.5304
    2712.11040        12.2500      -999.2500        84.1820      -999.2500         6.9727      -999.2500         3.4863
    2712.26280        12.2500      -999.2500        84.5633      -999.2500         6.9316      -999.2500         3.5178
    2712.41520        12.2500      -999.2500        84.9445      -999.2500         6.8906      -999.2500         3.5493
    2712.56760        12.2500      -999.2500        85.1998      -999.2500         6.8619      -999.2500         3.5912
    2712.72000        12.2500      -999.2500        85.2970      -999.2500         6.8489      -999.2500         3.6460
    2712.87240        12.2500      -999.2500        85.3942      -999.2500         6.8358      -999.2500         3.7009
    2713.02480        12.2500      -999.2500        85.4892      -999.2500         6.7988      -999.2500         3.7116
    2713.17720        12.2500      -999.2500        85.5725      -999.2500         6.6382      -999.2500         3.4954
    2713.32960        12.2500      -999.2500        85.6559      -999.2500         6.4777      -999.2500         3.2792
    2713.48200        12.2500      -999.2500        85.7393      -999.2500         6.3171      -999.2500         3.0630
    2713.63440        12.2500      -999.2500        85.7414      -999.2500         6.2498      -999.2500         2.4932
    2713.78680        12.2500      -999.2500        85.7326      -999.2500         6.1949      -999.2500         1.8760
    2713.93920        12.2500      -999.2500        85.7238      -999.2500         6.1400      -999.2500         1.2589
    2714.09160        12.2500      -999.2500        85.6806      -999.2500         6.0617      -999.2500         0.5707
    2714.24400        12.2500      -999.2500        85.6145      -999.2500         5.9678      -999.2500        -0.1647
    2714.39640        12.2500      -999.2500        85.5483      -999.2500         5.8738      -999.2500        -0.9001
    2714.54880        12.2500      -999.2500        85.7377      -999.2500         5.8100      -999.2500        -1.4443
    2714.70120        12.2500      -999.2500        86.4694      -999.2500         5.8100      -999.2500        -1.5826
    2714.85360        12.2500      -999.2500        87.2012      -999.2500         5.8100      -999.2500        -1.7209
    2715.00600        12.2500      -999.2500        87.9281      -999.2500         5.8081      -999.2500        -1.8553
    2715.15840        12.2500      -999.2500        88.5379      -999.2500         5.7611      -999.2500        -1.8919
    2715.31080        12.2500      -999.2500        89.1477      -999.2500         5.7140      -999.2500        -1.9285
    2715.46320        12.2500      -999.2500        89.7575      -999.2500         5.6669      -999.2500        -1.9651
    2715.61560        12.2500      -999.2500        90.1212      -999.2500         5.5959      -999.2500        -2.4463
    2715.76800        12.2500      -999.2500        90.4067      -999.2500         5.5174      -999.2500        -3.0691
    2715.92040        12.2500      -999.2500        90.6921      -999.2500         5.4388      -999.2500        -3.6918
