~Version Information Block
VERS .                 2.00:  CWLS LOG ASCII STANDARD - VERSION 2.00
WRAP .                   NO:  One line per depth step
~Well Information Block
#MNEM.UNIT        Data Type   Information
#---------- ----------------  -----------
STRT .M             6.09600:  START DEPTH
STOP .M          3796.43640:  STOP DEPTH
STEP .M             0.15240:  STEP
NULL .              -999.25:  NULL VALUE
COMP .                     :  COMPANY
WELL .             Kapuni-3:  WELL
FLD  .                     :  FIELD
LOC  .                     :  LOCATION
CTRY .                     :  COUNTRY
STAT .                     :  STATE
CNTY .                     :  COUNTY
SRVC .     Shell BP & Todd Oil Services Ltd:  SERVICE COMPANY
DATE .                     :  DATE
API  .                     :  API NUMBER
UWI  .         100000502146:  UNIQUE WELL ID
LATI .          -39.5051918:  LATITUDE
LONG .          174.1760385:  LONGITUDE
~Curve Information Block
#MNEM.UNIT         API CODE   Curve Description
#---------- ----------------  -----------------
DEPTH.M                    :  
BS   .IN                   :  Bit Size (Created in Geolog)
CALI .IN                   :  (CALI)
DTC  .US/F                 :  (DT)
GR   .GAPI                 :  (GR)
RESD .OHMM                 :  Long normal (ES) (RES_DEP)
RESM .OHMM                 :  I6FR (IES) (RES_MED)
SP   .MV                   :  SP-10 (SP)
~Parameter Information Block
#MNEM.UNIT            Value   Description
#---------- ----------------  -----------
CUR_INT_BOT.M              3796.5:  Current interpolated bottom
PROJECT.     New Zealand Log QC Project:  
SET  .     A0_FINAL_INTER_REF_D:  
ELEVATION_AMSL.M              136.86:  Elevation above mean sea level
ELEVATION_REF.                   DF:  Measurement reference
FORMATION_AT_TD.         Kapuni Group:  Formation at TD
GL_ELEVATION_AMSL.M            131.1000:  Ground level elevation above mean sea level
LICENCE_NUMBER.             PML38839:  Licence number
ONSHORE_OR_OFFSHORE.              Onshore:  Onshore/offshore
PR_NUMBER.                PR465:  Petroleum report number
SPUD_DATE.           21/04/1962:  Spud date
STATUS_AT_COMPLETION.     Tested and completed as a potential producer:  Status at completion
TD_DATE.           24/06/1962:  Total depth date
TOTAL_DEPTH_DRILLED.M              3796.9:  Total depth drilled
~Other Information Block
# 
~A       DEPTH             BS           CALI            DTC             GR           RESD           RESM             SP 
# ...
    3641.14080         8.5000         7.9053        78.8418        57.7551        43.7384        27.4043        65.1889
    3641.29320         8.5000         7.8998        78.2595        57.0207        43.4666        27.7740        65.3045
    3641.44560         8.5000         7.8942        77.6773        56.2863        43.1947        28.1437        65.4202
    3641.59800         8.5000         7.8843        77.9334        56.2069        42.7962        28.2418        65.6870
    3641.75040         8.5000         7.8720        78.6550        56.4910        42.3273        28.1892        66.0379
    3641.90280         8.5000         7.8596        79.3766        56.7751        41.8584        28.1365        66.3887
    3642.05520         8.5000         7.8511        80.0306        57.3442        41.2747        28.1313        66.7909
    3642.20760         8.5000         7.8493        80.5655        58.4151        40.4887        28.2097        67.2836
    3642.36000         8.5000         7.8475        81.1004        59.4859        39.7026        28.2880        67.7763
    3642.51240         8.5000         7.8471        81.6270        60.5915        38.9130        28.2894        68.2841
    3642.66480         8.5000         7.8623        82.0588        62.0890        38.0826        27.4217        68.9626
    3642.81720         8.5000         7.8776        82.4906        63.5865        37.2522        26.5540        69.6411
    3642.96960         8.5000         7.8928        82.9225        65.0840        36.4217        25.6864        70.3196
    3643.12200         8.5000         8.0382        83.4576        66.8280        35.9965        24.0518        71.2472
    3643.27440         8.5000         8.2159        84.0186        68.6333        35.6723        22.2262        72.2370
    3643.42680         8.5000         8.3936        84.5795        70.4386        35.3481        20.4006        73.2267
    3643.57920         8.5000         8.5181        84.3623        72.2612        35.1696        19.1429        74.4403
    3643.73160         8.5000         8.5935        83.4259        74.0999        35.1257        18.4100        75.8608
    3643.88400         8.5000         8.6689        82.4895        75.9386        35.0818        17.6772        77.2813
    3644.03640         8.5000         8.7396        81.4858        77.9634        34.9137        17.0824        78.6961
    3644.18880         8.5000         8.7950        80.2676        80.5818        34.3499        16.9274        80.0930
    3644.34120         8.5000         8.8504        79.0494        83.2001        33.7860        16.7725        81.4899
    3644.49360         8.5000         8.9058        77.8312        85.8184        33.2222        16.6176        82.8868
    3644.64600         8.5000         8.8943        76.5926        87.0347        32.0149        17.6057        83.9215
    3644.79840         8.5000         8.8798        75.3531        88.1894        30.7795        18.6439        84.9404
    3644.95080         8.5000         8.8653        74.1136        89.3442        29.5440        19.6821        85.9593
    3645.10320         8.5000         8.8456        75.1321        89.4321        28.8850        20.3138        86.4113
    3645.25560         8.5000         8.8236        77.2273        89.0113        28.5009        20.7516        86.5930
    3645.40800         8.5000         8.8015        79.3224        88.5905        28.1167        21.1895        86.7747
    3645.56040         8.5000         8.7939        82.9025        88.4661        28.1852        21.2182        86.6774
    3645.71280         8.5000         8.8085        88.7444        88.7931        28.9431        20.6238        86.1552
    3645.86520         8.5000         8.8230        94.5863        89.1201        29.7011        20.0293        85.6330
    3646.01760         8.5000         8.8275        99.3546        89.2449        30.4359        19.3911        85.0338
    3646.17000         8.5000         8.7552        95.9005        87.8212        30.9936        18.4179        83.8448
    3646.32240         8.5000         8.6829        92.4465        86.3975        31.5512        17.4446        82.6558
    3646.47480         8.5000         8.6106        88.9924        84.9738        32.1088        16.4714        81.4668
    3646.62720         8.5000         8.4720        86.3947        82.8467        32.1971        16.1849        80.3313
    3646.77960         8.5000         8.3202        83.9666        80.5803        32.1924        16.0344        79.2064
    3646.93200         8.5000         8.1684        81.5385        78.3139        32.1877        15.8840        78.0815
    3647.08440         8.5000         8.1197        80.9340        77.6801        32.0226        16.0768        77.5272
    3647.23680         8.5000         8.1541        81.7985        78.3616        31.7282        16.5462        77.4325
    3647.38920         8.5000         8.1884        82.6631        79.0431        31.4338        17.0157        77.3379
    3647.54160         8.5000         8.2202        83.0506        80.0349        31.2206        17.3981        77.4679
    3647.69400         8.5000         8.2451        82.1675        81.8528        31.2232        17.5488        78.1964
    3647.84640         8.5000         8.2701        81.2844        83.6708        31.2258        17.6994        78.9249
    3647.99880         8.5000         8.2950        80.4013        85.4888        31.2284        17.8501        79.6533
    3648.15120         8.5000         8.3313        80.3757        87.1360        31.2971        18.2741        80.6534
    3648.30360         8.5000         8.3676        80.3569        88.7818        31.3664        18.7003        81.6556
    3648.45600         8.5000         8.4040        80.3380        90.4276        31.4356        19.1265        82.6578
    3648.60840         8.5000         8.4570        80.0331        90.3715        31.4064        19.2900        83.5649
    3648.76080         8.5000         8.5168        79.6119        89.6244        31.3371        19.3469        84.4334
    3648.91320         8.5000         8.5767        79.1908        88.8774        31.2679        19.4039        85.3020
    3649.06560         8.5000         8.5668        79.2042        87.8852        31.1125        19.3773        85.8692
    3649.21800         8.5000         8.4649        79.7927        86.5685        30.8432        19.2401        86.0378
    3649.37040         8.5000         8.3629        80.3812        85.2518        30.5739        19.1030        86.2064
    3649.52280         8.5000         8.2950        80.8616        84.1348        30.3591        18.9662        86.4232
    3649.67520         8.5000         8.4202        80.7271        84.1529        30.4537        18.8314        86.9147
    3649.82760         8.5000         8.5455        80.5927        84.1709        30.5483        18.6966        87.4062
    3649.98000         8.5000         8.6708        80.4583        84.1889        30.6429        18.5618        87.8977
    3650.13240         8.5000         8.6090        79.5809        84.0029        30.5475        18.4163        87.5421
    3650.28480         8.5000         8.5190        78.5914        83.7861        30.4234        18.2691        87.0585
    3650.43720         8.5000         8.4290        77.6018        83.5693        30.2993        18.1219        86.5749
    3650.58960         8.5000         8.3715        76.9625        83.9353        30.0469        17.8302        85.9852
    3650.74200         8.5000         8.3368        76.5686        84.7099        29.7045        17.4372        85.3211
    3650.89440         8.5000         8.3021        76.1747        85.4844        29.3621        17.0442        84.6571
    3651.04680         8.5000         8.3258        75.9235        86.7550        29.1176        16.7440        84.2962
    3651.19920         8.5000         8.4816        75.9943        89.1448        29.0940        16.6532        84.6194
