~Version Information Block
VERS .                 2.00:  CWLS LOG ASCII STANDARD - VERSION 2.00
WRAP .                   NO:  One line per depth step
~Well Information Block
#MNEM.UNIT        Data Type   Information
#---------- ----------------  -----------
STRT .M             6.09600:  START DEPTH
STOP .M          3796.43640:  STOP DEPTH
STEP .M             0.15240:  STEP
NULL .              -999.25:  NULL VALUE
COMP .                     :  COMPANY
WELL .             Kapuni-3:  WELL
FLD  .                     :  FIELD
LOC  .                     :  LOCATION
CTRY .                     :  COUNTRY
STAT .                     :  STATE
CNTY .                     :  COUNTY
SRVC .     Shell BP & Todd Oil Services Ltd:  SERVICE COMPANY
DATE .                     :  DATE
API  .                     :  API NUMBER
UWI  .         100000502146:  UNIQUE WELL ID
LATI .          -39.5051918:  LATITUDE
LONG .          174.1760385:  LONGITUDE
~Curve Information Block
#MNEM.UNIT         API CODE   Curve Description
#---------- ----------------  -----------------
DEPTH.M                    :  
BS   .IN                   :  Bit Size (Created in Geolog)
CALI .IN                   :  (CALI)
DTC  .US/F                 :  (DT)
GR   .GAPI                 :  (GR)
RESD .OHMM                 :  Long normal (ES) (RES_DEP)
RESM .OHMM                 :  I6FR (IES) (RES_MED)
SP   .MV                   :  SP-10 (SP)
~Parameter Information Block
#MNEM.UNIT            Value   Description
#---------- ----------------  -----------
CUR_INT_BOT.M              3796.5:  Current interpolated bottom
PROJECT.     New Zealand Log QC Project:  
SET  .     A0_FINAL_INTER_REF_D:  
ELEVATION_AMSL.M              136.86:  Elevation above mean sea level
ELEVATION_REF.                   DF:  Measurement reference
FORMATION_AT_TD.         Kapuni Group:  Formation at TD
GL_ELEVATION_AMSL.M            131.1000:  Ground level elevation above mean sea level
LICENCE_NUMBER.             PML38839:  Licence number
ONSHORE_OR_OFFSHORE.              Onshore:  Onshore/offshore
PR_NUMBER.                PR465:  Petroleum report number
SPUD_DATE.           21/04/1962:  Spud date
STATUS_AT_COMPLETION.     Tested and completed as a potential producer:  Status at completion
TD_DATE.           24/06/1962:  Total depth date
TOTAL_DEPTH_DRILLED.M              3796.9:  Total depth drilled
~Other Information Block
# 
~A       DEPTH             BS           CALI            DTC             GR           RESD           RESM             SP 
# ...
    3222.49800        12.2500         9.0351        78.0249        81.7077         1.5159         2.4166        94.8622
    3222.65040        12.2500         9.0878        78.4034        81.1704         1.5482         2.4327        94.7901
    3222.80280        12.2500         9.1421        78.7927        80.6163         1.5805         2.4488        94.7171
    3222.95520        12.2500         9.1964        79.1820        80.0623         1.6128         2.4648        94.6441
    3223.10760        12.2500         9.3328        79.7177        79.9599         1.6447         2.4668        94.6350
    3223.26000        12.2500         9.5033        80.3143        80.0456         1.6764         2.4628        94.6523
    3223.41240        12.2500         9.6738        80.9109        80.1312         1.7080         2.4589        94.6697
    3223.56480        12.2500         9.7095        81.1776        80.3909         1.7387         2.4469        94.7016
    3223.71720        12.2500         9.5630        80.9982        80.8859         1.7679         2.4241        94.7532
    3223.86960        12.2500         9.4164        80.8188        81.3808         1.7971         2.4012        94.8047
    3224.02200        12.2500         9.2879        80.6258        81.8694         1.8262         2.3793        94.8196
    3224.17440        12.2500         9.2657        80.3527        82.3198         1.8554         2.3631        94.6171
    3224.32680        12.2500         9.2436        80.0796        82.7702         1.8846         2.3469        94.4147
    3224.47920        12.2500         9.2214        79.8065        83.2206         1.9138         2.3307        94.2123
    3224.63160        12.2500         9.2135        79.7066        83.2170         1.9341         2.3342        93.9472
    3224.78400        12.2500         9.2079        79.6342        83.1417         1.9529         2.3408        93.6722
    3224.93640        12.2500         9.2023        79.5617        83.0664         1.9718         2.3474        93.3971
    3225.08880        12.2500         9.2400        79.4050        82.5815         1.9706         2.4047        93.2691
    3225.24120        12.2500         9.3086        79.1880        81.8033         1.9550         2.4982        93.2463
    3225.39360        12.2500         9.3773        78.9710        81.0251         1.9394         2.5917        93.2235
    3225.54600        12.2500         9.4297        78.9631        80.4437         1.9238         2.6337        93.2594
    3225.69840        12.2500         9.4445        79.4386        80.3174         1.9082         2.5563        93.4312
    3225.85080        12.2500         9.4593        79.9142        80.1912         1.8925         2.4789        93.6029
    3226.00320        12.2500         9.4724        80.3786        80.0757         1.8773         2.4032        93.7701
    3226.15560        12.2500         9.4097        80.3264        80.4649         1.8767         2.4015        93.7253
    3226.30800        12.2500         9.3469        80.2742        80.8541         1.8762         2.3999        93.6804
    3226.46040        12.2500         9.2842        80.2221        81.2433         1.8757         2.3983        93.6355
    3226.61280        12.2500         9.2363        79.7449        81.6316         1.8887         2.3896        93.7405
    3226.76520        12.2500         9.1936        79.1185        82.0194         1.9064         2.3785        93.8981
    3226.91760        12.2500         9.1510        78.4921        82.4073         1.9241         2.3674        94.0556
    3227.07000        12.2500         9.1614        78.3841        82.2702         1.9428         2.3586        94.1011
    3227.22240        12.2500         9.2342        78.8863        81.5152         1.9626         2.3524        94.0147
    3227.37480        12.2500         9.3070        79.3884        80.7602         1.9824         2.3461        93.9282
    3227.52720        12.2500         9.3579        79.8847        80.0132         2.0087         2.3437        93.9234
    3227.67960        12.2500         9.3079        80.3538        79.3032         2.0647         2.3587        94.2943
    3227.83200        12.2500         9.2578        80.8229        78.5932         2.1207         2.3737        94.6653
    3227.98440        12.2500         9.2077        81.2921        77.8831         2.1768         2.3887        95.0363
    3228.13680        12.2500         9.1544        80.8706        77.7003         2.2343         2.3979        95.2983
    3228.28920        12.2500         9.1007        80.3476        77.5775         2.2921         2.4064        95.5479
    3228.44160        12.2500         9.0470        79.8246        77.4547         2.3498         2.4149        95.7975
    3228.59400        12.2500         9.0035        79.2851        77.6474         2.4094         2.4450        95.7991
    3228.74640        12.2500         8.9664        78.7354        78.0360         2.4702         2.4885        95.6467
    3228.89880        12.2500         8.9293        78.1856        78.4247         2.5309         2.5320        95.4943
    3229.05120        12.2500         8.9035        77.5515        78.6466         2.5919         2.5888        95.3581
    3229.20360        12.2500         8.9003        76.7508        78.5391         2.6536         2.6720        95.2541
    3229.35600        12.2500         8.8971        75.9501        78.4315         2.7153         2.7551        95.1502
    3229.50840        12.2500         8.8939        75.1941        78.2960         2.7755         2.8362        95.0581
    3229.66080        12.2500         8.8907        75.2048        77.6820         2.8106         2.8823        95.1696
    3229.81320        12.2500         8.8875        75.2155        77.0680         2.8457         2.9284        95.2812
    3229.96560        12.2500         8.8844        75.2262        76.4540         2.8807         2.9744        95.3928
    3230.11800        12.2500         8.8643        75.3197        76.4981         2.9046         3.0635        95.3432
    3230.27040        12.2500         8.8394        75.4373        76.7340         2.9251         3.1650        95.2466
    3230.42280        12.2500         8.8144        75.5549        76.9700         2.9457         3.2666        95.1499
    3230.57520        12.2500         8.8037        75.6237        77.3075         2.9671         3.2998        95.0716
    3230.72760        12.2500         8.8076        75.6422        77.7493         2.9895         3.2628        95.0121
    3230.88000        12.2500         8.8115        75.6608        78.1911         3.0118         3.2258        94.9526
    3231.03240        12.2500         8.8176        75.6639        78.6318         3.0344         3.1989        94.9229
    3231.18480        12.2500         8.8317        75.6099        79.0685         3.0582         3.2094        95.0038
    3231.33720        12.2500         8.8459        75.5558        79.5053         3.0821         3.2198        95.0847
    3231.48960        12.2500         8.8600        75.5017        79.9420         3.1059         3.2303        95.1656
    3231.64200        12.2500         8.8541        75.1213        80.2032         3.1581         3.2393        95.1761
    3231.79440        12.2500         8.8466        74.7169        80.4515         3.2124         3.2483        95.1815
    3231.94680        12.2500         8.8392        74.3126        80.6999         3.2667         3.2572        95.1868
    3232.09920        12.2500         8.8304        74.1649        80.7965         3.3287         3.2711        95.1887
    3232.25160        12.2500         8.8210        74.1547        80.8119         3.3949         3.2878        95.1887
    3232.40400        12.2500         8.8115        74.1446        80.8272         3.4611         3.3045        95.1887
    3232.55640        12.2500         8.8029        73.9387        80.6326         3.5242         3.3411        95.1650
