~Version Information Block
VERS .                 2.00:  CWLS LOG ASCII STANDARD - VERSION 2.00
WRAP .                   NO:  One line per depth step
~Well Information Block
#MNEM.UNIT        Data Type   Information
#---------- ----------------  -----------
STRT .M             6.09600:  START DEPTH
STOP .M          3796.43640:  STOP DEPTH
STEP .M             0.15240:  STEP
NULL .              -999.25:  NULL VALUE
COMP .                     :  COMPANY
WELL .             Kapuni-3:  WELL
FLD  .                     :  FIELD
LOC  .                     :  LOCATION
CTRY .                     :  COUNTRY
STAT .                     :  STATE
CNTY .                     :  COUNTY
SRVC .     Shell BP & Todd Oil Services Ltd:  SERVICE COMPANY
DATE .                     :  DATE
API  .                     :  API NUMBER
UWI  .         100000502146:  UNIQUE WELL ID
LATI .          -39.5051918:  LATITUDE
LONG .          174.1760385:  LONGITUDE
~Curve Information Block
#MNEM.UNIT         API CODE   Curve Description
#---------- ----------------  -----------------
DEPTH.M                    :  
BS   .IN                   :  Bit Size (Created in Geolog)
CALI .IN                   :  (CALI)
DTC  .US/F                 :  (DT)
GR   .GAPI                 :  (GR)
RESD .OHMM                 :  Long normal (ES) (RES_DEP)
RESM .OHMM                 :  I6FR (IES) (RES_MED)
SP   .MV                   :  SP-10 (SP)
~Parameter Information Block
#MNEM.UNIT            Value   Description
#---------- ----------------  -----------
CUR_INT_BOT.M              3796.5:  Current interpolated bottom
PROJECT.     New Zealand Log QC Project:  
SET  .     A0_FINAL_INTER_REF_D:  
ELEVATION_AMSL.M              136.86:  Elevation above mean sea level
ELEVATION_REF.                   DF:  Measurement reference
FORMATION_AT_TD.         Kapuni Group:  Formation at TD
GL_ELEVATION_AMSL.M            131.1000:  Ground level elevation above mean sea level
LICENCE_NUMBER.             PML38839:  Licence number
ONSHORE_OR_OFFSHORE.              Onshore:  Onshore/offshore
PR_NUMBER.                PR465:  Petroleum report number
SPUD_DATE.           21/04/1962:  Spud date
STATUS_AT_COMPLETION.     Tested and completed as a potential producer:  Status at completion
TD_DATE.           24/06/1962:  Total depth date
TOTAL_DEPTH_DRILLED.M              3796.9:  Total depth drilled
~Other Information Block
# 
~A       DEPTH             BS           CALI            DTC             GR           RESD           RESM             SP 
# ...
    1956.35880        12.2500      -999.2500        84.9663      -999.2500         7.7762      -999.2500        74.1237
    1956.51120        12.2500      -999.2500        84.3706      -999.2500         7.7883      -999.2500        74.2226
    1956.66360        12.2500      -999.2500        83.2776      -999.2500         7.7779      -999.2500        74.0360
    1956.81600        12.2500      -999.2500        82.1845      -999.2500         7.7674      -999.2500        73.8494
    1956.96840        12.2500      -999.2500        81.0914      -999.2500         7.7570      -999.2500        73.6628
    1957.12080        12.2500      -999.2500        80.5553      -999.2500         7.6921      -999.2500        73.3785
    1957.27320        12.2500      -999.2500        80.1649      -999.2500         7.6130      -999.2500        73.0687
    1957.42560        12.2500      -999.2500        79.7744      -999.2500         7.5338      -999.2500        72.7588
    1957.57800        12.2500      -999.2500        79.9301      -999.2500         7.4798      -999.2500        72.5972
    1957.73040        12.2500      -999.2500        80.6068      -999.2500         7.4499      -999.2500        72.5769
    1957.88280        12.2500      -999.2500        81.2835      -999.2500         7.4199      -999.2500        72.5567
    1958.03520        12.2500      -999.2500        81.9517      -999.2500         7.3969      -999.2500        72.5912
    1958.18760        12.2500      -999.2500        82.5919      -999.2500         7.3969      -999.2500        72.8083
    1958.34000        12.2500      -999.2500        83.2320      -999.2500         7.3969      -999.2500        73.0253
    1958.49240        12.2500      -999.2500        83.8722      -999.2500         7.3969      -999.2500        73.2423
    1958.64480        12.2500      -999.2500        84.3341      -999.2500         7.3855      -999.2500        73.7235
    1958.79720        12.2500      -999.2500        84.7866      -999.2500         7.3734      -999.2500        74.2186
    1958.94960        12.2500      -999.2500        85.2391      -999.2500         7.3614      -999.2500        74.7138
    1959.10200        12.2500      -999.2500        85.3172      -999.2500         7.3453      -999.2500        74.8831
    1959.25440        12.2500      -999.2500        85.2104      -999.2500         7.3272      -999.2500        74.8915
    1959.40680        12.2500      -999.2500        85.1036      -999.2500         7.3091      -999.2500        74.8999
    1959.55920        12.2500      -999.2500        84.8645      -999.2500         7.3138      -999.2500        74.9195
    1959.71160        12.2500      -999.2500        84.4173      -999.2500         7.3544      -999.2500        74.9566
    1959.86400        12.2500      -999.2500        83.9701      -999.2500         7.3950      -999.2500        74.9937
    1960.01640        12.2500      -999.2500        83.5746      -999.2500         7.4350      -999.2500        75.0373
    1960.16880        12.2500      -999.2500        83.6082      -999.2500         7.4702      -999.2500        75.1341
    1960.32120        12.2500      -999.2500        83.6418      -999.2500         7.5055      -999.2500        75.2310
    1960.47360        12.2500      -999.2500        83.6754      -999.2500         7.5407      -999.2500        75.3278
    1960.62600        12.2500      -999.2500        84.5679      -999.2500         7.5790      -999.2500        75.1801
    1960.77840        12.2500      -999.2500        85.6403      -999.2500         7.6179      -999.2500        74.9812
    1960.93080        12.2500      -999.2500        86.7127      -999.2500         7.6567      -999.2500        74.7823
    1961.08320        12.2500      -999.2500        86.6151      -999.2500         7.7010      -999.2500        74.5122
    1961.23560        12.2500      -999.2500        85.5444      -999.2500         7.7496      -999.2500        74.1830
    1961.38800        12.2500      -999.2500        84.4738      -999.2500         7.7983      -999.2500        73.8537
    1961.54040        12.2500      -999.2500        83.2209      -999.2500         7.8640      -999.2500        73.6051
    1961.69280        12.2500      -999.2500        81.4628      -999.2500         7.9767      -999.2500        73.5802
    1961.84520        12.2500      -999.2500        79.7048      -999.2500         8.0895      -999.2500        73.5553
    1961.99760        12.2500      -999.2500        77.9467      -999.2500         8.2022      -999.2500        73.5304
    1962.15000        12.2500      -999.2500        77.7287      -999.2500         8.3311      -999.2500        73.3667
    1962.30240        12.2500      -999.2500        77.5353      -999.2500         8.4603      -999.2500        73.2008
    1962.45480        12.2500      -999.2500        77.3419      -999.2500         8.5895      -999.2500        73.0350
    1962.60720        12.2500      -999.2500        77.2481      -999.2500         8.7670      -999.2500        72.9858
    1962.75960        12.2500      -999.2500        77.1963      -999.2500         8.9648      -999.2500        72.9858
    1962.91200        12.2500      -999.2500        77.1446      -999.2500         9.1626      -999.2500        72.9858
    1963.06440        12.2500      -999.2500        77.0804      -999.2500         9.3230      -999.2500        72.8896
    1963.21680        12.2500      -999.2500        76.9993      -999.2500         9.4322      -999.2500        72.6621
    1963.36920        12.2500      -999.2500        76.9183      -999.2500         9.5413      -999.2500        72.4346
    1963.52160        12.2500      -999.2500        76.8091      -999.2500         9.6350      -999.2500        72.2063
    1963.67400        12.2500      -999.2500        76.5294      -999.2500         9.6353      -999.2500        71.9729
    1963.82640        12.2500      -999.2500        76.2496      -999.2500         9.6356      -999.2500        71.7395
    1963.97880        12.2500      -999.2500        75.9699      -999.2500         9.6359      -999.2500        71.5061
    1964.13120        12.2500      -999.2500        75.8812      -999.2500         9.5426      -999.2500        71.4241
    1964.28360        12.2500      -999.2500        75.8233      -999.2500         9.4343      -999.2500        71.3665
    1964.43600        12.2500      -999.2500        75.7655      -999.2500         9.3259      -999.2500        71.3090
    1964.58840        12.2500      -999.2500        75.6694      -999.2500         9.1903      -999.2500        70.9320
    1964.74080        12.2500      -999.2500        75.5456      -999.2500         9.0349      -999.2500        70.3237
    1964.89320        12.2500      -999.2500        75.4218      -999.2500         8.8794      -999.2500        69.7154
    1965.04560        12.2500      -999.2500        75.6267      -999.2500         8.7209      -999.2500        69.3471
    1965.19800        12.2500      -999.2500        76.6014      -999.2500         8.5549      -999.2500        69.5408
    1965.35040        12.2500      -999.2500        77.5762      -999.2500         8.3890      -999.2500        69.7345
    1965.50280        12.2500      -999.2500        78.5536      -999.2500         8.2234      -999.2500        69.9315
    1965.65520        12.2500      -999.2500        79.6732      -999.2500         8.0736      -999.2500        70.3057
    1965.80760        12.2500      -999.2500        80.7928      -999.2500         7.9238      -999.2500        70.6799
    1965.96000        12.2500      -999.2500        81.9123      -999.2500         7.7740      -999.2500        71.0541
    1966.11240        12.2500      -999.2500        83.0367      -999.2500         7.6095      -999.2500        71.4283
    1966.26480        12.2500      -999.2500        84.1627      -999.2500         7.4399      -999.2500        71.8025
    1966.41720        12.2500      -999.2500        85.2887      -999.2500         7.2703      -999.2500        72.1767
