~Version Information Block
VERS .                 2.00:  CWLS LOG ASCII STANDARD - VERSION 2.00
WRAP .                   NO:  One line per depth step
~Well Information Block
#MNEM.UNIT        Data Type   Information
#---------- ----------------  -----------
STRT .M             0.00000:  START DEPTH
STOP .M          3900.98280:  STOP DEPTH
STEP .M             0.15240:  STEP
NULL .              -999.25:  NULL VALUE
COMP .                     :  COMPANY
WELL .             Kapuni-4:  WELL
FLD  .                     :  FIELD
LOC  .                     :  LOCATION
CTRY .                     :  COUNTRY
STAT .                     :  STATE
CNTY .                     :  COUNTY
SRVC .     Shell BP & Todd Oil Services Ltd:  SERVICE COMPANY
DATE .                     :  DATE
API  .                     :  API NUMBER
UWI  .         100000021909:  UNIQUE WELL ID
LATI .           -39.450469:  LATITUDE
LONG .           174.172705:  LONGITUDE
~Curve Information Block
#MNEM.UNIT         API CODE   Curve Description
#---------- ----------------  -----------------
DEPTH.M                    :  
BS   .IN                   :  (BS)
CALI .IN                   :  (CALI)
DTC  .US/F                 :  (DT)
GR   .GAPI                 :  (GR)
RESD .OHMM                 :  LN (RES_DEP)
RESM .OHMM                 :  I5FR_01r (RES_MED)
SP   .MV                   :  SP+150 (SP)
~Parameter Information Block
#MNEM.UNIT            Value   Description
#---------- ----------------  -----------
CUR_INT_BOT.M                3901:  Current interpolated bottom
PROJECT.     New Zealand Log QC Project:  
SET  .     A0_FINAL_INTER_REF_D:  
ELEVATION_AMSL.M              232.56:  Elevation above mean sea level
ELEVATION_REF.                   DF:  Measurement reference
FORMATION_AT_TD.         Kapuni Group:  Formation at TD
GL_ELEVATION_AMSL.M            226.5000:  Ground level elevation above mean sea level
LICENCE_NUMBER.             PML38839:  Licence number
ONSHORE_OR_OFFSHORE.              Onshore:  Onshore/offshore
PR_NUMBER.                PR466:  Petroleum report number
SPUD_DATE.           20/08/1962:  Spud date
STATUS_AT_COMPLETION.     Completed as a future production well:  Status at completion
TD_DATE.           26/10/1962:  Total depth date
TOTAL_DEPTH_DRILLED.M             3901.44:  Total depth drilled
~Other Information Block
# 
~A       DEPTH             BS           CALI            DTC             GR           RESD           RESM             SP 
# ...
    3890.31480         8.5000         8.3845       108.2272        37.6282        55.5964        26.5585        57.0454
    3890.46720         8.5000         8.3750       103.8324        39.5266        55.1921        25.0757        56.9422
    3890.61960         8.5000         8.4337        98.6797        43.4496        54.1395        23.4207        56.9391
    3890.77200         8.5000         8.5111        93.3192        47.9277        52.9093        21.7186        56.9635
    3890.92440         8.5000         8.5885        87.9586        52.4059        51.6790        20.0164        56.9879
    3891.07680         8.5000         8.6212        83.4895        55.1273        50.8692        18.6245        57.0490
    3891.22920         8.5000         8.6100        79.8980        56.1195        50.4734        17.5380        57.1463
    3891.38160         8.5000         8.5988        76.3064        57.1116        50.0776        16.4514        57.2436
    3891.53400         8.5000         8.5844        73.6554        57.5006        49.7241        15.5355        57.3506
    3891.68640         8.5000         8.5585        74.2794        55.7893        49.5179        15.2138        57.4916
    3891.83880         8.5000         8.5327        74.9035        54.0779        49.3116        14.8920        57.6326
    3891.99120         8.5000         8.5069        75.5275        52.3666        49.1053        14.5703        57.7736
    3892.14360         8.5000         8.5002        75.1837        51.4901        48.8645        14.0644        57.7191
    3892.29600         8.5000         8.4947        74.7806        50.6648        48.6215        13.5472        57.6528
    3892.44840         8.5000         8.4891        74.3774        49.8395        48.3785        13.0300        57.5864
    3892.60080         8.5000         8.4893        80.0972        49.3893        48.2093        12.7202        57.6392
    3892.75320         8.5000         8.4925        88.9514        49.1312        48.0779        12.5167        57.7530
    3892.90560         8.5000         8.4957        97.8055        48.8731        47.9465        12.3132        57.8668
    3893.05800         8.5000         8.5029       103.8308        49.0227        47.7025        12.4235        57.8545
    3893.21040         8.5000         8.5165       105.2519        49.8359        47.2754        13.0444        57.6370
    3893.36280         8.5000         8.5301       106.6730        50.6492        46.8483        13.6653        57.4195
    3893.51520         8.5000         8.5439       107.9277        51.0525        46.4919        14.3864        57.2417
    3893.66760         8.5000         8.5592       107.6802        47.7556        46.7734        16.0120        57.4226
    3893.82000         8.5000         8.5746       107.4328        44.4587        47.0548        17.6376        57.6036
    3893.97240         8.5000         8.5899       107.1853        41.1618        47.3363        19.2633        57.7845
    3894.12480         8.5000         8.5576       105.1845        40.0844        49.0985        20.5377        57.6427
    3894.27720         8.5000         8.5148       102.7960        39.4980        51.1883        21.7344        57.4296
    3894.42960         8.5000         8.4720       100.4074        38.9115        53.2780        22.9311        57.2165
    3894.58200         8.5000         8.4807        95.0161        39.8663        55.6253        23.1409        56.9817
    3894.73440         8.5000         8.5337        87.0468        42.1442        58.1938        22.5033        56.7283
    3894.88680         8.5000         8.5866        79.0775        44.4222        60.7623        21.8658        56.4750
    3895.03920         8.5000         8.6267        72.6563        46.2383        62.9073        21.3568        56.3500
    3895.19160         8.5000         8.6294        70.7054        46.7209        63.8295        21.2187        56.5958
    3895.34400         8.5000         8.6322        68.7546        47.2036        64.7517        21.0806        56.8416
    3895.49640         8.5000         8.6349        66.8037        47.6862        65.6739        20.9425        57.0873
    3895.64880         8.5000         8.6222        67.1805        47.3445        65.7543        21.6768        56.8423
    3895.80120         8.5000         8.6092        67.6137        46.9830        65.8142        22.4322        56.5854
    3895.95360         8.5000         8.5961        68.0468        46.6214        65.8742        23.1876        56.3284
    3896.10600         8.5000         8.6083        74.0388        44.5456        65.6749        25.5384        56.2898
    3896.25840         8.5000         8.6317        82.4643        41.7195        65.3620        28.5876        56.3467
    3896.41080         8.5000         8.6551        90.8897        38.8933        65.0491        31.6368        56.4036
    3896.56320         8.5000         8.7612        96.8095        36.2356        65.0788        35.1963        56.5500
    3896.71560         8.5000         8.9841        99.1931        33.8156        65.5919        39.4760        56.8226
    3896.86800         8.5000         9.2070       101.5766        31.3955        66.1051        43.7558        57.0953
    3897.02040         8.5000         9.3947       103.5224        29.4041        66.2300        47.1471        57.3757
    3897.17280         8.5000         9.3541       102.6355        30.1856        63.8423        44.7899        57.7063
    3897.32520         8.5000         9.3135       101.7486        30.9671        61.4547        42.4327        58.0370
    3897.47760         8.5000         9.2729       100.8618        31.7487        59.0671        40.0755        58.3676
    3897.63000         8.5000         9.1329       103.2005        32.5516        55.9121        34.3142        58.4103
    3897.78240         8.5000         8.9758       106.0951        33.3582        52.6250        27.9662        58.4033
    3897.93480         8.5000         8.8187       108.9896        34.1649        49.3379        21.6183        58.3963
    3898.08720         8.5000         8.7176       110.7149        35.9946        46.8189        18.4132        58.4078
    3898.23960         8.5000         8.6584       111.5659        38.5891        44.8742        17.5581        58.4330
    3898.39200         8.5000         8.5992       112.4169        41.1837        42.9296        16.7030        58.4583
    3898.54440         8.5000         8.5666      -999.2500        43.0254        41.2655        16.0751        58.4452
    3898.69680         8.5000         8.5989      -999.2500        43.0357        40.2836        16.0002        58.3388
    3898.84920         8.5000         8.6312      -999.2500        43.0460        39.3017        15.9253        58.2324
    3899.00160         8.5000         8.6627      -999.2500        43.0707        38.3334        15.8508        58.1294
    3899.15400         8.5000         8.6302      -999.2500        44.4512        38.6516        15.8233        58.3442
    3899.30640         8.5000         8.5977      -999.2500        45.8316        38.9698        15.7958        58.5589
    3899.45880         8.5000         8.5652      -999.2500        47.2121        39.2880        15.7683        58.7737
    3899.61120         8.5000      -999.2500      -999.2500        48.4998        39.8022      -999.2500        58.8547
    3899.76360         8.5000      -999.2500      -999.2500        49.7533        40.3890      -999.2500        58.8861
    3899.91600         8.5000      -999.2500      -999.2500        51.0067        40.9757      -999.2500        58.9175
    3900.06840         8.5000      -999.2500      -999.2500        47.7444        41.3152      -999.2500        58.8839
    3900.22080         8.5000      -999.2500      -999.2500        38.9364        41.3510      -999.2500        58.7706
    3900.37320         8.5000      -999.2500      -999.2500        30.1284        41.3868      -999.2500        58.6573
