~Version Information Block
VERS .                 2.00:  CWLS LOG ASCII STANDARD - VERSION 2.00
WRAP .                   NO:  One line per depth step
~Well Information Block
#MNEM.UNIT        Data Type   Information
#---------- ----------------  -----------
STRT .M             6.09600:  START DEPTH
STOP .M          3796.43640:  STOP DEPTH
STEP .M             0.15240:  STEP
NULL .              -999.25:  NULL VALUE
COMP .                     :  COMPANY
WELL .             Kapuni-3:  WELL
FLD  .                     :  FIELD
LOC  .                     :  LOCATION
CTRY .                     :  COUNTRY
STAT .                     :  STATE
CNTY .                     :  COUNTY
SRVC .     Shell BP & Todd Oil Services Ltd:  SERVICE COMPANY
DATE .                     :  DATE
API  .                     :  API NUMBER
UWI  .         100000502146:  UNIQUE WELL ID
LATI .          -39.5051918:  LATITUDE
LONG .          174.1760385:  LONGITUDE
~Curve Information Block
#MNEM.UNIT         API CODE   Curve Description
#---------- ----------------  -----------------
DEPTH.M                    :  
BS   .IN                   :  Bit Size (Created in Geolog)
CALI .IN                   :  (CALI)
DTC  .US/F                 :  (DT)
GR   .GAPI                 :  (GR)
RESD .OHMM                 :  Long normal (ES) (RES_DEP)
RESM .OHMM                 :  I6FR (IES) (RES_MED)
SP   .MV                   :  SP-10 (SP)
~Parameter Information Block
#MNEM.UNIT            Value   Description
#---------- ----------------  -----------
CUR_INT_BOT.M              3796.5:  Current interpolated bottom
PROJECT.     New Zealand Log QC Project:  
SET  .     A0_FINAL_INTER_REF_D:  
ELEVATION_AMSL.M              136.86:  Elevation above mean sea level
ELEVATION_REF.                   DF:  Measurement reference
FORMATION_AT_TD.         Kapuni Group:  Formation at TD
GL_ELEVATION_AMSL.M            131.1000:  Ground level elevation above mean sea level
LICENCE_NUMBER.             PML38839:  Licence number
ONSHORE_OR_OFFSHORE.              Onshore:  Onshore/offshore
PR_NUMBER.                PR465:  Petroleum report number
SPUD_DATE.           21/04/1962:  Spud date
STATUS_AT_COMPLETION.     Tested and completed as a potential producer:  Status at completion
TD_DATE.           24/06/1962:  Total depth date
TOTAL_DEPTH_DRILLED.M              3796.9:  Total depth drilled
~Other Information Block
# 
~A       DEPTH             BS           CALI            DTC             GR           RESD           RESM             SP 
# ...
    3365.44920        12.2500        10.8672        81.2573        78.4267        18.2892         7.7314        92.9727
    3365.60160        12.2500        10.7972        85.2473        77.3177        18.3889         8.6309        93.0228
    3365.75400        12.2500        10.5598        90.4230        75.7429        18.3837         9.8960        93.0589
    3365.90640        12.2500        10.3224        95.5986        74.1681        18.3785        11.1611        93.0950
    3366.05880        12.2500        10.2362       102.1597        72.1279        18.4837        13.0164        93.1306
    3366.21120        12.2500        10.3907       110.9261        69.3468        18.7647        15.8114        93.1653
    3366.36360        12.2500        10.5452       119.6925        66.5656        19.0457        18.6063        93.2000
    3366.51600        12.2500        10.6544       127.8875        63.9606        19.3341        21.5974        93.2148
    3366.66840        12.2500        10.3782       131.2111        62.8572        19.6862        26.2612        93.0604
    3366.82080        12.2500        10.1020       134.5347        61.7538        20.0382        30.9250        92.9060
    3366.97320        12.2500         9.8257       137.8583        60.6504        20.3902        35.5889        92.7516
    3367.12560        12.2500         9.6836       137.2334        62.4551        19.9399        32.2910        92.6281
    3367.27800        12.2500         9.5701       135.7661        64.8803        19.3184        27.2944        92.5111
    3367.43040        12.2500         9.4567       134.2988        67.3055        18.6969        22.2978        92.3942
    3367.58280        12.2500         9.3774       127.3219        69.9856        17.9936        18.4900        92.4259
    3367.73520        12.2500         9.3270       115.7137        72.8799        17.2214        15.6814        92.5825
    3367.88760        12.2500         9.2765       104.1056        75.7742        16.4493        12.8729        92.7391
    3368.04000        12.2500         9.2254        94.2159        78.5337        15.7263        10.5824        92.9077
    3368.19240        12.2500         9.1726        89.1549        80.9144        15.1412         9.7480        93.1096
    3368.34480        12.2500         9.1197        84.0940        83.2951        14.5562         8.9135        93.3116
    3368.49720        12.2500         9.0668        79.0330        85.6758        13.9712         8.0790        93.5136
    3368.64960        12.2500         9.0238        79.1166        85.8251        13.9720         7.9627        94.0428
    3368.80200        12.2500         8.9809        79.2965        85.9326        13.9837         7.8598        94.5781
    3368.95440        12.2500         8.9380        79.4763        86.0401        13.9955         7.7570        95.1134
    3369.10680        12.2500         8.9169        78.6483        85.6275        14.0996         7.7454        95.4112
    3369.25920        12.2500         8.9051        77.3899        84.9927        14.2431         7.7728        95.6077
    3369.41160        12.2500         8.8932        76.1314        84.3579        14.3866         7.8002        95.8041
    3369.56400        12.2500         8.8688        75.0310        83.7205        14.5036         7.8647        95.8872
    3369.71640        12.2500         8.8269        74.1488        83.0796        14.5841         7.9805        95.8140
    3369.86880        12.2500         8.7851        73.2666        82.4387        14.6645         8.0962        95.7407
    3370.02120        12.2500         8.7311        72.5927        81.7822        14.7424         8.1879        95.5883
    3370.17360        12.2500         8.6024        73.2077        81.0296        14.8048         8.1313        94.9463
    3370.32600        12.2500         8.4737        73.8226        80.2769        14.8672         8.0747        94.3044
    3370.47840        12.2500         8.3450        74.4376        79.5243        14.9296         8.0180        93.6624
    3370.63080        12.2500         8.2354        74.6768        78.5145        14.9169         7.9701        92.6128
    3370.78320        12.2500         8.1290        74.8540        77.4622        14.8918         7.9237        91.4958
    3370.93560        12.2500         8.0225        75.0313        76.4100        14.8666         7.8773        90.3789
    3371.08800        12.2500         7.9857        75.3306        76.1759        14.8525         7.8726        89.0321
    3371.24040        12.2500         7.9998        75.7192        76.5406        14.8463         7.8985        87.5170
    3371.39280        12.2500         8.0140        76.1079        76.9053        14.8402         7.9244        86.0020
    3371.54520        12.2500         8.0713        76.6937        77.4191        14.8815         7.9510        84.5488
    3371.69760        12.2500         8.2312        77.7471        78.2863        15.0349         7.9789        83.2427
    3371.85000        12.2500         8.3910        78.8005        79.1535        15.1883         8.0068        81.9365
    3372.00240        12.2500         8.5485        79.8288        80.0088        15.3439         8.0394        80.6368
    3372.15480        12.2500         8.5545        79.2860        80.1219        15.6376         8.3648        79.7427
    3372.30720        12.2500         8.5606        78.7432        80.2351        15.9312         8.6902        78.8486
    3372.45960        12.2500         8.5666        78.2004        80.3482        16.2249         9.0156        77.9545
    3372.61200        12.2500         8.6009        76.3971        80.0660        16.2022         9.6799        77.9215
    3372.76440        12.2500         8.6453        74.1391        79.6412        16.0655        10.4665        78.1992
    3372.91680        12.2500         8.6897        71.8810        79.2164        15.9288        11.2531        78.4768
    3373.06920        12.2500         8.7278        70.6763        78.5976        15.7646        11.8295        78.9725
    3373.22160        12.2500         8.7582        70.7379        77.7455        15.5675        12.1531        79.7302
    3373.37400        12.2500         8.7885        70.7995        76.8935        15.3703        12.4767        80.4880
    3373.52640        12.2500         8.8070        71.0208        76.0329        15.2276        12.6400        81.1572
    3373.67880        12.2500         8.7685        72.0043        75.1315        15.3445        12.0378        81.4039
    3373.83120        12.2500         8.7301        72.9877        74.2302        15.4613        11.4357        81.6506
    3373.98360        12.2500         8.6916        73.9711        73.3289        15.5782        10.8336        81.8973
    3374.13600        12.2500         8.6829        73.7508        72.7835        15.4802        10.2944        81.8863
    3374.28840        12.2500         8.6777        73.3853        72.2811        15.3562         9.7627        81.8442
    3374.44080        12.2500         8.6726        73.0199        71.7787        15.2323         9.2311        81.8021
    3374.59320        12.2500         8.6716        73.3773        71.6045        15.2728         8.8948        81.7587
    3374.74560        12.2500         8.6731        74.1939        71.6388        15.4178         8.6825        81.7143
    3374.89800        12.2500         8.6746        75.0105        71.6731        15.5628         8.4702        81.6700
    3375.05040        12.2500         8.6854        75.7697        71.6137        15.6734         8.3293        81.6837
    3375.20280        12.2500         8.7150        76.4126        71.3646        15.7143         8.3330        81.8147
    3375.35520        12.2500         8.7446        77.0556        71.1156        15.7552         8.3368        81.9456
    3375.50760        12.2500         8.7726        77.5957        70.8636        15.7845         8.3433        82.0927
