~Version Information Block
VERS .                 2.00:  CWLS LOG ASCII STANDARD - VERSION 2.00
WRAP .                   NO:  One line per depth step
~Well Information Block
#MNEM.UNIT        Data Type   Information
#---------- ----------------  -----------
STRT .M             5.63880:  START DEPTH
STOP .M          4194.35280:  STOP DEPTH
STEP .M             0.15240:  STEP
NULL .              -999.25:  NULL VALUE
COMP .                     :  COMPANY
WELL .             Kapuni-2:  WELL
FLD  .                     :  FIELD
LOC  .                     :  LOCATION
CTRY .                     :  COUNTRY
STAT .                     :  STATE
CNTY .                     :  COUNTY
SRVC .     Shell BP & Todd Oil Services Ltd:  SERVICE COMPANY
DATE .                     :  DATE
API  .                     :  API NUMBER
UWI  .         100000021910:  UNIQUE WELL ID
LATI .          -39.4921223:  LATITUDE
LONG .          174.1702607:  LONGITUDE
~Curve Information Block
#MNEM.UNIT         API CODE   Curve Description
#---------- ----------------  -----------------
DEPTH.M                    :  
BS   .IN                   :  Bit Size (Created in Geolog)
CALI .IN                   :  Normalised log, not for display purpose (CALI)
DTC  .US/F                 :  splice of bcsl & bcsl_01r (DT)
GR   .GAPI                 :  (GR)
RESD .OHMM                 :  ln_e (RES_DEP)
RESM .OHMM                 :  i5fr_00j (RES_MED)
SP   .MV                   :  SP_E+130, K1 & K2 bit + 100 (SP)
~Parameter Information Block
#MNEM.UNIT            Value   Description
#---------- ----------------  -----------
CUR_INT_BOT.M              4194.5:  Current interpolated bottom
PROJECT.     New Zealand Log QC Project:  
SET  .     A0_FINAL_INTER_REF_D:  
ELEVATION_AMSL.M               157.3:  Elevation above mean sea level
ELEVATION_REF.                   DF:  Measurement reference
FORMATION_AT_TD.           Mangaotaki:  Formation at TD
GL_ELEVATION_AMSL.M            152.1000:  Ground level elevation above mean sea level
LICENCE_NUMBER.             PML38839:  Licence number
ONSHORE_OR_OFFSHORE.              Onshore:  Onshore/offshore
PR_NUMBER.                PR464:  Petroleum report number
SPUD_DATE.           09/11/1961:  Spud date
STATUS_AT_COMPLETION.            Completed:  Status at completion
TD_DATE.           27/01/1962:  Total depth date
TOTAL_DEPTH_DRILLED.M             4194.66:  Total depth drilled
~Other Information Block
# 
~A       DEPTH             BS           CALI            DTC             GR           RESD           RESM             SP 
# ...
    1792.52880        12.2500         8.4323        89.7441      -999.2500        21.5167        15.0716        49.3661
    1792.68120        12.2500         8.4288        86.0895      -999.2500        21.5545        15.5205        49.2532
    1792.83360        12.2500         8.4253        82.4349      -999.2500        21.5923        15.9693        49.1402
    1792.98600        12.2500         8.4219        78.7803      -999.2500        21.6301        16.4182        49.0273
    1793.13840        12.2500         8.4002        80.4615      -999.2500        21.5821        16.4086        48.9313
    1793.29080        12.2500         8.3768        82.6824      -999.2500        21.5254        16.3526        48.8370
    1793.44320        12.2500         8.3533        84.9033      -999.2500        21.4688        16.2967        48.7427
    1793.59560        12.2500         8.3636        86.4937      -999.2500        21.2812        16.1678        48.6223
    1793.74800        12.2500         8.3940        87.7094      -999.2500        21.0158        15.9955        48.4864
    1793.90040        12.2500         8.4243        88.9251      -999.2500        20.7505        15.8233        48.3505
    1794.05280        12.2500         8.4442        90.1573      -999.2500        20.5677        15.7994        48.1995
    1794.20520        12.2500         8.4444        91.4208      -999.2500        20.5407        16.0555        48.0198
    1794.35760        12.2500         8.4446        92.6842      -999.2500        20.5136        16.3116        47.8401
    1794.51000        12.2500         8.4449        93.7491      -999.2500        20.4932        16.5450        47.6611
    1794.66240        12.2500         8.4457        91.9866      -999.2500        20.5681        16.4554        47.4927
    1794.81480        12.2500         8.4464        90.2240      -999.2500        20.6429        16.3657        47.3242
    1794.96720        12.2500         8.4472        88.4615      -999.2500        20.7177        16.2760        47.1558
    1795.11960        12.2500         8.4460        87.5815      -999.2500        20.5949        15.9300        47.0049
    1795.27200        12.2500         8.4443        86.9435      -999.2500        20.4178        15.5138        46.8588
    1795.42440        12.2500         8.4426        86.3055      -999.2500        20.2408        15.0976        46.7127
    1795.57680        12.2500         8.4324        85.7096      -999.2500        20.0958        14.8654        46.6009
    1795.72920        12.2500         8.4138        85.1550      -999.2500        19.9825        14.8142        46.5230
    1795.88160        12.2500         8.3953        84.6003      -999.2500        19.8691        14.7630        46.4450
    1796.03400        12.2500         8.3756        84.1968      -999.2500        19.7784        14.7683        46.3521
    1796.18640        12.2500         8.3522        84.3191      -999.2500        19.7665        14.9706        46.2074
    1796.33880        12.2500         8.3288        84.4414      -999.2500        19.7546        15.1728        46.0626
    1796.49120        12.2500         8.3054        84.5638      -999.2500        19.7427        15.3751        45.9179
    1796.64360        12.2500         8.2871        85.8612      -999.2500        19.5606        15.4588        45.6448
    1796.79600        12.2500         8.2691        87.2307      -999.2500        19.3681        15.5353        45.3638
    1796.94840        12.2500         8.2511        88.6002      -999.2500        19.1756        15.6117        45.0829
    1797.10080        12.2500         8.2406        89.0777      -999.2500        18.9696        15.3112        44.9131
    1797.25320        12.2500         8.2339        89.0985      -999.2500        18.7566        14.8177        44.8002
    1797.40560        12.2500         8.2272        89.1193      -999.2500        18.5437        14.3241        44.6873
    1797.55800        12.2500         8.2230        89.1988      -999.2500        18.3662        13.9601        44.6485
    1797.71040        12.2500         8.2230        89.3738      -999.2500        18.2461        13.8070        44.7303
    1797.86280        12.2500         8.2230        89.5488      -999.2500        18.1260        13.6539        44.8121
    1798.01520        12.2500         8.2232        89.5705      -999.2500        18.0124        13.5059        44.8542
    1798.16760        12.2500         8.2253        88.2090      -999.2500        17.9573        13.4050        44.5377
    1798.32000        12.2500         8.2275        86.8475      -999.2500        17.9022        13.3040        44.2211
    1798.47240        12.2500         8.2296        85.4860      -999.2500        17.8471        13.2030        43.9046
    1798.62480        12.2500         8.2298        85.1806      -999.2500        17.8803        12.9821        43.7077
    1798.77720        12.2500         8.2296        85.1088      -999.2500        17.9329        12.7347        43.5374
    1798.92960        12.2500         8.2294        85.0370      -999.2500        17.9856        12.4873        43.3670
    1799.08200        12.2500         8.2302        84.6891      -999.2500        18.0597        12.5186        43.2967
    1799.23440        12.2500         8.2318        84.1043      -999.2500        18.1522        12.7893        43.3124
    1799.38680        12.2500         8.2334        83.5195      -999.2500        18.2447        13.0600        43.3282
    1799.53920        12.2500         8.2305        83.1650      -999.2500        18.3631        13.3276        43.3613
    1799.69160        12.2500         8.2145        83.4755      -999.2500        18.5561        13.5858        43.4448
    1799.84400        12.2500         8.1984        83.7860      -999.2500        18.7491        13.8441        43.5282
    1799.99640        12.2500         8.1823        84.0966      -999.2500        18.9421        14.1024        43.6117
    1800.14880        12.2500         8.2093        84.8497      -999.2500        18.9622        14.3655        43.8054
    1800.30120        12.2500         8.2373        85.6136      -999.2500        18.9781        14.6288        44.0018
    1800.45360        12.2500         8.2653        86.3775      -999.2500        18.9940        14.8920        44.1982
    1800.60600        12.2500         8.2822        87.0009      -999.2500        18.9905        14.9844        44.4707
    1800.75840        12.2500         8.2943        87.5627      -999.2500        18.9785        15.0021        44.7765
    1800.91080        12.2500         8.3064        88.1245      -999.2500        18.9665        15.0197        45.0823
    1801.06320        12.2500         8.3050        88.2333      -999.2500        18.9472        14.9892        45.3929
    1801.21560        12.2500         8.2849        87.7026      -999.2500        18.9177        14.8909        45.7101
    1801.36800        12.2500         8.2647        87.1719      -999.2500        18.8882        14.7925        46.0273
    1801.52040        12.2500         8.2443        86.9273      -999.2500        18.8643        14.7007        46.3554
    1801.67280        12.2500         8.2229        88.5343      -999.2500        18.8768        14.6507        46.7539
    1801.82520        12.2500         8.2016        90.1412      -999.2500        18.8893        14.6008        47.1524
    1801.97760        12.2500         8.1802        91.7482      -999.2500        18.9018        14.5509        47.5509
    1802.13000        12.2500         8.1995        90.4126      -999.2500        18.9331        14.3235        47.8276
    1802.28240        12.2500         8.2256        88.5700      -999.2500        18.9677        14.0656        48.0832
    1802.43480        12.2500         8.2518        86.7274      -999.2500        19.0023        13.8077        48.3389
    1802.58720        12.2500         8.2583        83.1167      -999.2500        19.0246        13.7395        48.5530
