~Version Information Block
VERS .                 2.00:  CWLS LOG ASCII STANDARD - VERSION 2.00
WRAP .                   NO:  One line per depth step
~Well Information Block
#MNEM.UNIT        Data Type   Information
#---------- ----------------  -----------
STRT .M             6.09600:  START DEPTH
STOP .M          3796.43640:  STOP DEPTH
STEP .M             0.15240:  STEP
NULL .              -999.25:  NULL VALUE
COMP .                     :  COMPANY
WELL .             Kapuni-3:  WELL
FLD  .                     :  FIELD
LOC  .                     :  LOCATION
CTRY .                     :  COUNTRY
STAT .                     :  STATE
CNTY .                     :  COUNTY
SRVC .     Shell BP & Todd Oil Services Ltd:  SERVICE COMPANY
DATE .                     :  DATE
API  .                     :  API NUMBER
UWI  .         100000502146:  UNIQUE WELL ID
LATI .          -39.5051918:  LATITUDE
LONG .          174.1760385:  LONGITUDE
~Curve Information Block
#MNEM.UNIT         API CODE   Curve Description
#---------- ----------------  -----------------
DEPTH.M                    :  
BS   .IN                   :  Bit Size (Created in Geolog)
CALI .IN                   :  (CALI)
DTC  .US/F                 :  (DT)
GR   .GAPI                 :  (GR)
RESD .OHMM                 :  Long normal (ES) (RES_DEP)
RESM .OHMM                 :  I6FR (IES) (RES_MED)
SP   .MV                   :  SP-10 (SP)
~Parameter Information Block
#MNEM.UNIT            Value   Description
#---------- ----------------  -----------
CUR_INT_BOT.M              3796.5:  Current interpolated bottom
PROJECT.     New Zealand Log QC Project:  
SET  .     A0_FINAL_INTER_REF_D:  
ELEVATION_AMSL.M              136.86:  Elevation above mean sea level
ELEVATION_REF.                   DF:  Measurement reference
FORMATION_AT_TD.         Kapuni Group:  Formation at TD
GL_ELEVATION_AMSL.M            131.1000:  Ground level elevation above mean sea level
LICENCE_NUMBER.             PML38839:  Licence number
ONSHORE_OR_OFFSHORE.              Onshore:  Onshore/offshore
PR_NUMBER.                PR465:  Petroleum report number
SPUD_DATE.           21/04/1962:  Spud date
STATUS_AT_COMPLETION.     Tested and completed as a potential producer:  Status at completion
TD_DATE.           24/06/1962:  Total depth date
TOTAL_DEPTH_DRILLED.M              3796.9:  Total depth drilled
~Other Information Block
# 
~A       DEPTH             BS           CALI            DTC             GR           RESD           RESM             SP 
# ...
    3079.54680        12.2500      -999.2500        87.8522      -999.2500         2.4816      -999.2500        92.1671
    3079.69920        12.2500      -999.2500        87.8560      -999.2500         2.5045      -999.2500        92.6864
    3079.85160        12.2500      -999.2500        87.8598      -999.2500         2.5273      -999.2500        93.2056
    3080.00400        12.2500      -999.2500        87.9002      -999.2500         2.5496      -999.2500        93.6944
    3080.15640        12.2500      -999.2500        89.2950      -999.2500         2.5496      -999.2500        93.0555
    3080.30880        12.2500      -999.2500        90.6898      -999.2500         2.5496      -999.2500        92.4166
    3080.46120        12.2500      -999.2500        92.0847      -999.2500         2.5496      -999.2500        91.7777
    3080.61360        12.2500      -999.2500        91.9697      -999.2500         2.5496      -999.2500        91.4920
    3080.76600        12.2500      -999.2500        91.3390      -999.2500         2.5496      -999.2500        91.3269
    3080.91840        12.2500      -999.2500        90.7084      -999.2500         2.5496      -999.2500        91.1618
    3081.07080        12.2500      -999.2500        90.2096      -999.2500         2.5463      -999.2500        91.1198
    3081.22320        12.2500      -999.2500        89.8628      -999.2500         2.5394      -999.2500        91.2194
    3081.37560        12.2500      -999.2500        89.5159      -999.2500         2.5325      -999.2500        91.3191
    3081.52800        12.2500      -999.2500        89.1913      -999.2500         2.5237      -999.2500        91.4296
    3081.68040        12.2500      -999.2500        88.9655      -999.2500         2.5070      -999.2500        91.5884
    3081.83280        12.2500      -999.2500        88.7397      -999.2500         2.4903      -999.2500        91.7471
    3081.98520        12.2500      -999.2500        88.5139      -999.2500         2.4737      -999.2500        91.9059
    3082.13760        12.2500      -999.2500        88.6218      -999.2500         2.4569      -999.2500        91.9829
    3082.29000        12.2500      -999.2500        88.7656      -999.2500         2.4401      -999.2500        92.0511
    3082.44240        12.2500      -999.2500        88.9095      -999.2500         2.4233      -999.2500        92.1193
    3082.59480        12.2500      -999.2500        87.7545      -999.2500         2.3992      -999.2500        92.0795
    3082.74720        12.2500      -999.2500        85.8105      -999.2500         2.3707      -999.2500        91.9740
    3082.89960        12.2500      -999.2500        83.8664      -999.2500         2.3421      -999.2500        91.8685
    3083.05200        12.2500      -999.2500        82.5048      -999.2500         2.3128      -999.2500        91.7896
    3083.20440        12.2500      -999.2500        82.2678      -999.2500         2.2817      -999.2500        91.7618
    3083.35680        12.2500      -999.2500        82.0308      -999.2500         2.2506      -999.2500        91.7340
    3083.50920        12.2500      -999.2500        81.8530      -999.2500         2.2196      -999.2500        91.7124
    3083.66160        12.2500      -999.2500        82.5968      -999.2500         2.1895      -999.2500        91.7881
    3083.81400        12.2500      -999.2500        83.3405      -999.2500         2.1595      -999.2500        91.8638
    3083.96640        12.2500      -999.2500        84.0843      -999.2500         2.1295      -999.2500        91.9395
    3084.11880        12.2500      -999.2500        84.8497      -999.2500         2.1112      -999.2500        92.0011
    3084.27120        12.2500      -999.2500        85.6212      -999.2500         2.0962      -999.2500        92.0587
    3084.42360        12.2500      -999.2500        86.3927      -999.2500         2.0812      -999.2500        92.1162
    3084.57600        12.2500      -999.2500        86.7693      -999.2500         2.0663      -999.2500        92.1498
    3084.72840        12.2500      -999.2500        86.7489      -999.2500         2.0515      -999.2500        92.1594
    3084.88080        12.2500      -999.2500        86.7286      -999.2500         2.0368      -999.2500        92.1689
    3085.03320        12.2500      -999.2500        86.7113      -999.2500         2.0229      -999.2500        92.1863
    3085.18560        12.2500      -999.2500        86.7052      -999.2500         2.0121      -999.2500        92.2322
    3085.33800        12.2500      -999.2500        86.6991      -999.2500         2.0013      -999.2500        92.2780
    3085.49040        12.2500      -999.2500        86.6929      -999.2500         1.9905      -999.2500        92.3239
    3085.64280        12.2500      -999.2500        86.9157      -999.2500         2.0049      -999.2500        92.3560
    3085.79520        12.2500      -999.2500        87.1539      -999.2500         2.0210      -999.2500        92.3871
    3085.94760        12.2500      -999.2500        87.3921      -999.2500         2.0371      -999.2500        92.4183
    3086.10000        12.2500      -999.2500        86.7771      -999.2500         2.0532      -999.2500        92.4496
    3086.25240        12.2500      -999.2500        85.7150      -999.2500         2.0693      -999.2500        92.4809
    3086.40480        12.2500      -999.2500        84.6528      -999.2500         2.0854      -999.2500        92.5123
    3086.55720        12.2500      -999.2500        83.8615      -999.2500         2.1037      -999.2500        92.5435
    3086.70960        12.2500      -999.2500        83.5208      -999.2500         2.1255      -999.2500        92.5745
    3086.86200        12.2500      -999.2500        83.1802      -999.2500         2.1474      -999.2500        92.6055
    3087.01440        12.2500      -999.2500        82.9209      -999.2500         2.1700      -999.2500        92.6221
    3087.16680        12.2500      -999.2500        83.4416      -999.2500         2.1991      -999.2500        92.5013
    3087.31920        12.2500      -999.2500        83.9624      -999.2500         2.2282      -999.2500        92.3804
    3087.47160        12.2500      -999.2500        84.4831      -999.2500         2.2572      -999.2500        92.2595
    3087.62400        12.2500      -999.2500        84.4184      -999.2500         2.2863      -999.2500        92.1438
    3087.77640        12.2500      -999.2500        84.2196      -999.2500         2.3154      -999.2500        92.0293
    3087.92880        12.2500      -999.2500        84.0208      -999.2500         2.3444      -999.2500        91.9147
    3088.08120        12.2500      -999.2500        84.0958      -999.2500         2.3699      -999.2500        91.8612
    3088.23360        12.2500      -999.2500        84.4108      -999.2500         2.3921      -999.2500        91.8612
    3088.38600        12.2500      -999.2500        84.7259      -999.2500         2.4144      -999.2500        91.8612
    3088.53840        12.2500      -999.2500        84.9859      -999.2500         2.4348      -999.2500        91.8481
    3088.69080        12.2500      -999.2500        85.0827      -999.2500         2.4495      -999.2500        91.7961
    3088.84320        12.2500      -999.2500        85.1795      -999.2500         2.4643      -999.2500        91.7441
    3088.99560        12.2500      -999.2500        85.2762      -999.2500         2.4791      -999.2500        91.6921
    3089.14800        12.2500      -999.2500        86.0566      -999.2500         2.4939      -999.2500        91.6032
    3089.30040        12.2500      -999.2500        86.8574      -999.2500         2.5087      -999.2500        91.5132
    3089.45280        12.2500      -999.2500        87.6581      -999.2500         2.5234      -999.2500        91.4232
    3089.60520        12.2500      -999.2500        87.2534      -999.2500         2.5190      -999.2500        91.4229
