~Version Information Block
VERS .                 2.00:  CWLS LOG ASCII STANDARD - VERSION 2.00
WRAP .                   NO:  One line per depth step
~Well Information Block
#MNEM.UNIT        Data Type   Information
#---------- ----------------  -----------
STRT .M             5.63880:  START DEPTH
STOP .M          4194.35280:  STOP DEPTH
STEP .M             0.15240:  STEP
NULL .              -999.25:  NULL VALUE
COMP .                     :  COMPANY
WELL .             Kapuni-2:  WELL
FLD  .                     :  FIELD
LOC  .                     :  LOCATION
CTRY .                     :  COUNTRY
STAT .                     :  STATE
CNTY .                     :  COUNTY
SRVC .     Shell BP & Todd Oil Services Ltd:  SERVICE COMPANY
DATE .                     :  DATE
API  .                     :  API NUMBER
UWI  .         100000021910:  UNIQUE WELL ID
LATI .          -39.4921223:  LATITUDE
LONG .          174.1702607:  LONGITUDE
~Curve Information Block
#MNEM.UNIT         API CODE   Curve Description
#---------- ----------------  -----------------
DEPTH.M                    :  
BS   .IN                   :  Bit Size (Created in Geolog)
CALI .IN                   :  Normalised log, not for display purpose (CALI)
DTC  .US/F                 :  splice of bcsl & bcsl_01r (DT)
GR   .GAPI                 :  (GR)
RESD .OHMM                 :  ln_e (RES_DEP)
RESM .OHMM                 :  i5fr_00j (RES_MED)
SP   .MV                   :  SP_E+130, K1 & K2 bit + 100 (SP)
~Parameter Information Block
#MNEM.UNIT            Value   Description
#---------- ----------------  -----------
CUR_INT_BOT.M              4194.5:  Current interpolated bottom
PROJECT.     New Zealand Log QC Project:  
SET  .     A0_FINAL_INTER_REF_D:  
ELEVATION_AMSL.M               157.3:  Elevation above mean sea level
ELEVATION_REF.                   DF:  Measurement reference
FORMATION_AT_TD.           Mangaotaki:  Formation at TD
GL_ELEVATION_AMSL.M            152.1000:  Ground level elevation above mean sea level
LICENCE_NUMBER.             PML38839:  Licence number
ONSHORE_OR_OFFSHORE.              Onshore:  Onshore/offshore
PR_NUMBER.                PR464:  Petroleum report number
SPUD_DATE.           09/11/1961:  Spud date
STATUS_AT_COMPLETION.            Completed:  Status at completion
TD_DATE.           27/01/1962:  Total depth date
TOTAL_DEPTH_DRILLED.M             4194.66:  Total depth drilled
~Other Information Block
# 
~A       DEPTH             BS           CALI            DTC             GR           RESD           RESM             SP 
# ...
    2558.33880        12.2500        10.5044        94.7931      -999.2500         5.3953         7.1943        54.7444
    2558.49120        12.2500        10.6313        99.6011      -999.2500         5.4092         7.2002        54.7194
    2558.64360        12.2500        10.6033        94.4897      -999.2500         5.4100         7.2119        54.6043
    2558.79600        12.2500        10.5658        88.7704      -999.2500         5.4100         7.2239        54.4835
    2558.94840        12.2500        10.5284        83.0512      -999.2500         5.4100         7.2359        54.3628
    2559.10080        12.2500        10.5473        81.9516      -999.2500         5.3939         7.2330        54.2731
    2559.25320        12.2500        10.5951        83.2167      -999.2500         5.3696         7.2224        54.1992
    2559.40560        12.2500        10.6429        84.4819      -999.2500         5.3452         7.2118        54.1253
    2559.55800        12.2500        10.6549        86.1665      -999.2500         5.3185         7.1976        54.0885
    2559.71040        12.2500        10.6087        88.5336      -999.2500         5.2878         7.1778        54.1120
    2559.86280        12.2500        10.5624        90.9007      -999.2500         5.2571         7.1579        54.1355
    2560.01520        12.2500        10.5108        92.7815      -999.2500         5.2338         7.1387        54.1565
    2560.16760        12.2500        10.4109        90.2724      -999.2500         5.2766         7.1260        54.1553
    2560.32000        12.2500        10.3110        87.7632      -999.2500         5.3194         7.1132        54.1540
    2560.47240        12.2500        10.2111        85.2541      -999.2500         5.3622         7.1005        54.1527
    2560.62480        12.2500        10.1419        86.7709      -999.2500         5.3723         7.0946        54.0959
    2560.77720        12.2500        10.0796        89.1780      -999.2500         5.3751         7.0902        54.0269
    2560.92960        12.2500        10.0173        91.5851      -999.2500         5.3779         7.0859        53.9579
    2561.08200        12.2500         9.9447        92.1493      -999.2500         5.3884         7.0665        54.0454
    2561.23440        12.2500         9.8633        91.1312      -999.2500         5.4053         7.0342        54.2672
    2561.38680        12.2500         9.7818        90.1132      -999.2500         5.4223         7.0020        54.4890
    2561.53920        12.2500         9.7178        90.1303      -999.2500         5.4315         6.9678        54.6508
    2561.69160        12.2500         9.7040        93.1367      -999.2500         5.4180         6.9280        54.6394
    2561.84400        12.2500         9.6901        96.1431      -999.2500         5.4046         6.8881        54.6280
    2561.99640        12.2500         9.6763        99.1495      -999.2500         5.3911         6.8483        54.6166
    2562.14880        12.2500         9.6777       103.5186      -999.2500         5.4054         6.8108        54.4639
    2562.30120        12.2500         9.6795       107.9207      -999.2500         5.4204         6.7733        54.3077
    2562.45360        12.2500         9.6812       112.3227      -999.2500         5.4354         6.7358        54.1516
    2562.60600        12.2500         9.7132       108.6301      -999.2500         5.4616         6.7573        53.9848
    2562.75840        12.2500         9.7584       101.3941      -999.2500         5.4928         6.8048        53.8134
    2562.91080        12.2500         9.8036        94.1582      -999.2500         5.5239         6.8522        53.6420
    2563.06320        12.2500         9.8025        91.6420      -999.2500         5.5372         6.8158        53.4142
    2563.21560        12.2500         9.7361        95.7873      -999.2500         5.5252         6.6610        53.1068
    2563.36800        12.2500         9.6696        99.9326      -999.2500         5.5133         6.5062        52.7995
    2563.52040        12.2500         9.6195       102.5502      -999.2500         5.4983         6.3496        52.5406
    2563.67280        12.2500         9.6754        95.2821      -999.2500         5.4633         6.1812        52.5960
    2563.82520        12.2500         9.7313        88.0140      -999.2500         5.4284         6.0128        52.6514
    2563.97760        12.2500         9.7872        80.7460      -999.2500         5.3935         5.8444        52.7068
    2564.13000        12.2500         9.8101        79.7044      -999.2500         5.3589         6.1150        52.8774
    2564.28240        12.2500         9.8273        79.7357      -999.2500         5.3243         6.4611        53.0678
    2564.43480        12.2500         9.8445        79.7670      -999.2500         5.2898         6.8073        53.2583
    2564.58720        12.2500         9.8035        80.4541      -999.2500         5.2602         6.9750        53.3933
    2564.73960        12.2500         9.7190        81.6315      -999.2500         5.2343         7.0093        53.4869
    2564.89200        12.2500         9.6344        82.8088      -999.2500         5.2083         7.0436        53.5804
    2565.04440        12.2500         9.5601        84.4090      -999.2500         5.1847         7.0300        53.6532
    2565.19680        12.2500         9.5107        87.0377      -999.2500         5.1664         6.9000        53.6755
    2565.34920        12.2500         9.4614        89.6663      -999.2500         5.1482         6.7699        53.6977
    2565.50160        12.2500         9.4125        92.2559      -999.2500         5.1300         6.6405        53.7197
    2565.65400        12.2500         9.4097        91.1593      -999.2500         5.1163         6.5698        53.7206
    2565.80640        12.2500         9.4069        90.0627      -999.2500         5.1027         6.4990        53.7214
    2565.95880        12.2500         9.4042        88.9660      -999.2500         5.0891         6.4283        53.7222
    2566.11120        12.2500         9.5019        88.9574      -999.2500         5.0841         6.3713        53.7396
    2566.26360        12.2500         9.6370        89.3520      -999.2500         5.0823         6.3194        53.7632
    2566.41600        12.2500         9.7720        89.7465      -999.2500         5.0805         6.2676        53.7868
    2566.56840        12.2500         9.8452        90.2669      -999.2500         5.0680         6.2282        53.8046
    2566.72080        12.2500         9.8424        90.9420      -999.2500         5.0425         6.2041        53.8153
    2566.87320        12.2500         9.8397        91.6171      -999.2500         5.0170         6.1800        53.8260
    2567.02560        12.2500         9.8321        91.8590      -999.2500         4.9946         6.1482        53.8331
    2567.17800        12.2500         9.8004        89.9558      -999.2500         4.9874         6.0781        53.8224
    2567.33040        12.2500         9.7687        88.0526      -999.2500         4.9802         6.0079        53.8117
    2567.48280        12.2500         9.7370        86.1494      -999.2500         4.9731         5.9377        53.8010
    2567.63520        12.2500         9.7101        86.1946      -999.2500         4.9929         5.8947        53.7998
    2567.78760        12.2500         9.6838        86.4876      -999.2500         5.0161         5.8551        53.7998
    2567.94000        12.2500         9.6576        86.7807      -999.2500         5.0394         5.8156        53.7998
    2568.09240        12.2500         9.6097        87.0002      -999.2500         5.0555         5.8204        53.8517
    2568.24480        12.2500         9.5478        87.1719      -999.2500         5.0671         5.8542        53.9373
    2568.39720        12.2500         9.4859        87.3436      -999.2500         5.0787         5.8879        54.0229
