~Version Information Block
VERS .                 2.00:  CWLS LOG ASCII STANDARD - VERSION 2.00
WRAP .                   NO:  One line per depth step
~Well Information Block
#MNEM.UNIT        Data Type   Information
#---------- ----------------  -----------
STRT .M             0.00000:  START DEPTH
STOP .M          3900.98280:  STOP DEPTH
STEP .M             0.15240:  STEP
NULL .              -999.25:  NULL VALUE
COMP .                     :  COMPANY
WELL .             Kapuni-4:  WELL
FLD  .                     :  FIELD
LOC  .                     :  LOCATION
CTRY .                     :  COUNTRY
STAT .                     :  STATE
CNTY .                     :  COUNTY
SRVC .     Shell BP & Todd Oil Services Ltd:  SERVICE COMPANY
DATE .                     :  DATE
API  .                     :  API NUMBER
UWI  .         100000021909:  UNIQUE WELL ID
LATI .           -39.450469:  LATITUDE
LONG .           174.172705:  LONGITUDE
~Curve Information Block
#MNEM.UNIT         API CODE   Curve Description
#---------- ----------------  -----------------
DEPTH.M                    :  
BS   .IN                   :  (BS)
CALI .IN                   :  (CALI)
DTC  .US/F                 :  (DT)
GR   .GAPI                 :  (GR)
RESD .OHMM                 :  LN (RES_DEP)
RESM .OHMM                 :  I5FR_01r (RES_MED)
SP   .MV                   :  SP+150 (SP)
~Parameter Information Block
#MNEM.UNIT            Value   Description
#---------- ----------------  -----------
CUR_INT_BOT.M                3901:  Current interpolated bottom
PROJECT.     New Zealand Log QC Project:  
SET  .     A0_FINAL_INTER_REF_D:  
ELEVATION_AMSL.M              232.56:  Elevation above mean sea level
ELEVATION_REF.                   DF:  Measurement reference
FORMATION_AT_TD.         Kapuni Group:  Formation at TD
GL_ELEVATION_AMSL.M            226.5000:  Ground level elevation above mean sea level
LICENCE_NUMBER.             PML38839:  Licence number
ONSHORE_OR_OFFSHORE.              Onshore:  Onshore/offshore
PR_NUMBER.                PR466:  Petroleum report number
SPUD_DATE.           20/08/1962:  Spud date
STATUS_AT_COMPLETION.     Completed as a future production well:  Status at completion
TD_DATE.           26/10/1962:  Total depth date
TOTAL_DEPTH_DRILLED.M             3901.44:  Total depth drilled
~Other Information Block
# 
~A       DEPTH             BS           CALI            DTC             GR           RESD           RESM             SP 
# ...
    3298.08840        12.2500         9.0995        71.0668        84.0451        23.4555        10.7343        32.4733
    3298.24080        12.2500         9.1271        71.7487        83.9948        23.3723        10.7290        32.5311
    3298.39320        12.2500         9.1546        72.4306        83.9445        23.2892        10.7237        32.5889
    3298.54560        12.2500         9.1774        73.1776        84.1819        23.1773        10.7200        32.6531
    3298.69800        12.2500         9.1891        74.0771        85.0932        22.9982        10.7200        32.7326
    3298.85040        12.2500         9.2008        74.9766        86.0044        22.8192        10.7200        32.8121
    3299.00280        12.2500         9.2126        75.8747        86.8585        22.6430        10.7230        32.8940
    3299.15520        12.2500         9.2250        76.6975        84.6598        22.6182        10.8857        33.1097
    3299.30760        12.2500         9.2375        77.5203        82.4611        22.5934        11.0484        33.3253
    3299.46000        12.2500         9.2500        78.3432        80.2624        22.5686        11.2111        33.5409
    3299.61240        12.2500         9.2803        82.1773        75.8463        22.6556        11.4768        33.7276
    3299.76480        12.2500         9.3170        87.0830        70.6411        22.7824        11.7791        33.9039
    3299.91720        12.2500         9.3537        91.9887        65.4358        22.9093        12.0814        34.0802
    3300.06960        12.2500         9.5458        97.7060        63.8323        23.1120        12.4739        34.1558
    3300.22200        12.2500         9.9230       104.3889        66.5135        23.4051        12.9737        34.1117
    3300.37440        12.2500        10.3001       111.0718        69.1948        23.6981        13.4735        34.0675
    3300.52680        12.2500        10.5490       113.9035        71.7024        24.0864        13.8355        33.9916
    3300.67920        12.2500        10.1969        98.6863        73.3961        24.9211        13.5518        33.7665
    3300.83160        12.2500         9.8447        83.4692        75.0897        25.7557        13.2680        33.5415
    3300.98400        12.2500         9.4926        68.2520        76.7834        26.5904        12.9843        33.3165
    3301.13640        12.2500         9.4754        67.9840        76.6897        27.3779        12.5930        33.1990
    3301.28880        12.2500         9.4975        69.4696        76.3864        28.1598        12.1890        33.0941
    3301.44120        12.2500         9.5196        70.9552        76.0830        28.9418        11.7850        32.9893
    3301.59360        12.2500         9.5480        72.3218        77.0955        29.3059        11.5888        33.0649
    3301.74600        12.2500         9.5802        73.6136        78.9347        29.4074        11.5230        33.2539
    3301.89840        12.2500         9.6125        74.9054        80.7738        29.5089        11.4572        33.4430
    3302.05080        12.2500         9.6446        75.8225        83.0090        29.7132        11.3235        33.5982
    3302.20320        12.2500         9.6763        75.9902        86.0362        30.1230        11.0541        33.6859
    3302.35560        12.2500         9.7080        76.1580        89.0633        30.5328        10.7848        33.7735
    3302.50800        12.2500         9.7394        76.3033        91.9282        30.9470        10.5569        33.8680
    3302.66040        12.2500         9.7631        76.0430        91.8632        31.4423        11.0783        34.0851
    3302.81280        12.2500         9.7868        75.7828        91.7981        31.9375        11.5997        34.3023
    3302.96520        12.2500         9.8105        75.5225        91.7331        32.4328        12.1211        34.5194
    3303.11760        12.2500         9.8218        76.8188        88.4709        32.9457        16.0988        34.5306
    3303.27000        12.2500         9.8295        78.5757        84.2625        33.4639        21.0993        34.4808
    3303.42240        12.2500         9.8373        80.3326        80.0542        33.9821        26.0998        34.4310
    3303.57480        12.2500         9.9813        89.3307        73.3056        34.7820        51.0163        34.3287
    3303.72720        12.2500        10.2669       105.8410        63.9216        35.8740        96.5942        34.1719
    3303.87960        12.2500        10.5525       122.3513        54.5377        36.9660       142.1722        34.0150
    3304.03200        12.2500        10.8733       136.1568        46.6361        38.3069       167.6940        33.8741
    3304.18440        12.2500        11.3266       139.7856        44.3118        40.5846       117.7547        33.7933
    3304.33680        12.2500        11.7800       143.4144        41.9876        42.8623        67.8154        33.7124
    3304.48920        12.2500        12.2334       147.0432        39.6633        45.1399        17.8760        33.6315
    3304.64160        12.2500        13.1095       157.9994        40.0592        47.1537        14.5382        33.4848
    3304.79400        12.2500        14.0179       169.5145        40.6625        49.1473        14.7548        33.3331
    3304.94640        12.2500        14.9262       181.0295        41.2659        51.1410        14.9714        33.1814
    3305.09880        12.2500        14.9063       181.2770        43.3000        50.9682        14.1830        33.2624
    3305.25120        12.2500        14.3828       175.4117        46.1105        49.6202        12.8494        33.4697
    3305.40360        12.2500        13.8593       169.5465        48.9209        48.2722        11.5158        33.6769
    3305.55600        12.2500        13.3873       160.1455        53.0428        46.1756        14.7369        33.8440
    3305.70840        12.2500        13.0040       144.6583        59.4225        42.7904        25.7988        33.9417
    3305.86080        12.2500        12.6206       129.1710        65.8022        39.4052        36.8607        34.0395
    3306.01320        12.2500        12.2099       113.9232        72.1491        36.1186        46.4895        34.1384
    3306.16560        12.2500        11.5113       101.1997        78.1508        33.8726        41.0061        34.2491
    3306.31800        12.2500        10.8128        88.4762        84.1524        31.6267        35.5227        34.3599
    3306.47040        12.2500        10.1142        75.7528        90.1540        29.3807        30.0393        34.4706
    3306.62280        12.2500         9.9539        72.5184        90.4705        28.0141        24.8014        34.4989
    3306.77520        12.2500         9.9235        71.5712        89.4167        26.8594        19.6225        34.5074
    3306.92760        12.2500         9.8930        70.6240        88.3628        25.7047        14.4437        34.5158
    3307.08000        12.2500         9.8811        70.1657        86.9201        24.7438        11.7066        34.4924
    3307.23240        12.2500         9.8862        70.1498        85.1255        23.9583        11.1793        34.4401
    3307.38480        12.2500         9.8913        70.1339        83.3310        23.1727        10.6520        34.3878
    3307.53720        12.2500         9.8944        70.1456        81.9899        22.5060        10.1721        34.2836
    3307.68960        12.2500         9.8914        70.2429        82.0534        22.2074         9.8387        34.0184
    3307.84200        12.2500         9.8884        70.3402        82.1168        21.9089         9.5054        33.7533
    3307.99440        12.2500         9.8854        70.4375        82.1802        21.6103         9.1720        33.4881
    3308.14680        12.2500         9.8720        70.8539        84.2474        21.2475         8.7467        33.1430
