~Version Information Block
VERS .                 2.00:  CWLS LOG ASCII STANDARD - VERSION 2.00
WRAP .                   NO:  One line per depth step
~Well Information Block
#MNEM.UNIT        Data Type   Information
#---------- ----------------  -----------
STRT .M             0.00000:  START DEPTH
STOP .M          3900.98280:  STOP DEPTH
STEP .M             0.15240:  STEP
NULL .              -999.25:  NULL VALUE
COMP .                     :  COMPANY
WELL .             Kapuni-4:  WELL
FLD  .                     :  FIELD
LOC  .                     :  LOCATION
CTRY .                     :  COUNTRY
STAT .                     :  STATE
CNTY .                     :  COUNTY
SRVC .     Shell BP & Todd Oil Services Ltd:  SERVICE COMPANY
DATE .                     :  DATE
API  .                     :  API NUMBER
UWI  .         100000021909:  UNIQUE WELL ID
LATI .           -39.450469:  LATITUDE
LONG .           174.172705:  LONGITUDE
~Curve Information Block
#MNEM.UNIT         API CODE   Curve Description
#---------- ----------------  -----------------
DEPTH.M                    :  
BS   .IN                   :  (BS)
CALI .IN                   :  (CALI)
DTC  .US/F                 :  (DT)
GR   .GAPI                 :  (GR)
RESD .OHMM                 :  LN (RES_DEP)
RESM .OHMM                 :  I5FR_01r (RES_MED)
SP   .MV                   :  SP+150 (SP)
~Parameter Information Block
#MNEM.UNIT            Value   Description
#---------- ----------------  -----------
CUR_INT_BOT.M                3901:  Current interpolated bottom
PROJECT.     New Zealand Log QC Project:  
SET  .     A0_FINAL_INTER_REF_D:  
ELEVATION_AMSL.M              232.56:  Elevation above mean sea level
ELEVATION_REF.                   DF:  Measurement reference
FORMATION_AT_TD.         Kapuni Group:  Formation at TD
GL_ELEVATION_AMSL.M            226.5000:  Ground level elevation above mean sea level
LICENCE_NUMBER.             PML38839:  Licence number
ONSHORE_OR_OFFSHORE.              Onshore:  Onshore/offshore
PR_NUMBER.                PR466:  Petroleum report number
SPUD_DATE.           20/08/1962:  Spud date
STATUS_AT_COMPLETION.     Completed as a future production well:  Status at completion
TD_DATE.           26/10/1962:  Total depth date
TOTAL_DEPTH_DRILLED.M             3901.44:  Total depth drilled
~Other Information Block
# 
~A       DEPTH             BS           CALI            DTC             GR           RESD           RESM             SP 
# ...
    3747.36360         8.5000        10.6067        71.0868        66.2120        26.1915        12.2102        33.4626
    3747.51600         8.5000        10.6468        72.3450        65.3772        26.4775        11.2473        33.9078
    3747.66840         8.5000        10.6263        72.8609        64.5684        26.3528        10.8382        34.3365
    3747.82080         8.5000        10.6057        73.3767        63.7596        26.2280        10.4292        34.7653
    3747.97320         8.5000        10.5852        73.8926        62.9508        26.1033        10.0202        35.1940
    3748.12560         8.5000        10.6073        74.0930        62.0786        25.6857        10.1928        35.2418
    3748.27800         8.5000        10.6385        74.2261        61.1929        25.2056        10.4897        35.2084
    3748.43040         8.5000        10.6698        74.3592        60.3072        24.7255        10.7865        35.1750
    3748.58280         8.5000        10.7144        74.6011        60.4733        24.2181        11.2082        34.8733
    3748.73520         8.5000        10.7702        74.9344        61.5236        23.6878        11.7350        34.3462
    3748.88760         8.5000        10.8261        75.2678        62.5738        23.1575        12.2618        33.8191
    3749.04000         8.5000        10.8749        75.4631        63.2321        22.7703        12.6630        33.3097
    3749.19240         8.5000        10.9035        75.2702        62.7888        22.7850        12.7113        32.8497
    3749.34480         8.5000        10.9322        75.0774        62.3455        22.7996        12.7597        32.3898
    3749.49720         8.5000        10.9609        74.8846        61.9022        22.8143        12.8080        31.9299
    3749.64960         8.5000        10.9736        74.2851        61.8348        23.0782        12.7416        32.0564
    3749.80200         8.5000        10.9860        73.6779        61.7745        23.3468        12.6731        32.1939
    3749.95440         8.5000        10.9985        73.0708        61.7142        23.6154        12.6045        32.3314
    3750.10680         8.5000        11.0147        72.3010        61.8388        23.9001        12.5544        32.4902
    3750.25920         8.5000        11.0326        71.4618        62.0424        24.1917        12.5120        32.6580
    3750.41160         8.5000        11.0506        70.6226        62.2460        24.4832        12.4697        32.8259
    3750.56400         8.5000        11.0905        70.1457        62.2103        24.7694        12.4871        33.0441
    3750.71640         8.5000        11.1610        70.1690        61.8438        25.0481        12.5868        33.3318
    3750.86880         8.5000        11.2315        70.1924        61.4774        25.3267        12.6866        33.6196
    3751.02120         8.5000        11.2935        70.1632        61.3974        25.6002        12.8225        33.8957
    3751.17360         8.5000        11.3031        69.8088        63.0901        25.8414        13.1821        34.0996
    3751.32600         8.5000        11.3127        69.4544        64.7829        26.0827        13.5417        34.3035
    3751.47840         8.5000        11.3223        69.1000        66.4756        26.3240        13.9013        34.5075
    3751.63080         8.5000        11.3508        68.2272        65.4124        26.5650        14.4451        34.9301
    3751.78320         8.5000        11.3823        67.2688        63.8941        26.8060        15.0193        35.3888
    3751.93560         8.5000        11.4139        66.3104        62.3758        27.0469        15.5935        35.8475
    3752.08800         8.5000        11.4272        65.5764        61.7284        27.1735        15.9156        36.0881
    3752.24040         8.5000        11.4271        65.0066        61.7183        27.2163        16.0530        36.1691
    3752.39280         8.5000        11.4270        64.4368        61.7082        27.2591        16.1905        36.2502
    3752.54520         8.5000        11.4245        64.2595        61.3979        27.3201        16.0173        36.2245
    3752.69760         8.5000        11.4163        65.0131        60.3757        27.4241        15.1077        35.9457
    3752.85000         8.5000        11.4080        65.7667        59.3534        27.5282        14.1981        35.6669
    3753.00240         8.5000        11.3974        66.5264        58.3415        27.6297        13.2967        35.3961
    3753.15480         8.5000        11.2421        67.6633        57.9724        27.5759        12.9144        35.6217
    3753.30720         8.5000        11.0867        68.8002        57.6034        27.5221        12.5321        35.8472
    3753.45960         8.5000        10.9314        69.9371        57.2343        27.4682        12.1498        36.0728
    3753.61200         8.5000        10.9246        69.9899        57.0952        27.1885        11.9679        36.2282
    3753.76440         8.5000        10.9713        69.6517        57.0390        26.8273        11.8584        36.3584
    3753.91680         8.5000        11.0181        69.3135        56.9828        26.4662        11.7489        36.4885
    3754.06920         8.5000        11.0352        69.0078        57.6220        26.2235        11.8401        36.3914
    3754.22160         8.5000        11.0166        68.7413        59.0973        26.1232        12.1726        36.0211
    3754.37400         8.5000        10.9981        68.4747        60.5727        26.0229        12.5050        35.6508
    3754.52640         8.5000        10.9739        68.2200        61.7498        25.9795        12.8556        35.3438
    3754.67880         8.5000        10.9226        68.0222        61.5037        26.2077        13.2926        35.3393
    3754.83120         8.5000        10.8714        67.8244        61.2577        26.4359        13.7296        35.3347
    3754.98360         8.5000        10.8201        67.6266        61.0116        26.6641        14.1666        35.3302
    3755.13600         8.5000        10.8173        67.0034        60.3584        27.0429        14.3450        35.7658
    3755.28840         8.5000        10.8202        66.3288        59.6562        27.4398        14.4922        36.2546
    3755.44080         8.5000        10.8232        65.6542        58.9539        27.8367        14.6393        36.7433
    3755.59320         8.5000        10.8245        65.3473        59.2771        28.2705        14.6989        37.0064
    3755.74560         8.5000        10.8248        65.2739        60.2517        28.7277        14.7029        37.1261
    3755.89800         8.5000        10.8251        65.2005        61.2263        29.1850        14.7068        37.2459
    3756.05040         8.5000        10.8290        65.0326        61.9173        29.5934        14.6602        37.3298
    3756.20280         8.5000        10.8399        64.6734        62.0343        29.9029        14.5115        37.3412
    3756.35520         8.5000        10.8508        64.3142        62.1513        30.2124        14.3628        37.3527
    3756.50760         8.5000        10.8602        63.9748        62.2810        30.5052        14.2310        37.3647
    3756.66000         8.5000        10.8394        64.0124        62.6529        30.4800        14.4219        37.3881
    3756.81240         8.5000        10.8186        64.0500        63.0248        30.4548        14.6128        37.4115
    3756.96480         8.5000        10.7978        64.0876        63.3967        30.4296        14.8037        37.4349
    3757.11720         8.5000        10.7080        64.5603        62.7276        30.3270        15.2079        37.4593
    3757.26960         8.5000        10.5974        65.1638        61.7458        30.2011        15.6762        37.4841
    3757.42200         8.5000        10.4868        65.7672        60.7641        30.0752        16.1445        37.5088
