~Version Information Block
VERS .                 2.00:  CWLS LOG ASCII STANDARD - VERSION 2.00
WRAP .                   NO:  One line per depth step
~Well Information Block
#MNEM.UNIT        Data Type   Information
#---------- ----------------  -----------
STRT .M             5.63880:  START DEPTH
STOP .M          4194.35280:  STOP DEPTH
STEP .M             0.15240:  STEP
NULL .              -999.25:  NULL VALUE
COMP .                     :  COMPANY
WELL .             Kapuni-2:  WELL
FLD  .                     :  FIELD
LOC  .                     :  LOCATION
CTRY .                     :  COUNTRY
STAT .                     :  STATE
CNTY .                     :  COUNTY
SRVC .     Shell BP & Todd Oil Services Ltd:  SERVICE COMPANY
DATE .                     :  DATE
API  .                     :  API NUMBER
UWI  .         100000021910:  UNIQUE WELL ID
LATI .          -39.4921223:  LATITUDE
LONG .          174.1702607:  LONGITUDE
~Curve Information Block
#MNEM.UNIT         API CODE   Curve Description
#---------- ----------------  -----------------
DEPTH.M                    :  
BS   .IN                   :  Bit Size (Created in Geolog)
CALI .IN                   :  Normalised log, not for display purpose (CALI)
DTC  .US/F                 :  splice of bcsl & bcsl_01r (DT)
GR   .GAPI                 :  (GR)
RESD .OHMM                 :  ln_e (RES_DEP)
RESM .OHMM                 :  i5fr_00j (RES_MED)
SP   .MV                   :  SP_E+130, K1 & K2 bit + 100 (SP)
~Parameter Information Block
#MNEM.UNIT            Value   Description
#---------- ----------------  -----------
CUR_INT_BOT.M              4194.5:  Current interpolated bottom
PROJECT.     New Zealand Log QC Project:  
SET  .     A0_FINAL_INTER_REF_D:  
ELEVATION_AMSL.M               157.3:  Elevation above mean sea level
ELEVATION_REF.                   DF:  Measurement reference
FORMATION_AT_TD.           Mangaotaki:  Formation at TD
GL_ELEVATION_AMSL.M            152.1000:  Ground level elevation above mean sea level
LICENCE_NUMBER.             PML38839:  Licence number
ONSHORE_OR_OFFSHORE.              Onshore:  Onshore/offshore
PR_NUMBER.                PR464:  Petroleum report number
SPUD_DATE.           09/11/1961:  Spud date
STATUS_AT_COMPLETION.            Completed:  Status at completion
TD_DATE.           27/01/1962:  Total depth date
TOTAL_DEPTH_DRILLED.M             4194.66:  Total depth drilled
~Other Information Block
# 
~A       DEPTH             BS           CALI            DTC             GR           RESD           RESM             SP 
# ...
    1016.50800        17.5000        13.8605       116.1816      -999.2500        14.9001      -999.2500        47.5864
    1016.66040        17.5000        13.8547       117.7085      -999.2500        14.9016      -999.2500        47.4507
    1016.81280        17.5000        13.8490       119.2353      -999.2500        14.9031      -999.2500        47.3151
    1016.96520        17.5000        13.8432       120.7622      -999.2500        14.9046      -999.2500        47.1795
    1017.11760        17.5000        13.7924       120.2899      -999.2500        14.8694      -999.2500        47.3116
    1017.27000        17.5000        13.7282       119.2259      -999.2500        14.8234      -999.2500        47.5229
    1017.42240        17.5000        13.6641       118.1620      -999.2500        14.7773      -999.2500        47.7343
    1017.57480        17.5000        13.6705       117.1365      -999.2500        14.6968      -999.2500        47.8810
    1017.72720        17.5000        13.7502       116.1509      -999.2500        14.5805      -999.2500        47.9608
    1017.87960        17.5000        13.8298       115.1652      -999.2500        14.4641      -999.2500        48.0405
    1018.03200        17.5000        13.8918       115.1362      -999.2500        14.3562      -999.2500        48.1635
    1018.18440        17.5000        13.8873       118.7065      -999.2500        14.2797      -999.2500        48.4488
    1018.33680        17.5000        13.8828       122.2768      -999.2500        14.2033      -999.2500        48.7342
    1018.48920        17.5000        13.8784       125.8471      -999.2500        14.1269      -999.2500        49.0196
    1018.64160        17.5000        13.7891       122.9533      -999.2500        14.0387      -999.2500        49.1420
    1018.79400        17.5000        13.6934       119.5664      -999.2500        13.9497      -999.2500        49.2520
    1018.94640        17.5000        13.5977       116.1795      -999.2500        13.8607      -999.2500        49.3620
    1019.09880        17.5000        13.6050       115.7312      -999.2500        13.8062      -999.2500        49.7656
    1019.25120        17.5000        13.6682       116.8772      -999.2500        13.7705      -999.2500        50.3283
    1019.40360        17.5000        13.7314       118.0232      -999.2500        13.7347      -999.2500        50.8911
    1019.55600        17.5000        13.7195       119.8096      -999.2500        13.7623      -999.2500        51.2696
    1019.70840        17.5000        13.5785       122.6985      -999.2500        13.8988      -999.2500        51.3309
    1019.86080        17.5000        13.4374       125.5874      -999.2500        14.0353      -999.2500        51.3922
    1020.01320        17.5000        13.3047       127.9819      -999.2500        14.1795      -999.2500        51.4833
    1020.16560        17.5000        13.2599       125.1617      -999.2500        14.4058      -999.2500        51.8887
    1020.31800        17.5000        13.2151       122.3414      -999.2500        14.6320      -999.2500        52.2940
    1020.47040        17.5000        13.1703       119.5212      -999.2500        14.8583      -999.2500        52.6994
    1020.62280        17.5000        13.1532       117.4117      -999.2500        15.0125      -999.2500        52.8025
    1020.77520        17.5000        13.1426       115.4735      -999.2500        15.1493      -999.2500        52.8328
    1020.92760        17.5000        13.1321       113.5352      -999.2500        15.2861      -999.2500        52.8632
    1021.08000        17.5000        13.1306       109.7264      -999.2500        15.4488      -999.2500        53.0480
    1021.23240        17.5000        13.1374       104.2247      -999.2500        15.6351      -999.2500        53.3728
    1021.38480        17.5000        13.1441        98.7231      -999.2500        15.8213      -999.2500        53.6976
    1021.53720        17.5000        13.1413        94.9401      -999.2500        15.9888      -999.2500        54.1320
    1021.68960        17.5000        13.1089        96.4794      -999.2500        16.0983      -999.2500        54.9059
    1021.84200        17.5000        13.0766        98.0188      -999.2500        16.2078      -999.2500        55.6798
    1021.99440        17.5000        13.0443        99.5582      -999.2500        16.3172      -999.2500        56.4536
    1022.14680        17.5000        13.0544       104.5232      -999.2500        16.3985      -999.2500        57.5643
    1022.29920        17.5000        13.0662       109.6189      -999.2500        16.4787      -999.2500        58.6879
    1022.45160        17.5000        13.0779       114.7146      -999.2500        16.5588      -999.2500        59.8114
    1022.60400        17.5000        13.0851       116.3869      -999.2500        16.6965      -999.2500        60.3626
    1022.75640        17.5000        13.0901       116.4659      -999.2500        16.8608      -999.2500        60.6475
    1022.90880        17.5000        13.0952       116.5449      -999.2500        17.0252      -999.2500        60.9324
    1023.06120        17.5000        13.1099       116.5036      -999.2500        17.1464      -999.2500        61.1847
    1023.21360        17.5000        13.1390       116.2831      -999.2500        17.2032      -999.2500        61.3884
    1023.36600        17.5000        13.1681       116.0626      -999.2500        17.2600      -999.2500        61.5922
    1023.51840        17.5000        13.1948       115.8558      -999.2500        17.3119      -999.2500        61.7665
    1023.67080        17.5000        13.2036       115.7488      -999.2500        17.3278      -999.2500        61.7264
    1023.82320        17.5000        13.2125       115.6417      -999.2500        17.3437      -999.2500        61.6864
    1023.97560        17.5000        13.2213       115.5346      -999.2500        17.3596      -999.2500        61.6463
    1024.12800        17.5000        13.2178       115.5190      -999.2500        17.4023      -999.2500        61.7812
    1024.28040        17.5000        13.2120       115.5208      -999.2500        17.4501      -999.2500        61.9495
    1024.43280        17.5000        13.2061       115.5226      -999.2500        17.4979      -999.2500        62.1178
    1024.58520        17.5000        13.1981       115.7910      -999.2500        17.6018      -999.2500        62.2594
    1024.73760        17.5000        13.1883       116.2697      -999.2500        17.7500      -999.2500        62.3800
    1024.89000        17.5000        13.1785       116.7483      -999.2500        17.8983      -999.2500        62.5005
    1025.04240        17.5000        13.1744       117.1690      -999.2500        18.0039      -999.2500        62.6870
    1025.19480        17.5000        13.1847       117.4391      -999.2500        17.9993      -999.2500        63.0443
    1025.34720        17.5000        13.1951       117.7092      -999.2500        17.9946      -999.2500        63.4016
    1025.49960        17.5000        13.2054       117.9793      -999.2500        17.9900      -999.2500        63.7590
    1025.65200        17.5000        13.1833       117.5060      -999.2500        17.9900      -999.2500        63.4951
    1025.80440        17.5000        13.1611       117.0307      -999.2500        17.9900      -999.2500        63.2297
    1025.95680        17.5000        13.1389       116.5555      -999.2500        17.9900      -999.2500        62.9642
    1026.10920        17.5000        13.1304       116.1614      -999.2500        17.9804      -999.2500        62.8275
    1026.26160        17.5000        13.1273       115.7994      -999.2500        17.9671      -999.2500        62.7418
    1026.41400        17.5000        13.1243       115.4375      -999.2500        17.9538      -999.2500        62.6560
    1026.56640        17.5000        13.1193       115.2877      -999.2500        17.9425      -999.2500        62.8064
