~Version Information Block
VERS .                 2.00:  CWLS LOG ASCII STANDARD - VERSION 2.00
WRAP .                   NO:  One line per depth step
~Well Information Block
#MNEM.UNIT        Data Type   Information
#---------- ----------------  -----------
STRT .M             6.09600:  START DEPTH
STOP .M          3796.43640:  STOP DEPTH
STEP .M             0.15240:  STEP
NULL .              -999.25:  NULL VALUE
COMP .                     :  COMPANY
WELL .             Kapuni-3:  WELL
FLD  .                     :  FIELD
LOC  .                     :  LOCATION
CTRY .                     :  COUNTRY
STAT .                     :  STATE
CNTY .                     :  COUNTY
SRVC .     Shell BP & Todd Oil Services Ltd:  SERVICE COMPANY
DATE .                     :  DATE
API  .                     :  API NUMBER
UWI  .         100000502146:  UNIQUE WELL ID
LATI .          -39.5051918:  LATITUDE
LONG .          174.1760385:  LONGITUDE
~Curve Information Block
#MNEM.UNIT         API CODE   Curve Description
#---------- ----------------  -----------------
DEPTH.M                    :  
BS   .IN                   :  Bit Size (Created in Geolog)
CALI .IN                   :  (CALI)
DTC  .US/F                 :  (DT)
GR   .GAPI                 :  (GR)
RESD .OHMM                 :  Long normal (ES) (RES_DEP)
RESM .OHMM                 :  I6FR (IES) (RES_MED)
SP   .MV                   :  SP-10 (SP)
~Parameter Information Block
#MNEM.UNIT            Value   Description
#---------- ----------------  -----------
CUR_INT_BOT.M              3796.5:  Current interpolated bottom
PROJECT.     New Zealand Log QC Project:  
SET  .     A0_FINAL_INTER_REF_D:  
ELEVATION_AMSL.M              136.86:  Elevation above mean sea level
ELEVATION_REF.                   DF:  Measurement reference
FORMATION_AT_TD.         Kapuni Group:  Formation at TD
GL_ELEVATION_AMSL.M            131.1000:  Ground level elevation above mean sea level
LICENCE_NUMBER.             PML38839:  Licence number
ONSHORE_OR_OFFSHORE.              Onshore:  Onshore/offshore
PR_NUMBER.                PR465:  Petroleum report number
SPUD_DATE.           21/04/1962:  Spud date
STATUS_AT_COMPLETION.     Tested and completed as a potential producer:  Status at completion
TD_DATE.           24/06/1962:  Total depth date
TOTAL_DEPTH_DRILLED.M              3796.9:  Total depth drilled
~Other Information Block
# 
~A       DEPTH             BS           CALI            DTC             GR           RESD           RESM             SP 
# ...
    2517.95280        12.2500      -999.2500        77.8139      -999.2500         8.3239      -999.2500        87.7388
    2518.10520        12.2500      -999.2500        78.3273      -999.2500         8.4344      -999.2500        87.4755
    2518.25760        12.2500      -999.2500        78.6378      -999.2500         8.5511      -999.2500        87.2609
    2518.41000        12.2500      -999.2500        78.9482      -999.2500         8.6678      -999.2500        87.0462
    2518.56240        12.2500      -999.2500        78.6931      -999.2500         8.7314      -999.2500        86.9354
    2518.71480        12.2500      -999.2500        77.6220      -999.2500         8.7187      -999.2500        86.9745
    2518.86720        12.2500      -999.2500        76.5510      -999.2500         8.7059      -999.2500        87.0136
    2519.01960        12.2500      -999.2500        75.6476      -999.2500         8.6842      -999.2500        87.0537
    2519.17200        12.2500      -999.2500        75.8802      -999.2500         8.6025      -999.2500        87.1013
    2519.32440        12.2500      -999.2500        76.1128      -999.2500         8.5207      -999.2500        87.1489
    2519.47680        12.2500      -999.2500        76.3454      -999.2500         8.4390      -999.2500        87.1965
    2519.62920        12.2500      -999.2500        76.7956      -999.2500         8.3777      -999.2500        87.2083
    2519.78160        12.2500      -999.2500        77.2849      -999.2500         8.3201      -999.2500        87.2136
    2519.93400        12.2500      -999.2500        77.7743      -999.2500         8.2624      -999.2500        87.2189
    2520.08640        12.2500      -999.2500        78.2037      -999.2500         8.2742      -999.2500        87.2554
    2520.23880        12.2500      -999.2500        78.5873      -999.2500         8.3391      -999.2500        87.3158
    2520.39120        12.2500      -999.2500        78.9710      -999.2500         8.4039      -999.2500        87.3762
    2520.54360        12.2500      -999.2500        79.6540      -999.2500         8.4629      -999.2500        87.4378
    2520.69600        12.2500      -999.2500        81.0842      -999.2500         8.5070      -999.2500        87.5024
    2520.84840        12.2500      -999.2500        82.5143      -999.2500         8.5512      -999.2500        87.5670
    2521.00080        12.2500      -999.2500        83.9310      -999.2500         8.5948      -999.2500        87.6313
    2521.15320        12.2500      -999.2500        82.7952      -999.2500         8.5211      -999.2500        87.6312
    2521.30560        12.2500      -999.2500        81.6594      -999.2500         8.4474      -999.2500        87.6312
    2521.45800        12.2500      -999.2500        80.5236      -999.2500         8.3737      -999.2500        87.6312
    2521.61040        12.2500      -999.2500        80.0836      -999.2500         8.2770      -999.2500        87.5519
    2521.76280        12.2500      -999.2500        79.9083      -999.2500         8.1715      -999.2500        87.4425
    2521.91520        12.2500      -999.2500        79.7330      -999.2500         8.0660      -999.2500        87.3330
    2522.06760        12.2500      -999.2500        79.6671      -999.2500         7.9721      -999.2500        87.3291
    2522.22000        12.2500      -999.2500        79.7385      -999.2500         7.8927      -999.2500        87.4577
    2522.37240        12.2500      -999.2500        79.8099      -999.2500         7.8133      -999.2500        87.5862
    2522.52480        12.2500      -999.2500        79.8631      -999.2500         7.7414      -999.2500        87.7287
    2522.67720        12.2500      -999.2500        79.8221      -999.2500         7.7082      -999.2500        87.9428
    2522.82960        12.2500      -999.2500        79.7810      -999.2500         7.6750      -999.2500        88.1568
    2522.98200        12.2500      -999.2500        79.7400      -999.2500         7.6418      -999.2500        88.3709
    2523.13440        12.2500      -999.2500        79.7968      -999.2500         7.6379      -999.2500        88.5247
    2523.28680        12.2500      -999.2500        79.8666      -999.2500         7.6379      -999.2500        88.6705
    2523.43920        12.2500      -999.2500        79.9364      -999.2500         7.6379      -999.2500        88.8163
    2523.59160        12.2500      -999.2500        79.8509      -999.2500         7.6326      -999.2500        88.8605
    2523.74400        12.2500      -999.2500        79.6622      -999.2500         7.6239      -999.2500        88.8374
    2523.89640        12.2500      -999.2500        79.4736      -999.2500         7.6151      -999.2500        88.8143
    2524.04880        12.2500      -999.2500        79.1532      -999.2500         7.5992      -999.2500        88.6534
    2524.20120        12.2500      -999.2500        78.5532      -999.2500         7.5682      -999.2500        88.1999
    2524.35360        12.2500      -999.2500        77.9532      -999.2500         7.5372      -999.2500        87.7465
    2524.50600        12.2500      -999.2500        77.3749      -999.2500         7.5063      -999.2500        87.3100
    2524.65840        12.2500      -999.2500        77.3249      -999.2500         7.4778      -999.2500        87.2870
    2524.81080        12.2500      -999.2500        77.2750      -999.2500         7.4494      -999.2500        87.2641
    2524.96320        12.2500      -999.2500        77.2250      -999.2500         7.4210      -999.2500        87.2412
    2525.11560        12.2500      -999.2500        77.8796      -999.2500         7.4095      -999.2500        87.2200
    2525.26800        12.2500      -999.2500        78.7585      -999.2500         7.4035      -999.2500        87.1992
    2525.42040        12.2500      -999.2500        79.6374      -999.2500         7.3975      -999.2500        87.1784
    2525.57280        12.2500      -999.2500        80.3635      -999.2500         7.4148      -999.2500        87.1252
    2525.72520        12.2500      -999.2500        80.9226      -999.2500         7.4578      -999.2500        87.0365
    2525.87760        12.2500      -999.2500        81.4817      -999.2500         7.5007      -999.2500        86.9479
    2526.03000        12.2500      -999.2500        81.7383      -999.2500         7.5414      -999.2500        86.9116
    2526.18240        12.2500      -999.2500        80.7607      -999.2500         7.5727      -999.2500        87.0892
    2526.33480        12.2500      -999.2500        79.7831      -999.2500         7.6040      -999.2500        87.2668
    2526.48720        12.2500      -999.2500        78.8056      -999.2500         7.6354      -999.2500        87.4444
    2526.63960        12.2500      -999.2500        78.1066      -999.2500         7.7203      -999.2500        87.2431
    2526.79200        12.2500      -999.2500        77.4332      -999.2500         7.8102      -999.2500        87.0071
    2526.94440        12.2500      -999.2500        76.7598      -999.2500         7.9001      -999.2500        86.7711
    2527.09680        12.2500      -999.2500        77.5807      -999.2500         8.0012      -999.2500        86.6359
    2527.24920        12.2500      -999.2500        79.2600      -999.2500         8.1089      -999.2500        86.5585
    2527.40160        12.2500      -999.2500        80.9392      -999.2500         8.2165      -999.2500        86.4811
    2527.55400        12.2500      -999.2500        82.1074      -999.2500         8.2844      -999.2500        86.4613
    2527.70640        12.2500      -999.2500        82.3443      -999.2500         8.2796      -999.2500        86.5465
    2527.85880        12.2500      -999.2500        82.5812      -999.2500         8.2748      -999.2500        86.6317
    2528.01120        12.2500      -999.2500        82.6330      -999.2500         8.2679      -999.2500        86.7202
