~Version Information Block
VERS .                 2.00:  CWLS LOG ASCII STANDARD - VERSION 2.00
WRAP .                   NO:  One line per depth step
~Well Information Block
#MNEM.UNIT        Data Type   Information
#---------- ----------------  -----------
STRT .M             0.00000:  START DEPTH
STOP .M          3900.98280:  STOP DEPTH
STEP .M             0.15240:  STEP
NULL .              -999.25:  NULL VALUE
COMP .                     :  COMPANY
WELL .             Kapuni-4:  WELL
FLD  .                     :  FIELD
LOC  .                     :  LOCATION
CTRY .                     :  COUNTRY
STAT .                     :  STATE
CNTY .                     :  COUNTY
SRVC .     Shell BP & Todd Oil Services Ltd:  SERVICE COMPANY
DATE .                     :  DATE
API  .                     :  API NUMBER
UWI  .         100000021909:  UNIQUE WELL ID
LATI .           -39.450469:  LATITUDE
LONG .           174.172705:  LONGITUDE
~Curve Information Block
#MNEM.UNIT         API CODE   Curve Description
#---------- ----------------  -----------------
DEPTH.M                    :  
BS   .IN                   :  (BS)
CALI .IN                   :  (CALI)
DTC  .US/F                 :  (DT)
GR   .GAPI                 :  (GR)
RESD .OHMM                 :  LN (RES_DEP)
RESM .OHMM                 :  I5FR_01r (RES_MED)
SP   .MV                   :  SP+150 (SP)
~Parameter Information Block
#MNEM.UNIT            Value   Description
#---------- ----------------  -----------
CUR_INT_BOT.M                3901:  Current interpolated bottom
PROJECT.     New Zealand Log QC Project:  
SET  .     A0_FINAL_INTER_REF_D:  
ELEVATION_AMSL.M              232.56:  Elevation above mean sea level
ELEVATION_REF.                   DF:  Measurement reference
FORMATION_AT_TD.         Kapuni Group:  Formation at TD
GL_ELEVATION_AMSL.M            226.5000:  Ground level elevation above mean sea level
LICENCE_NUMBER.             PML38839:  Licence number
ONSHORE_OR_OFFSHORE.              Onshore:  Onshore/offshore
PR_NUMBER.                PR466:  Petroleum report number
SPUD_DATE.           20/08/1962:  Spud date
STATUS_AT_COMPLETION.     Completed as a future production well:  Status at completion
TD_DATE.           26/10/1962:  Total depth date
TOTAL_DEPTH_DRILLED.M             3901.44:  Total depth drilled
~Other Information Block
# 
~A       DEPTH             BS           CALI            DTC             GR           RESD           RESM             SP 
# ...
    3001.97520        12.2500      -999.2500        83.4641      -999.2500         3.0257      -999.2500        16.2770
    3002.12760        12.2500      -999.2500        83.7801      -999.2500         2.9462      -999.2500        16.5738
    3002.28000        12.2500      -999.2500        84.0886      -999.2500         2.8500      -999.2500        16.9709
    3002.43240        12.2500      -999.2500        84.3972      -999.2500         2.7539      -999.2500        17.3681
    3002.58480        12.2500      -999.2500        84.5733      -999.2500         2.6580      -999.2500        17.6349
    3002.73720        12.2500      -999.2500        84.6438      -999.2500         2.5624      -999.2500        17.7978
    3002.88960        12.2500      -999.2500        84.7143      -999.2500         2.4668      -999.2500        17.9607
    3003.04200        12.2500      -999.2500        84.7842      -999.2500         2.3709      -999.2500        18.0640
    3003.19440        12.2500      -999.2500        84.8521      -999.2500         2.2740      -999.2500        18.0107
    3003.34680        12.2500      -999.2500        84.9201      -999.2500         2.1771      -999.2500        17.9574
    3003.49920        12.2500      -999.2500        84.9881      -999.2500         2.0803      -999.2500        17.9042
    3003.65160        12.2500      -999.2500        84.5834      -999.2500         2.0920      -999.2500        18.1565
    3003.80400        12.2500      -999.2500        84.1763      -999.2500         2.1043      -999.2500        18.4104
    3003.95640        12.2500      -999.2500        83.7692      -999.2500         2.1165      -999.2500        18.6643
    3004.10880        12.2500      -999.2500        83.6803      -999.2500         2.1505      -999.2500        18.5800
    3004.26120        12.2500      -999.2500        83.7189      -999.2500         2.1932      -999.2500        18.3602
    3004.41360        12.2500      -999.2500        83.7575      -999.2500         2.2358      -999.2500        18.1404
    3004.56600        12.2500      -999.2500        83.9682      -999.2500         2.2894      -999.2500        18.0968
    3004.71840        12.2500      -999.2500        84.4044      -999.2500         2.3571      -999.2500        18.2837
    3004.87080        12.2500      -999.2500        84.8406      -999.2500         2.4249      -999.2500        18.4706
    3005.02320        12.2500      -999.2500        85.2544      -999.2500         2.4818      -999.2500        18.5809
    3005.17560        12.2500      -999.2500        85.5434      -999.2500         2.4780      -999.2500        18.2652
    3005.32800        12.2500      -999.2500        85.8324      -999.2500         2.4743      -999.2500        17.9494
    3005.48040        12.2500      -999.2500        86.1215      -999.2500         2.4705      -999.2500        17.6336
    3005.63280        12.2500      -999.2500        86.2000      -999.2500         2.4620      -999.2500        17.2128
    3005.78520        12.2500      -999.2500        86.2475      -999.2500         2.4529      -999.2500        16.7765
    3005.93760        12.2500      -999.2500        86.2950      -999.2500         2.4437      -999.2500        16.3402
    3006.09000        12.2500      -999.2500        86.0923      -999.2500         2.4229      -999.2500        16.2634
    3006.24240        12.2500      -999.2500        85.7163      -999.2500         2.3938      -999.2500        16.4359
    3006.39480        12.2500      -999.2500        85.3403      -999.2500         2.3648      -999.2500        16.6085
    3006.54720        12.2500      -999.2500        85.1818      -999.2500         2.3461      -999.2500        16.7420
    3006.69960        12.2500      -999.2500        85.5079      -999.2500         2.3505      -999.2500        16.7884
    3006.85200        12.2500      -999.2500        85.8340      -999.2500         2.3549      -999.2500        16.8348
    3007.00440        12.2500      -999.2500        86.1501      -999.2500         2.3605      -999.2500        16.8796
    3007.15680        12.2500      -999.2500        86.1291      -999.2500         2.4088      -999.2500        16.8688
    3007.30920        12.2500      -999.2500        86.1082      -999.2500         2.4571      -999.2500        16.8581
    3007.46160        12.2500      -999.2500        86.0873      -999.2500         2.5054      -999.2500        16.8473
    3007.61400        12.2500      -999.2500        85.9591      -999.2500         2.5158      -999.2500        16.9517
    3007.76640        12.2500      -999.2500        85.7947      -999.2500         2.5135      -999.2500        17.0948
    3007.91880        12.2500      -999.2500        85.6303      -999.2500         2.5112      -999.2500        17.2380
    3008.07120        12.2500      -999.2500        85.4382      -999.2500         2.5043      -999.2500        17.4363
    3008.22360        12.2500      -999.2500        85.2146      -999.2500         2.4921      -999.2500        17.6976
    3008.37600        12.2500      -999.2500        84.9909      -999.2500         2.4799      -999.2500        17.9589
    3008.52840        12.2500      -999.2500        84.7872      -999.2500         2.4702      -999.2500        18.2088
    3008.68080        12.2500      -999.2500        84.6702      -999.2500         2.4714      -999.2500        18.4087
    3008.83320        12.2500      -999.2500        84.5532      -999.2500         2.4725      -999.2500        18.6086
    3008.98560        12.2500      -999.2500        84.4363      -999.2500         2.4737      -999.2500        18.8085
    3009.13800        12.2500      -999.2500        84.8471      -999.2500         2.4838      -999.2500        18.6811
    3009.29040        12.2500      -999.2500        85.3130      -999.2500         2.4948      -999.2500        18.5195
    3009.44280        12.2500      -999.2500        85.7788      -999.2500         2.5059      -999.2500        18.3580
    3009.59520        12.2500      -999.2500        86.1109      -999.2500         2.5100      -999.2500        18.1376
    3009.74760        12.2500      -999.2500        86.3626      -999.2500         2.5100      -999.2500        17.8820
    3009.90000        12.2500      -999.2500        86.6143      -999.2500         2.5100      -999.2500        17.6264
    3010.05240        12.2500      -999.2500        86.7118      -999.2500         2.5100      -999.2500        17.4735
    3010.20480        12.2500      -999.2500        86.5150      -999.2500         2.5100      -999.2500        17.5165
    3010.35720        12.2500      -999.2500        86.3182      -999.2500         2.5100      -999.2500        17.5595
    3010.50960        12.2500      -999.2500        86.1357      -999.2500         2.5106      -999.2500        17.6056
    3010.66200        12.2500      -999.2500        86.1665      -999.2500         2.5197      -999.2500        17.6968
    3010.81440        12.2500      -999.2500        86.1973      -999.2500         2.5289      -999.2500        17.7879
    3010.96680        12.2500      -999.2500        86.2281      -999.2500         2.5380      -999.2500        17.8791
    3011.11920        12.2500      -999.2500        86.5149      -999.2500         2.5281      -999.2500        17.7276
    3011.27160        12.2500      -999.2500        86.8729      -999.2500         2.5129      -999.2500        17.5085
    3011.42400        12.2500      -999.2500        87.2309      -999.2500         2.4976      -999.2500        17.2894
    3011.57640        12.2500      -999.2500        87.5515      -999.2500         2.4870      -999.2500        17.1411
    3011.72880        12.2500      -999.2500        87.8350      -999.2500         2.4809      -999.2500        17.0632
    3011.88120        12.2500      -999.2500        88.1184      -999.2500         2.4748      -999.2500        16.9853
    3012.03360        12.2500      -999.2500        88.4118      -999.2500         2.4727      -999.2500        16.9668
