~Version Information Block
VERS .                 2.00:  CWLS LOG ASCII STANDARD - VERSION 2.00
WRAP .                   NO:  One line per depth step
~Well Information Block
#MNEM.UNIT        Data Type   Information
#---------- ----------------  -----------
STRT .M             5.63880:  START DEPTH
STOP .M          4194.35280:  STOP DEPTH
STEP .M             0.15240:  STEP
NULL .              -999.25:  NULL VALUE
COMP .                     :  COMPANY
WELL .             Kapuni-2:  WELL
FLD  .                     :  FIELD
LOC  .                     :  LOCATION
CTRY .                     :  COUNTRY
STAT .                     :  STATE
CNTY .                     :  COUNTY
SRVC .     Shell BP & Todd Oil Services Ltd:  SERVICE COMPANY
DATE .                     :  DATE
API  .                     :  API NUMBER
UWI  .         100000021910:  UNIQUE WELL ID
LATI .          -39.4921223:  LATITUDE
LONG .          174.1702607:  LONGITUDE
~Curve Information Block
#MNEM.UNIT         API CODE   Curve Description
#---------- ----------------  -----------------
DEPTH.M                    :  
BS   .IN                   :  Bit Size (Created in Geolog)
CALI .IN                   :  Normalised log, not for display purpose (CALI)
DTC  .US/F                 :  splice of bcsl & bcsl_01r (DT)
GR   .GAPI                 :  (GR)
RESD .OHMM                 :  ln_e (RES_DEP)
RESM .OHMM                 :  i5fr_00j (RES_MED)
SP   .MV                   :  SP_E+130, K1 & K2 bit + 100 (SP)
~Parameter Information Block
#MNEM.UNIT            Value   Description
#---------- ----------------  -----------
CUR_INT_BOT.M              4194.5:  Current interpolated bottom
PROJECT.     New Zealand Log QC Project:  
SET  .     A0_FINAL_INTER_REF_D:  
ELEVATION_AMSL.M               157.3:  Elevation above mean sea level
ELEVATION_REF.                   DF:  Measurement reference
FORMATION_AT_TD.           Mangaotaki:  Formation at TD
GL_ELEVATION_AMSL.M            152.1000:  Ground level elevation above mean sea level
LICENCE_NUMBER.             PML38839:  Licence number
ONSHORE_OR_OFFSHORE.              Onshore:  Onshore/offshore
PR_NUMBER.                PR464:  Petroleum report number
SPUD_DATE.           09/11/1961:  Spud date
STATUS_AT_COMPLETION.            Completed:  Status at completion
TD_DATE.           27/01/1962:  Total depth date
TOTAL_DEPTH_DRILLED.M             4194.66:  Total depth drilled
~Other Information Block
# 
~A       DEPTH             BS           CALI            DTC             GR           RESD           RESM             SP 
# ...
    4100.16960         8.5000         7.9651        71.6209      -999.2500         7.5473         7.6432        56.3227
    4100.32200         8.5000         8.0051        71.1458      -999.2500         7.3834         7.4863        55.9148
    4100.47440         8.5000         8.0452        70.6707      -999.2500         7.2196         7.3294        55.5070
    4100.62680         8.5000         8.0745        70.8997      -999.2500         7.1735         7.1206        55.0943
    4100.77920         8.5000         8.1016        71.2708      -999.2500         7.1511         6.9014        54.6806
    4100.93160         8.5000         8.1288        71.6419      -999.2500         7.1288         6.6821        54.2669
    4101.08400         8.5000         8.1189        71.6533      -999.2500         7.0314         6.4887        54.5843
    4101.23640         8.5000         8.0788        71.3717      -999.2500         6.8730         6.3164        55.4970
    4101.38880         8.5000         8.0388        71.0902      -999.2500         6.7146         6.1441        56.4098
    4101.54120         8.5000         8.0068        70.7763      -999.2500         6.5405         5.9622        57.1471
    4101.69360         8.5000         7.9968        70.3753      -999.2500         6.3243         5.7545        57.4111
    4101.84600         8.5000         7.9867        69.9743      -999.2500         6.1081         5.5467        57.6751
    4101.99840         8.5000         7.9767        69.5732      -999.2500         5.8919         5.3389        57.9390
    4102.15080         8.5000         7.9999        70.7909      -999.2500         5.8174         5.1167        55.7840
    4102.30320         8.5000         8.0234        72.0258      -999.2500         5.7445         4.8943        53.6032
    4102.45560         8.5000         8.0469        73.2607      -999.2500         5.6716         4.6719        51.4225
    4102.60800         8.5000         8.0532        74.1691      -999.2500         5.5464         4.4782        51.0613
    4102.76040         8.5000         8.0523        74.9433      -999.2500         5.3997         4.2962        51.4482
    4102.91280         8.5000         8.0514        75.7175      -999.2500         5.2530         4.1141        51.8351
    4103.06520         8.5000         8.0450        76.4067      -999.2500         5.1714         4.0243        53.0467
    4103.21760         8.5000         8.0314        76.9823      -999.2500         5.1769         4.0579        55.3614
    4103.37000         8.5000         8.0177        77.5579      -999.2500         5.1824         4.0914        57.6761
    4103.52240         8.5000         8.0061        77.9505      -999.2500         5.1934         4.1675        59.2584
    4103.67480         8.5000         8.0068        77.2807      -999.2500         5.2370         4.4907        56.5905
    4103.82720         8.5000         8.0075        76.6110      -999.2500         5.2806         4.8138        53.9226
    4103.97960         8.5000         8.0082        75.9412      -999.2500         5.3242         5.1370        51.2547
    4104.13200         8.5000         8.0011        75.4197      -999.2500         5.3322         5.4796        50.3192
    4104.28440         8.5000         7.9928        74.9212      -999.2500         5.3347         5.8252        49.6515
    4104.43680         8.5000         7.9844        74.4226      -999.2500         5.3372         6.1708        48.9837
    4104.58920         8.5000         7.9989        74.1707      -999.2500         5.4073         6.1238        48.9033
    4104.74160         8.5000         8.0295        74.0936      -999.2500         5.5254         5.7987        49.2389
    4104.89400         8.5000         8.0602        74.0164      -999.2500         5.6434         5.4736        49.5745
    4105.04640         8.5000         8.1145        73.6997      -999.2500         5.7629         5.1721        50.0912
    4105.19880         8.5000         8.2232        72.8359      -999.2500         5.8858         4.9247        51.0214
    4105.35120         8.5000         8.3318        71.9721      -999.2500         6.0086         4.6772        51.9516
    4105.50360         8.5000         8.4365        71.1167      -999.2500         6.1293         4.4332        52.8468
    4105.65600         8.5000         8.3814        70.6119      -999.2500         6.1592         4.3302        52.2990
    4105.80840         8.5000         8.3263        70.1070      -999.2500         6.1890         4.2272        51.7511
    4105.96080         8.5000         8.2712        69.6021      -999.2500         6.2189         4.1242        51.2032
    4106.11320         8.5000         8.2367        69.8806      -999.2500         6.1437         4.1386        50.4155
    4106.26560         8.5000         8.2094        70.4304      -999.2500         6.0321         4.1937        49.5446
    4106.41800         8.5000         8.1820        70.9802      -999.2500         5.9206         4.2487        48.6738
    4106.57040         8.5000         8.1506        71.5023      -999.2500         5.7421         4.4677        47.9883
    4106.72280         8.5000         8.1146        71.9922      -999.2500         5.4856         4.8775        47.5186
    4106.87520         8.5000         8.0786        72.4821      -999.2500         5.2291         5.2874        47.0489
    4107.02760         8.5000         8.0428        72.8680      -999.2500         5.0005         5.6702        46.9462
    4107.18000         8.5000         8.0084        72.7837      -999.2500         4.8986         5.9311        48.5028
    4107.33240         8.5000         7.9740        72.6993      -999.2500         4.7966         6.1920        50.0594
    4107.48480         8.5000         7.9395        72.6150      -999.2500         4.6946         6.4529        51.6160
    4107.63720         8.5000         7.9967        73.6683      -999.2500         4.7728         6.4470        56.8238
    4107.78960         8.5000         8.0640        74.8476      -999.2500         4.8710         6.4115        62.4360
    4107.94200         8.5000         8.1314        76.0268      -999.2500         4.9692         6.3760        68.0483
    4108.09440         8.5000         8.2890        78.1862      -999.2500         5.1445         6.2752        71.3778
    4108.24680         8.5000         8.5022        80.9478      -999.2500         5.3671         6.1343        73.3048
    4108.39920         8.5000         8.7153        83.7094      -999.2500         5.5897         5.9934        75.2317
    4108.55160         8.5000         8.7536        85.3811      -999.2500         5.7735         5.8942        75.4473
    4108.70400         8.5000         8.4504        84.9237      -999.2500         5.8815         5.8766        72.3197
    4108.85640         8.5000         8.1472        84.4662      -999.2500         5.9894         5.8589        69.1921
    4109.00880         8.5000      -999.2500        83.9576      -999.2500         6.0899         5.8423        66.1430
    4109.16120         8.5000      -999.2500        82.6133      -999.2500         6.0689         5.8416        64.3745
    4109.31360         8.5000      -999.2500        81.2690      -999.2500         6.0479         5.8409        62.6061
    4109.46600         8.5000      -999.2500        79.9248      -999.2500         6.0269         5.8402        60.8376
    4109.61840         8.5000      -999.2500        78.1800      -999.2500         6.0330         5.8554        57.4227
    4109.77080         8.5000      -999.2500        76.3203      -999.2500         6.0468         5.8753        53.5349
    4109.92320         8.5000      -999.2500        74.4605      -999.2500         6.0606         5.8952        49.6472
    4110.07560         8.5000      -999.2500        74.2488      -999.2500         6.1394         5.9428        48.3392
    4110.22800         8.5000      -999.2500        75.7112      -999.2500         6.2842         6.0187        49.6519
