~Version Information Block
VERS .                 2.00:  CWLS LOG ASCII STANDARD - VERSION 2.00
WRAP .                   NO:  One line per depth step
~Well Information Block
#MNEM.UNIT        Data Type   Information
#---------- ----------------  -----------
STRT .M             6.09600:  START DEPTH
STOP .M          3796.43640:  STOP DEPTH
STEP .M             0.15240:  STEP
NULL .              -999.25:  NULL VALUE
COMP .                     :  COMPANY
WELL .             Kapuni-3:  WELL
FLD  .                     :  FIELD
LOC  .                     :  LOCATION
CTRY .                     :  COUNTRY
STAT .                     :  STATE
CNTY .                     :  COUNTY
SRVC .     Shell BP & Todd Oil Services Ltd:  SERVICE COMPANY
DATE .                     :  DATE
API  .                     :  API NUMBER
UWI  .         100000502146:  UNIQUE WELL ID
LATI .          -39.5051918:  LATITUDE
LONG .          174.1760385:  LONGITUDE
~Curve Information Block
#MNEM.UNIT         API CODE   Curve Description
#---------- ----------------  -----------------
DEPTH.M                    :  
BS   .IN                   :  Bit Size (Created in Geolog)
CALI .IN                   :  (CALI)
DTC  .US/F                 :  (DT)
GR   .GAPI                 :  (GR)
RESD .OHMM                 :  Long normal (ES) (RES_DEP)
RESM .OHMM                 :  I6FR (IES) (RES_MED)
SP   .MV                   :  SP-10 (SP)
~Parameter Information Block
#MNEM.UNIT            Value   Description
#---------- ----------------  -----------
CUR_INT_BOT.M              3796.5:  Current interpolated bottom
PROJECT.     New Zealand Log QC Project:  
SET  .     A0_FINAL_INTER_REF_D:  
ELEVATION_AMSL.M              136.86:  Elevation above mean sea level
ELEVATION_REF.                   DF:  Measurement reference
FORMATION_AT_TD.         Kapuni Group:  Formation at TD
GL_ELEVATION_AMSL.M            131.1000:  Ground level elevation above mean sea level
LICENCE_NUMBER.             PML38839:  Licence number
ONSHORE_OR_OFFSHORE.              Onshore:  Onshore/offshore
PR_NUMBER.                PR465:  Petroleum report number
SPUD_DATE.           21/04/1962:  Spud date
STATUS_AT_COMPLETION.     Tested and completed as a potential producer:  Status at completion
TD_DATE.           24/06/1962:  Total depth date
TOTAL_DEPTH_DRILLED.M              3796.9:  Total depth drilled
~Other Information Block
# 
~A       DEPTH             BS           CALI            DTC             GR           RESD           RESM             SP 
# ...
    2803.85520        12.2500      -999.2500        82.3107      -999.2500         3.6837      -999.2500        91.4663
    2804.00760        12.2500      -999.2500        82.0996      -999.2500         3.6984      -999.2500        91.4375
    2804.16000        12.2500      -999.2500        81.9641      -999.2500         3.6984      -999.2500        91.3303
    2804.31240        12.2500      -999.2500        81.8286      -999.2500         3.6984      -999.2500        91.2230
    2804.46480        12.2500      -999.2500        81.6931      -999.2500         3.6984      -999.2500        91.1158
    2804.61720        12.2500      -999.2500        81.8086      -999.2500         3.6898      -999.2500        90.9898
    2804.76960        12.2500      -999.2500        81.9994      -999.2500         3.6785      -999.2500        90.8582
    2804.92200        12.2500      -999.2500        82.1901      -999.2500         3.6672      -999.2500        90.7265
    2805.07440        12.2500      -999.2500        82.3680      -999.2500         3.6504      -999.2500        90.5740
    2805.22680        12.2500      -999.2500        82.5322      -999.2500         3.6278      -999.2500        90.3996
    2805.37920        12.2500      -999.2500        82.6965      -999.2500         3.6052      -999.2500        90.2251
    2805.53160        12.2500      -999.2500        82.8887      -999.2500         3.5853      -999.2500        90.0860
    2805.68400        12.2500      -999.2500        83.1877      -999.2500         3.5758      -999.2500        90.0819
    2805.83640        12.2500      -999.2500        83.4866      -999.2500         3.5664      -999.2500        90.0777
    2805.98880        12.2500      -999.2500        83.7856      -999.2500         3.5569      -999.2500        90.0736
    2806.14120        12.2500      -999.2500        84.1424      -999.2500         3.5562      -999.2500        90.2578
    2806.29360        12.2500      -999.2500        84.5038      -999.2500         3.5562      -999.2500        90.4570
    2806.44600        12.2500      -999.2500        84.8652      -999.2500         3.5562      -999.2500        90.6561
    2806.59840        12.2500      -999.2500        84.9577      -999.2500         3.5472      -999.2500        90.7479
    2806.75080        12.2500      -999.2500        84.9027      -999.2500         3.5332      -999.2500        90.7808
    2806.90320        12.2500      -999.2500        84.8477      -999.2500         3.5192      -999.2500        90.8137
    2807.05560        12.2500      -999.2500        84.7191      -999.2500         3.5026      -999.2500        90.8346
    2807.20800        12.2500      -999.2500        84.4625      -999.2500         3.4816      -999.2500        90.8346
    2807.36040        12.2500      -999.2500        84.2058      -999.2500         3.4605      -999.2500        90.8346
    2807.51280        12.2500      -999.2500        83.9678      -999.2500         3.4395      -999.2500        90.8346
    2807.66520        12.2500      -999.2500        83.9338      -999.2500         3.4185      -999.2500        90.8346
    2807.81760        12.2500      -999.2500        83.8997      -999.2500         3.3974      -999.2500        90.8346
    2807.97000        12.2500      -999.2500        83.8657      -999.2500         3.3764      -999.2500        90.8346
    2808.12240        12.2500      -999.2500        83.5410      -999.2500         3.3553      -999.2500        90.8606
    2808.27480        12.2500      -999.2500        83.1452      -999.2500         3.3343      -999.2500        90.8930
    2808.42720        12.2500      -999.2500        82.7493      -999.2500         3.3132      -999.2500        90.9253
    2808.57960        12.2500      -999.2500        82.6256      -999.2500         3.3062      -999.2500        90.9740
    2808.73200        12.2500      -999.2500        82.7508      -999.2500         3.3120      -999.2500        91.0376
    2808.88440        12.2500      -999.2500        82.8760      -999.2500         3.3178      -999.2500        91.1012
    2809.03680        12.2500      -999.2500        82.8852      -999.2500         3.3289      -999.2500        91.1640
    2809.18920        12.2500      -999.2500        82.5303      -999.2500         3.3568      -999.2500        91.2241
    2809.34160        12.2500      -999.2500        82.1755      -999.2500         3.3847      -999.2500        91.2842
    2809.49400        12.2500      -999.2500        81.8206      -999.2500         3.4127      -999.2500        91.3444
    2809.64640        12.2500      -999.2500        80.4132      -999.2500         3.4138      -999.2500        91.3628
    2809.79880        12.2500      -999.2500        78.9628      -999.2500         3.4139      -999.2500        91.3795
    2809.95120        12.2500      -999.2500        77.5123      -999.2500         3.4139      -999.2500        91.3962
    2810.10360        12.2500      -999.2500        77.3387      -999.2500         3.4139      -999.2500        91.4016
    2810.25600        12.2500      -999.2500        77.7665      -999.2500         3.4139      -999.2500        91.4016
    2810.40840        12.2500      -999.2500        78.1943      -999.2500         3.4139      -999.2500        91.4016
    2810.56080        12.2500      -999.2500        78.8923      -999.2500         3.4139      -999.2500        91.2971
    2810.71320        12.2500      -999.2500        79.9972      -999.2500         3.4139      -999.2500        91.0351
    2810.86560        12.2500      -999.2500        81.1022      -999.2500         3.4139      -999.2500        90.7731
    2811.01800        12.2500      -999.2500        82.0676      -999.2500         3.4139      -999.2500        90.5255
    2811.17040        12.2500      -999.2500        81.9914      -999.2500         3.4139      -999.2500        90.3851
    2811.32280        12.2500      -999.2500        81.9151      -999.2500         3.4139      -999.2500        90.2448
    2811.47520        12.2500      -999.2500        81.8389      -999.2500         3.4139      -999.2500        90.1045
    2811.62760        12.2500      -999.2500        82.2396      -999.2500         3.4139      -999.2500        90.5624
    2811.78000        12.2500      -999.2500        82.7331      -999.2500         3.4139      -999.2500        91.1366
    2811.93240        12.2500      -999.2500        83.2265      -999.2500         3.4139      -999.2500        91.7108
    2812.08480        12.2500      -999.2500        83.3633      -999.2500         3.4100      -999.2500        91.9180
    2812.23720        12.2500      -999.2500        83.2159      -999.2500         3.4029      -999.2500        91.8325
    2812.38960        12.2500      -999.2500        83.0684      -999.2500         3.3958      -999.2500        91.7469
    2812.54200        12.2500      -999.2500        82.8930      -999.2500         3.3776      -999.2500        91.6575
    2812.69440        12.2500      -999.2500        82.6439      -999.2500         3.3301      -999.2500        91.5579
    2812.84680        12.2500      -999.2500        82.3948      -999.2500         3.2826      -999.2500        91.4583
    2812.99920        12.2500      -999.2500        82.1457      -999.2500         3.2351      -999.2500        91.3587
    2813.15160        12.2500      -999.2500        82.5489      -999.2500         3.1862      -999.2500        91.2854
    2813.30400        12.2500      -999.2500        82.9555      -999.2500         3.1373      -999.2500        91.2122
    2813.45640        12.2500      -999.2500        83.3622      -999.2500         3.0884      -999.2500        91.1390
    2813.60880        12.2500      -999.2500        83.6438      -999.2500         3.0395      -999.2500        91.1112
    2813.76120        12.2500      -999.2500        83.8754      -999.2500         2.9905      -999.2500        91.1014
    2813.91360        12.2500      -999.2500        84.1069      -999.2500         2.9416      -999.2500        91.0917
