~Version Information Block
VERS .                 2.00:  CWLS LOG ASCII STANDARD - VERSION 2.00
WRAP .                   NO:  One line per depth step
~Well Information Block
#MNEM.UNIT        Data Type   Information
#---------- ----------------  -----------
STRT .M             9.14400:  START DEPTH
STOP .M          1999.48800:  STOP DEPTH
STEP .M             0.15240:  STEP
NULL .              -999.25:  NULL VALUE
COMP .                     :  COMPANY
WELL .            Ngatoro-2:  WELL
FLD  .                     :  FIELD
LOC  .                     :  LOCATION
CTRY .                     :  COUNTRY
STAT .                     :  STATE
CNTY .                     :  COUNTY
SRVC .     New Zealand Petroleum Co Ltd:  SERVICE COMPANY
DATE .                     :  DATE
API  .                     :  API NUMBER
UWI  .         100000127958:  UNIQUE WELL ID
LATI .          -39.1949429:  LATITUDE
LONG .          174.1849215:  LONGITUDE
~Curve Information Block
#MNEM.UNIT         API CODE   Curve Description
#---------- ----------------  -----------------
DEPTH.M                    :  
BS   .IN                   :  Bit Size (Created in Geolog)
CALI .IN                   :  Caliper Log (CALI)
DENS .G/C3                 :  Compensated Formation Density Log (RHOB)
DRHO .G/C3                 :  Density Log Correction (DRHO)
DTC  .US/F                 :  Delta T (DT)
DTS  .US/F                 :  Delta T Shear Lower Dipole (DT1)
GR   .GAPI                 :  Gamma-Ray Raw (Reeves PSD) (GRCF)
GR_CORR.GAPI                 :  Gamma ray corrected
NEUT .V/V                  :  Neutron Log Porosity (NPHI)
NEUT_CORR.V/V                  :  Corrected NPHI (limestone units)
PEF  .B/E                  :  Photoelectric Factor (PEDF)
RESD .OHMM                 :  Laterolog Deep Resistivity (LLD)
RESD_CORR.OHMM                 :  Borehole corrected LLD
RESS .OHMM                 :  Shallow Laterolog (LLS)
RESS_CORR.OHMM                 :  Borehole corrected LLS
SP   .MV                   :  Spontaneous Potential Log (SP)
TEMP .DEGC                 :  Temperature (TEMP)
TENS .KGF                  :  Cable tension at surface (TENS)
~Parameter Information Block
#MNEM.UNIT            Value   Description
#---------- ----------------  -----------
CUR_INT_BOT.M                2000:  Current interpolated bottom
PROJECT.     New Zealand Log QC Project:  
SET  .     A0_FINAL_INTER_REF_D:  
ELEVATION_AMSL.M              294.94:  Elevation above mean sea level
ELEVATION_REF.                   KB:  Measurement reference
FORMATION_AT_TD.             Manganui:  Formation at TD
GL_ELEVATION_AMSL.M            286.3000:  Ground level elevation above mean sea level
LICENCE_NUMBER.             PPL38706:  Licence number
ONSHORE_OR_OFFSHORE.              Onshore:  Onshore/offshore
PR_NUMBER.               PR1920:  Petroleum report number
SPUD_DATE.           12/10/1991:  Spud date
STATUS_AT_COMPLETION.     Completed as an oil producer:  Status at completion
TD_DATE.           26/10/1991:  Total depth date
TOTAL_DEPTH_DRILLED.M                2000:  Total depth drilled
~Other Information Block
# 
~A       DEPTH             BS           CALI           DENS           DRHO            DTC            DTS             GR        GR_CORR           NEUT      NEUT_CORR            PEF           RESD      RESD_CORR           RESS      RESS_CORR             SP           TEMP           TENS 
# ...
    1883.05440         8.5000         8.7321         2.5340      0.0234370      -999.2500      -999.2500       125.4862       126.1375       0.212913       0.205789         3.3679      -999.2500      -999.2500      -999.2500      -999.2500      -999.2500        65.8631       945.8614
    1883.20680         8.5000         8.7324         2.5436      0.0235336      -999.2500      -999.2500       128.4149       129.0839       0.221071       0.213635         3.3903      -999.2500      -999.2500      -999.2500      -999.2500      -999.2500        65.5852       943.1452
    1883.35920         8.5000         8.7326         2.5533      0.0236303      -999.2500      -999.2500       131.3436       132.0303       0.229229       0.221482         3.4128      -999.2500      -999.2500      -999.2500      -999.2500      -999.2500        65.3073       940.4290
    1883.51160         8.5000         8.7333         2.5618      0.0236278      -999.2500      -999.2500       133.7931       134.4977       0.236387       0.228360         3.4386      -999.2500      -999.2500      -999.2500      -999.2500      -999.2500        65.0492       938.2033
    1883.66400         8.5000         8.7393         2.5578      0.0224216      -999.2500      -999.2500       130.4267       131.1510       0.231415       0.223483         3.5051      -999.2500      -999.2500      -999.2500      -999.2500      -999.2500        65.0318       941.9328
    1883.81640         8.5000         8.7452         2.5538      0.0212154      -999.2500      -999.2500       127.0603       127.8043       0.226442       0.218606         3.5715      -999.2500      -999.2500      -999.2500      -999.2500      -999.2500        65.0144       945.6624
    1883.96880         8.5000         8.7511         2.5498      0.0200092      -999.2500      -999.2500       123.6939       124.4576       0.221470       0.213730         3.6380      -999.2500      -999.2500      -999.2500      -999.2500      -999.2500        64.9970       949.3918
    1884.12120         8.5000         8.7538         2.5438      0.0174457      -999.2500      -999.2500       121.0147       121.7791       0.223066       0.215218         3.6233      -999.2500      -999.2500      -999.2500      -999.2500      -999.2500        65.0212       946.5476
    1884.27360         8.5000         8.7558         2.5374      0.0145329      -999.2500      -999.2500       118.5123       119.2725       0.226353       0.218346         3.5876      -999.2500      -999.2500      -999.2500      -999.2500      -999.2500        65.0562       942.0111
    1884.42600         8.5000         8.7577         2.5310      0.0116200      -999.2500      -999.2500       116.0099       116.7659       0.229639       0.221474         3.5520      -999.2500      -999.2500      -999.2500      -999.2500      -999.2500        65.0911       937.4745
    1884.57840         8.5000         8.7587         2.5274      0.0093781      -999.2500      -999.2500       114.2888       115.0399       0.233837       0.225491         3.5612      -999.2500      -999.2500      -999.2500      -999.2500      -999.2500        65.1093       937.7043
    1884.73080         8.5000         8.7588         2.5264      0.0077696      -999.2500      -999.2500       113.3051       114.0504       0.238893       0.230348         3.6129      -999.2500      -999.2500      -999.2500      -999.2500      -999.2500        65.1116       942.4330
    1884.88320         8.5000         8.7590         2.5255      0.0061610      -999.2500      -999.2500       112.3214       113.0610       0.243950       0.235205         3.6646      -999.2500      -999.2500      -999.2500      -999.2500      -999.2500        65.1140       947.1616
    1885.03560         8.5000         8.7591         2.5245      0.0048378      -999.2500      -999.2500       112.4144       113.1552       0.246813       0.237955         3.6958      -999.2500      -999.2500      -999.2500      -999.2500      -999.2500        65.1139       949.7743
    1885.18800         8.5000         8.7591         2.5232      0.0044507      -999.2500      -999.2500       116.0399       116.8046       0.242482       0.233794         3.6601      -999.2500      -999.2500      -999.2500      -999.2500      -999.2500        65.1057       945.4451
    1885.34040         8.5000         8.7591         2.5220      0.0040636      -999.2500      -999.2500       119.6655       120.4541       0.238151       0.229633         3.6244      -999.2500      -999.2500      -999.2500      -999.2500      -999.2500        65.0975       941.1159
    1885.49280         8.5000         8.7591         2.5207      0.0036765      -999.2500      -999.2500       123.2910       124.1035       0.233819       0.225471         3.5887      -999.2500      -999.2500      -999.2500      -999.2500      -999.2500        65.0894       936.7867
    1885.64520         8.5000         8.7590         2.5183      0.0028565      -999.2500      -999.2500       121.6215       122.4229       0.230064       0.221865         3.5694      -999.2500      -999.2500      -999.2500      -999.2500      -999.2500        65.0881       939.8979
    1885.79760         8.5000         8.7590         2.5157      0.0020151      -999.2500      -999.2500       119.6894       120.4780       0.226338       0.218286         3.5508      -999.2500      -999.2500      -999.2500      -999.2500      -999.2500        65.0871       943.3781
    1885.95000         8.5000         8.7590         2.5132      0.0011736      -999.2500      -999.2500       117.7574       118.5331       0.222612       0.214708         3.5322      -999.2500      -999.2500      -999.2500      -999.2500      -999.2500        65.0861       946.8582
    1886.10240         8.5000         8.7590         2.5147      0.0021916      -999.2500      -999.2500       118.4601       119.2404       0.227162       0.219080         3.5184      -999.2500      -999.2500      -999.2500      -999.2500      -999.2500        65.0744       947.1788
    1886.25480         8.5000         8.7590         2.5182      0.0041175      -999.2500      -999.2500       120.4495       121.2428       0.235753       0.227335         3.5070      -999.2500      -999.2500      -999.2500      -999.2500      -999.2500        65.0573       945.9567
    1886.40720         8.5000         8.7590         2.5217      0.0060433      -999.2500      -999.2500       122.4388       123.2452       0.244344       0.235589         3.4955      -999.2500      -999.2500      -999.2500      -999.2500      -999.2500        65.0402       944.7345
    1886.55960         8.5000         8.7590         2.5232      0.0076670      -999.2500      -999.2500       124.3876       125.2071       0.250256       0.241269         3.4736      -999.2500      -999.2500      -999.2500      -999.2500      -999.2500        65.0476       943.5139
    1886.71200         8.5000         8.7591         2.5215      0.0088200      -999.2500      -999.2500       126.2734       127.1057       0.251996       0.242941         3.4357      -999.2500      -999.2500      -999.2500      -999.2500      -999.2500        65.0930       942.2957
    1886.86440         8.5000         8.7592         2.5198      0.0099731      -999.2500      -999.2500       128.1591       129.0043       0.253736       0.244612         3.3977      -999.2500      -999.2500      -999.2500      -999.2500      -999.2500        65.1384       941.0776
    1887.01680         8.5000         8.7595         2.5183      0.0108858      -999.2500      -999.2500       129.8583       130.7173       0.254716       0.245548         3.3691      -999.2500      -999.2500      -999.2500      -999.2500      -999.2500        65.1794       939.9122
    1887.16920         8.5000         8.7624         2.5175      0.0098584      -999.2500      -999.2500       130.0520       130.9312       0.249560       0.240547         3.4154      -999.2500      -999.2500      -999.2500      -999.2500      -999.2500        65.1848       939.1727
    1887.32160         8.5000         8.7652         2.5167      0.0088311      -999.2500      -999.2500       130.2457       131.1452       0.244403       0.235545         3.4618      -999.2500      -999.2500      -999.2500      -999.2500      -999.2500        65.1901       938.4332
