~Version Information Block
VERS .                 2.00:  CWLS LOG ASCII STANDARD - VERSION 2.00
WRAP .                   NO:  One line per depth step
~Well Information Block
#MNEM.UNIT        Data Type   Information
#---------- ----------------  -----------
STRT .M           387.55320:  START DEPTH
STOP .M          1999.48800:  STOP DEPTH
STEP .M             0.15240:  STEP
NULL .              -999.25:  NULL VALUE
COMP .                     :  COMPANY
WELL .           Ngatoro-13:  WELL
FLD  .                     :  FIELD
LOC  .                     :  LOCATION
CTRY .                     :  COUNTRY
STAT .                     :  STATE
CNTY .                     :  COUNTY
SRVC .     Greymouth Petroleum Ltd:  SERVICE COMPANY
DATE .                     :  DATE
API  .                     :  API NUMBER
UWI  .         100000787699:  UNIQUE WELL ID
LATI .            -39.21139:  LATITUDE
LONG .            174.18349:  LONGITUDE
~Curve Information Block
#MNEM.UNIT         API CODE   Curve Description
#---------- ----------------  -----------------
DEPTH.M                    :  
BS   .IN                   :  Bit Size (Created in Geolog)
CALI .IN                   :  HRCC Cal. Caliper (HCAL)
DENS .G/C3                 :  HRDD Standard Resolution Formation Density (RHOZ) and (RHO8)
DRHO .G/C3                 :  HRDD Density Correction (HDRA)
DTC  .US/F                 :  Delta-T Compressional (DTCO)
DTS  .US/F                 :  Delta-T Shear (DTSM)
GR   .GAPI                 :  Gamma-Ray (GR) and HiRes Gamma-Ray (EHGR)
NEUT .V/V                  :  Enhanced Thermal Neutron Porosity(NPOR) and (HNPO)
PEF  .B/E                  :  HRDD Std Resolution Formation Photoelectric Factor (PEFZ) and (PEF8)
RESD .OHMM                 :  HALS Laterolog Deep R (HLLD) and HALS HiRes Deep Res (HRLD)
RESS .OHMM                 :  HALS Shallow Res. (HLLS) and HR HALS Shallow Res. (HRLS)
SP   .MV                   :  SP Shifted (SP)
TENS .KGF                  :  Cable Tension (TENS)
~Parameter Information Block
#MNEM.UNIT            Value   Description
#---------- ----------------  -----------
CUR_INT_BOT.M                2032:  Current interpolated bottom
PROJECT.     New Zealand Log QC Project:  
SET  .     A0_FINAL_INTER_REF_D:  
ELEVATION_AMSL.M              323.75:  Elevation above mean sea level
ELEVATION_REF.                   DF:  Measurement reference
FORMATION_AT_TD.                 Moki:  Formation at TD
GL_ELEVATION_AMSL.M            323.3000:  Ground level elevation above mean sea level
LICENCE_NUMBER.             PMP38148:  Licence number
ONSHORE_OR_OFFSHORE.              Onshore:  Onshore/offshore
PR_NUMBER.               PR3545:  Petroleum report number
SPUD_DATE.           28/10/2006:  Spud date
STATUS_AT_COMPLETION.     Completed ready for perforating:  Status at completion
TD_DATE.           10/11/2006:  Total depth date
TOTAL_DEPTH_DRILLED.M                2032:  Total depth drilled
~Other Information Block
# 
~A       DEPTH             BS           CALI           DENS           DRHO            DTC            DTS             GR           NEUT            PEF           RESD           RESS             SP           TENS 
# ...
     524.25600         8.5000         8.5093         2.1337         0.0250       123.2055       300.1805        74.1797       0.378771         2.7430        20.4442        15.1521       262.5241       801.6929
     524.40840         8.5000         8.4917         2.1378         0.0321       122.7131       300.9425        75.5436       0.382627         2.7533        20.6822        15.2527       262.7039       799.4719
     524.56080         8.5000         8.4796         2.1417         0.0363       122.4627       302.2118        75.5842       0.388281         2.7598        20.8521        15.3234       262.6191       800.0809
     524.71320         8.5000         8.4761         2.1452         0.0363       122.5768       304.2454        73.6311       0.396645         2.7605        20.9192        15.3491       262.1357       804.9536
     524.86560         8.5000         8.4726         2.1487         0.0362       122.6909       306.2790        71.6781       0.405008         2.7612        20.9863        15.3749       261.6522       809.8262
     525.01800         8.5000         8.4778         2.1513         0.0351       122.8632       307.8655        70.0610       0.410885         2.7585        20.9069        15.3257       261.2106       813.8009
     525.17040         8.5000         8.5477         2.1474         0.0262       123.4700       306.1138        70.9527       0.398200         2.7307        19.7339        14.7167       261.0817       811.0701
     525.32280         8.5000         8.6177         2.1434         0.0172       124.0768       304.3621        71.8445       0.385514         2.7029        18.5608        14.1078       260.9528       808.3394
     525.47520         8.5000         8.6876         2.1395         0.0082       124.6836       302.6104        72.7362       0.372828         2.6751        17.3878        13.4988       260.8239       805.6086
     525.62760         8.5000         8.6739         2.1329         0.0184       124.8072       300.4070        72.7436       0.370123         2.7143        17.6644        13.7638       260.7295       805.5634
     525.78000         8.5000         8.6440         2.1257         0.0322       124.8368       298.1159        72.5790       0.369357         2.7666        18.2228        14.1987       260.6417       806.0401
     525.93240         8.5000         8.6140         2.1185         0.0461       124.8664       295.8249        72.4144       0.368592         2.8189        18.7812        14.6336       260.5539       806.5168
     526.08480         8.5000         8.8337         2.1212         0.0532       125.0944       296.1115        72.4991       0.372340         2.8381        18.6478        14.6862       260.6897       805.8342
     526.23720         8.5000         9.2525         2.1318         0.0550       125.4805       298.4531        72.7826       0.379685         2.8311        17.9629        14.4341       261.0037       804.2273
     526.38960         8.5000         9.6713         2.1423         0.0568       125.8666       300.7946        73.0661       0.387031         2.8241        17.2780        14.1821       261.3177       802.6204
     526.54200         8.5000        10.0266         2.1498         0.0545       126.2004       303.0326        73.2186       0.392096         2.8047        17.2924        14.4566       261.4779       801.4756
     526.69440         8.5000        10.2151         2.1491         0.0417       126.3969       304.9980        73.0267       0.391164         2.7528        19.1450        16.1151       261.2338       801.5452
     526.84680         8.5000        10.4036         2.1485         0.0290       126.5934       306.9634        72.8349       0.390232         2.7009        20.9976        17.7736       260.9896       801.6149
     526.99920         8.5000        10.5921         2.1479         0.0162       126.7899       308.9288        72.6431       0.389300         2.6490        22.8502        19.4321       260.7455       801.6846
     527.15160         8.5000        10.4148         2.1430         0.0220       127.3814       308.3098        70.9136       0.379344         2.6917        20.8103        17.7497       260.4344       802.1536
     527.30400         8.5000        10.2356         2.1382         0.0278       127.9750       307.6772        69.1759       0.369340         2.7349        18.7499        16.0498       260.1229       802.6248
     527.45640         8.5000        10.0564         2.1333         0.0337       128.5686       307.0446        67.4382       0.359337         2.7782        16.6895        14.3498       259.8114       803.0960
     527.60880         8.5000         9.6572         2.1378         0.0312       128.4190       307.8040        67.7342       0.359053         2.7795        17.5886        14.6396       259.6126       802.3448
     527.76120         8.5000         9.1698         2.1461         0.0254       127.9716       309.1214        68.8450       0.362665         2.7641        19.6737        15.7267       259.4589       801.1038
     527.91360         8.5000         8.6825         2.1543         0.0195       127.5242       310.4387        69.9559       0.366276         2.7487        21.7588        16.8139       259.3053       799.8627
     528.06600         8.5000         8.3959         2.1697         0.0124       127.3565       310.3558        71.8757       0.357881         2.7747        22.2752        17.0749       259.2876       800.9069
     528.21840         8.5000         8.3723         2.1944         0.0035       127.5550       308.4398        74.8543       0.333768         2.8549        20.7381        16.2544       259.4481       804.9429
     528.37080         8.5000         8.3486         2.2190        -0.0053       127.7535       306.5237        77.8328       0.309655         2.9351        19.2010        15.4340       259.6086       808.9788
     528.52320         8.5000         8.3419         2.2352        -0.0121       127.5779       304.9619        79.9841       0.293041         2.9880        17.8917        14.7006       259.6691       812.3024
     528.67560         8.5000         8.4291         2.2039        -0.0076       125.3195       305.3721        77.5277       0.318189         2.8886        17.8508        14.4524       259.1736       811.6583
     528.82800         8.5000         8.5164         2.1727        -0.0030       123.0611       305.7823        75.0714       0.343336         2.7892        17.8100        14.2043       258.6780       811.0143
     528.98040         8.5000         8.6037         2.1414         0.0015       120.8027       306.1926        72.6151       0.368483         2.6898        17.7692        13.9561       258.1824       810.3702
     529.13280         8.5000         8.5898         2.1353         0.0025       121.5598       304.2545        73.3306       0.371223         2.6707        18.2495        14.1875       258.0758       818.0604
     529.28520         8.5000         8.5610         2.1328         0.0029       122.7619       301.9699        74.5144       0.370656         2.6634        18.8066        14.4897       258.0266       826.9806
     529.43760         8.5000         8.5322         2.1304         0.0034       123.9641       299.6853        75.6981       0.370089         2.6560        19.3638        14.7920       257.9774       835.9008
     529.59000         8.5000         8.5288         2.1302         0.0037       124.4145       300.8127        75.3035       0.363497         2.6521        19.3255        14.9694       257.7089       835.0430
     529.74240         8.5000         8.5429         2.1315         0.0041       124.3436       304.3059        73.8146       0.352729         2.6504        18.8744        15.0605       257.2883       827.4057
     529.89480         8.5000         8.5569         2.1329         0.0044       124.2727       307.7990        72.3256       0.341961         2.6487        18.4233        15.1515       256.8677       819.7684
     530.04720         8.5000         8.5853         2.1348         0.0045       124.3671       310.8326        72.0074       0.337972         2.6489        17.8322        14.9698       256.4254       813.9659
