~Version Information Block
VERS .                 2.00:  CWLS LOG ASCII STANDARD - VERSION 2.00
WRAP .                   NO:  One line per depth step
~Well Information Block
#MNEM.UNIT        Data Type   Information
#---------- ----------------  -----------
STRT .M           527.15160:  START DEPTH
STOP .M          2099.31000:  STOP DEPTH
STEP .M             0.15240:  STEP
NULL .              -999.25:  NULL VALUE
COMP .                     :  COMPANY
WELL .            Ngatoro-8:  WELL
FLD  .                     :  FIELD
LOC  .                     :  LOCATION
CTRY .                     :  COUNTRY
STAT .                     :  STATE
CNTY .                     :  COUNTY
SRVC .     New Zealand Petroleum Co Ltd:  SERVICE COMPANY
DATE .                     :  DATE
API  .                     :  API NUMBER
UWI  .         100000210422:  UNIQUE WELL ID
LATI .          -39.2038856:  LATITUDE
LONG .          174.1703227:  LONGITUDE
~Curve Information Block
#MNEM.UNIT         API CODE   Curve Description
#---------- ----------------  -----------------
DEPTH.M                    :  
BS   .IN                   :  Bit Size (Created in Geolog)
CALI .IN                   :  Caliper (HCAL)
DENS .G/C3                 :  Bulk Density (RHOZ) and HR Bulk Density (RHO8)
DTC  .US/F                 :  Delta Time (DT)
GR   .GAPI                 :  Gamma Ray (GR) and HR Gamma Ray (HGR)
NEUT .V/V                  :  Neutron Porosity (NPHI) and HR Neutron Porosity (HTNP)
NEUT_CORR.V/V                  :  Corrected NPHI (limestone units)
PEF  .B/E                  :  Photoelectric Factor (PEF) and (PEFZ)
RESD .OHMM                 :  HALS Deep Res. (HLLD) and HR HALS Deep Res. (HRLD)
RESS .OHMM                 :  HALS Shallow Res. (HLLS) and HR HALS Shallow Res. (HRLS)
SP   .MV                   :  Spontaneous Potential (SP)
~Parameter Information Block
#MNEM.UNIT            Value   Description
#---------- ----------------  -----------
CUR_INT_BOT.M                2100:  Current interpolated bottom
PROJECT.     New Zealand Log QC Project:  
SET  .     A0_FINAL_INTER_REF_D:  
ELEVATION_AMSL.M                 328:  Elevation above mean sea level
ELEVATION_REF.                   KB:  Measurement reference
FORMATION_AT_TD.             Manganui:  Formation at TD
GL_ELEVATION_AMSL.M            322.5000:  Ground level elevation above mean sea level
LICENCE_NUMBER.             PPL38706:  Licence number
ONSHORE_OR_OFFSHORE.              Onshore:  Onshore/offshore
PR_NUMBER.               PR2216:  Petroleum report number
SPUD_DATE.           22/04/1996:  Spud date
STATUS_AT_COMPLETION.     Suspended with 7" casing cemented to TD:  Status at completion
TD_DATE.           29/04/1996:  Total depth date
TOTAL_DEPTH_DRILLED.M                2100:  Total depth drilled
~Other Information Block
# 
~A       DEPTH             BS           CALI           DENS            DTC             GR           NEUT      NEUT_CORR            PEF           RESD           RESS             SP 
# ...
     760.32360         8.5000         8.5877         2.2413        88.7095        91.9085       0.310151       0.305221         3.1119        15.3116        10.8356        67.1557
     760.47600         8.5000         8.5970         2.2489        88.5019        92.3445       0.295096       0.290010         3.1545        15.8610        11.2786        66.9693
     760.62840         8.5000         8.5947         2.2501        88.2943        90.9306       0.299187       0.294002         3.1530        17.1906        12.2929        67.0847
     760.78080         8.5000         8.5901         2.2501        88.0866        89.1709       0.306856       0.301584         3.1432        18.6660        13.4139        67.2566
     760.93320         8.5000         8.5855         2.2501        87.8790        87.4112       0.314526       0.309166         3.1334        20.1414        14.5349        67.4286
     761.08560         8.5000         8.5839         2.2404        87.6714        86.7896       0.317952       0.312621         3.0988        19.8803        14.5270        67.8162
     761.23800         8.5000         8.5847         2.2233        87.4638        87.0562       0.318067       0.312857         3.0449        18.2641        13.6383        68.3723
     761.39040         8.5000         8.5855         2.2061        87.2561        87.3227       0.318182       0.313093         2.9909        16.6478        12.7496        68.9284
     761.54280         8.5000         8.5939         2.2104        87.0680        86.5772       0.307683       0.302718         2.9661        16.6276        12.9201        69.5959
     761.69520         8.5000         8.6216         2.2699        86.9296        83.2399       0.270005       0.265172         3.0161        20.6944        15.8031        70.5487
     761.84760         8.5000         8.6494         2.3294        86.7912        79.9027       0.232327       0.227625         3.0660        24.7613        18.6860        71.5014
     762.00000         8.5000         8.6772         2.3889        86.6529        76.5654       0.194649       0.190079         3.1160        28.8281        21.5689        72.4542
     762.15240         8.5000         8.6974         2.4281        85.7230        74.7209       0.184178       0.179966         3.1942        31.0083        24.0326        72.9975
     762.30480         8.5000         8.7177         2.4672        84.7931        72.8764       0.173707       0.169854         3.2725        33.1885        26.4963        73.5407
     762.45720         8.5000         8.7379         2.5064        83.8633        71.0319       0.163236       0.159741         3.3507        35.3688        28.9599        74.0840
     762.60960         8.5000         8.7205         2.4977        85.5005        71.7340       0.193947       0.190341         3.3501        38.3620        32.3332        74.4649
     762.76200         8.5000         8.6883         2.4702        88.1402        73.4306       0.240741       0.236840         3.3186        41.6727        36.0616        74.7825
     762.91440         8.5000         8.6561         2.4428        90.7800        75.1272       0.287534       0.283338         3.2872        44.9834        39.7900        75.1001
     763.06680         8.5000         8.6296         2.4014        91.7539        75.0924       0.306326       0.301787         3.2320        43.4275        38.9679        75.5939
     763.21920         8.5000         8.6105         2.3420        90.5931        72.8388       0.289239       0.284292         3.1464        35.6354        32.3146        76.3137
     763.37160         8.5000         8.5913         2.2827        89.4323        70.5852       0.272151       0.266797         3.0608        27.8433        25.6612        77.0334
     763.52400         8.5000         8.5866         2.2446        88.0556        68.1170       0.253331       0.247740         3.0095        23.6697        21.7769        77.7824
     763.67640         8.5000         8.6591         2.3205        85.5234        64.5009       0.225239       0.220322         3.1420        38.8555        32.7074        78.6882
     763.82880         8.5000         8.7315         2.3964        82.9912        60.8847       0.197147       0.192905         3.2745        54.0412        43.6379        79.5939
     763.98120         8.5000         8.8040         2.4724        80.4590        57.2685       0.169056       0.165487         3.4070        69.2270        54.5684        80.4997
     764.13360         8.5000         8.7835         2.4540        85.0892        59.4840       0.205553       0.201773         3.3559        62.4575        48.2033        80.7947
     764.28600         8.5000         8.7499         2.4224        90.7274        62.5201       0.251138       0.247024         3.2790        52.5985        39.4043        81.0038
     764.43840         8.5000         8.7164         2.3908        96.3655        65.5563       0.296724       0.292274         3.2021        42.7395        30.6054        81.2129
     764.59080         8.5000         8.6866         2.3453        98.3077        66.5430       0.316319       0.311791         3.1131        35.8499        25.7079        81.6020
     764.74320         8.5000         8.6593         2.2903        97.7425        66.1394       0.318281       0.313849         3.0160        30.9747        23.4573        82.1133
     764.89560         8.5000         8.6321         2.2354        97.1772        65.7358       0.320244       0.315908         2.9189        26.0996        21.2067        82.6246
     765.04800         8.5000         8.6108         2.1999        96.5980        64.8871       0.315680       0.311300         2.8587        22.6450        19.4145        83.2443
     765.20040         8.5000         8.6025         2.2068        95.9882        63.0706       0.296924       0.292192         2.8788        22.2803        18.6194        84.1001
     765.35280         8.5000         8.5942         2.2137        95.3785        61.2541       0.278168       0.273085         2.8989        21.9155        17.8243        84.9559
     765.50520         8.5000         8.5872         2.2216        94.7983        59.4478       0.259661       0.254235         2.9224        21.7304        17.1150        85.8031
     765.65760         8.5000         8.6159         2.2582        95.0529        57.9282       0.248183       0.242671         3.0394        26.6334        18.8330        86.4076
     765.81000         8.5000         8.6447         2.2947        95.3076        56.4086       0.236705       0.231108         3.1565        31.5363        20.5510        87.0121
     765.96240         8.5000         8.6734         2.3312        95.5622        54.8890       0.225228       0.219544         3.2735        36.4392        22.2689        87.6165
     766.11480         8.5000         8.6665         2.3132        96.2323        58.6102       0.241776       0.236170         3.2589        33.9816        20.6804        87.7440
     766.26720         8.5000         8.6479         2.2773        97.0385        64.0478       0.267504       0.262029         3.2010        29.1132        18.0089        87.7153
     766.41960         8.5000         8.6293         2.2414        97.8447        69.4854       0.293231       0.287888         3.1432        24.2447        15.3373        87.6865
     766.57200         8.5000         8.6171         2.2139        98.2796        72.8191       0.308658       0.303417         3.0722        21.3388        13.7853        87.4150
     766.72440         8.5000         8.6121         2.1959        98.2999        73.8033       0.312582       0.307409         2.9866        20.6242        13.4834        86.8724
     766.87680         8.5000         8.6071         2.1779        98.3202        74.7876       0.316506       0.311402         2.9009        19.9097        13.1814        86.3298
     767.02920         8.5000         8.5965         2.1649        98.3406        75.7099       0.318920       0.313852         2.8307        19.3668        12.9241        85.9689
