~Version Information Block
VERS .                 2.00:  CWLS LOG ASCII STANDARD - VERSION 2.00
WRAP .                   NO:  One line per depth step
~Well Information Block
#MNEM.UNIT        Data Type   Information
#---------- ----------------  -----------
STRT .M            16.61160:  START DEPTH
STOP .M          1898.90400:  STOP DEPTH
STEP .M             0.15240:  STEP
NULL .              -999.25:  NULL VALUE
COMP .                     :  COMPANY
WELL .         Ngatoro-3ST1:  WELL
FLD  .                     :  FIELD
LOC  .                     :  LOCATION
CTRY .                     :  COUNTRY
STAT .                     :  STATE
CNTY .                     :  COUNTY
SRVC .     Greymouth Petroleum Ltd:  SERVICE COMPANY
DATE .                     :  DATE
API  .                     :  API NUMBER
UWI  .         100000787700:  UNIQUE WELL ID
LATI .          -39.1846084:  LATITUDE
LONG .          174.1883756:  LONGITUDE
~Curve Information Block
#MNEM.UNIT         API CODE   Curve Description
#---------- ----------------  -----------------
DEPTH.M                    :  
BS   .IN                   :  Bit Size (Created in Geolog)
CALI .IN                   :  HRCC Cal. Caliper (HCAL)
DENS .G/C3                 :  HRDD High Resolution Formation Density (RHO8)
DRHO .G/C3                 :  HRDD Density Correction (HDRA)
GR   .GAPI                 :  HiRes Gamma-Ray (EHGR)
NEUT .V/V                  :  HiRes Thermal Neutron Porosity (HTNP)
PEF  .B/E                  :  HRDD High Resolution Formation Photoelectric Factor (PEF8)
RESD .OHMM                 :  Array Induction Two Foot Resistivity A90 (AHT90)
RESM .OHMM                 :  Array Induction Two Foot Resistivity A30 (AHT30)
RESS .OHMM                 :  Array Induction Two Foot Resistivity A10 (AHT10)
SP   .MV                   :  SP Shifted (SP)
TEMP .DEGC                 :  HTC Temperature (HTEM)
TENS .KGF                  :  Cable Tension (TENS)
~Parameter Information Block
#MNEM.UNIT            Value   Description
#---------- ----------------  -----------
CUR_INT_BOT.M                1899:  Current interpolated bottom
PROJECT.     New Zealand Log QC Project:  
SET  .     A0_FINAL_INTER_REF_D:  
ELEVATION_AMSL.M              262.91:  Elevation above mean sea level
ELEVATION_REF.                   DF:  Measurement reference
FORMATION_AT_TD.             Manganui:  Formation at TD
GL_ELEVATION_AMSL.M            259.3000:  Ground level elevation above mean sea level
KICK_OFF_DATE.           26/09/2005:  Kick off date
KICK_OFF_DEPTH.M                 645:  Kick off depth
LICENCE_NUMBER.             PMP38148:  Licence number
ONSHORE_OR_OFFSHORE.              Onshore:  Onshore/offshore
PARENT_WELL.            Ngatoro-3:  Parent well
PR_NUMBER.               PR3237:  Petroleum report number
STATUS_AT_COMPLETION.     Completed ready for perforating:  Status at completion
TD_DATE.           05/10/2005:  Total depth date
TOTAL_DEPTH_DRILLED.M             1898.82:  Total depth drilled
~Other Information Block
# 
~A       DEPTH             BS           CALI           DENS           DRHO             GR           NEUT            PEF           RESD           RESM           RESS             SP           TEMP           TENS 
# ...
     646.63320         6.0000         6.5499         2.1948      0.0137160        73.4408       0.379171         2.7558      -999.2500      -999.2500      -999.2500       460.0396        42.4249       776.3447
     646.78560         6.0000         6.5397         2.2059      0.0227469        76.5171       0.395744         2.7580      -999.2500      -999.2500      -999.2500       459.7434        42.4249       778.5643
     646.93800         6.0000         6.5295         2.2171      0.0317778        79.5934       0.412317         2.7601      -999.2500      -999.2500      -999.2500       459.4473        42.4249       780.7840
     647.09040         6.0000         6.4950         2.2133      0.0336499        80.7798       0.419033         2.7485      -999.2500      -999.2500      -999.2500       458.3235        42.4249       785.8469
     647.24280         6.0000         6.4437         2.1991      0.0306121        80.6700       0.418988         2.7276      -999.2500      -999.2500      -999.2500       456.6322        42.4249       792.8599
     647.39520         6.0000         6.3924         2.1850      0.0275743        80.5603       0.418944         2.7066      -999.2500      -999.2500      -999.2500       454.9409        42.4249       799.8729
     647.54760         6.0000         6.3508         2.1773      0.0229315        80.4937       0.415965         2.6877      -999.2500      -999.2500      -999.2500       453.2401        42.4249       802.8320
     647.70000         6.0000         6.3305         2.1836      0.0147553        80.5223       0.406524         2.6734      -999.2500      -999.2500      -999.2500       451.5185        42.4249       796.8656
     647.85240         6.0000         6.3103         2.1899      0.0065790        80.5509       0.397084         2.6590      -999.2500      -999.2500      -999.2500       449.7968        42.4249       790.8992
     648.00480         6.0000         6.2912         2.1959     -0.0012105        80.5724       0.387822         2.6457      -999.2500      -999.2500      -999.2500       448.1283        42.4249       785.5339
     648.15720         6.0000         6.3100         2.1921      0.0028931        80.3766       0.384055         2.6636      -999.2500      -999.2500      -999.2500       448.0941        42.4249       798.6505
     648.30960         6.0000         6.3288         2.1883      0.0069967        80.1808       0.380289         2.6815      -999.2500      -999.2500      -999.2500       448.0598        42.4249       811.7672
     648.46200         6.0000         6.3476         2.1845      0.0111003        79.9851       0.376523         2.6995      -999.2500      -999.2500      -999.2500       448.0255        42.4249       824.8839
     648.61440         6.0000         6.3886         2.2114      0.0207314        80.1397       0.362853         2.7582      -999.2500      -999.2500      -999.2500       449.0305        42.4249       824.4559
     648.76680         6.0000         6.4369         2.2484      0.0321985        80.4109       0.345894         2.8305      -999.2500      -999.2500      -999.2500       450.3807        42.4249       819.5288
     648.91920         6.0000         6.4852         2.2855      0.0436656        80.6820       0.328935         2.9028      -999.2500      -999.2500      -999.2500       451.7308        42.4249       814.6017
     649.07160         6.0000         6.4493         2.2937      0.0455603        80.4366       0.327409         2.9303      -999.2500      -999.2500      -999.2500       451.5371        42.4249       807.6638
     649.22400         6.0000         6.3184         2.2695      0.0366526        79.6083       0.343301         2.9072      -999.2500      -999.2500      -999.2500       449.6012        42.4249       798.4567
     649.37640         6.0000         6.1874         2.2453      0.0277450        78.7800       0.359193         2.8841      -999.2500      -999.2500      -999.2500       447.6652        42.4249       789.2495
     649.52880         6.0000         6.0881         2.2345      0.0199222        77.2127       0.365856         2.8735      -999.2500      -999.2500      -999.2500       446.0070        42.4249       782.6714
     649.68120         6.0000         6.1244         2.2810      0.0167549        72.4737       0.332914         2.9164      -999.2500      -999.2500      -999.2500       445.5407        42.4249       787.3762
     649.83360         6.0000         6.1608         2.3275      0.0135876        67.7347       0.299972         2.9593      -999.2500      -999.2500      -999.2500       445.0744        42.4249       792.0809
     649.98600         6.0000         6.1971         2.3740      0.0104204        62.9957       0.267030         3.0022      -999.2500      -999.2500      -999.2500       444.6081        42.4249       796.7856
     650.13840         6.0000         6.2826         2.3645      0.0098049        65.1148       0.267167         2.9724      -999.2500      -999.2500      -999.2500       447.9377        42.4249       798.4562
     650.29080         6.0000         6.3731         2.3493      0.0094475        67.9278       0.270651         2.9353      -999.2500      -999.2500      -999.2500       451.6514        42.4249       799.8198
     650.44320         6.0000         6.4636         2.3341      0.0090902        70.7407       0.274135         2.8982      -999.2500      -999.2500      -999.2500       455.3650        42.4249       801.1834
     650.59560         6.0000         6.6198         2.3053      0.0085332        71.4665       0.288665         2.8355      -999.2500      -999.2500      -999.2500       457.6887        42.4249       801.7050
     650.74800         6.0000         6.8150         2.2685      0.0078576        70.9522       0.309758         2.7576      -999.2500      -999.2500      -999.2500       459.1865        42.4249       801.7262
     650.90040         6.0000         7.0102         2.2317      0.0071820        70.4379       0.330851         2.6798      -999.2500      -999.2500      -999.2500       460.6843        42.4249       801.7474
     651.05280         6.0000         7.1838         2.2026      0.0079315        68.9567       0.345902         2.6200      -999.2500      -999.2500      -999.2500       461.2296        42.4249       802.1942
     651.20520         6.0000         7.3166         2.1882      0.0113692        65.6517       0.349554         2.5944      -999.2500      -999.2500      -999.2500       459.9779        42.4249       803.4434
     651.35760         6.0000         7.4494         2.1737      0.0148069        62.3467       0.353206         2.5689      -999.2500      -999.2500      -999.2500       458.7262        42.4249       804.6927
     651.51000         6.0000         7.5739         2.1610      0.0181261        59.0758       0.356255         2.5481      -999.2500      -999.2500      -999.2500       457.3683        42.4249       805.7556
     651.66240         6.0000         7.5793         2.1730      0.0197569        56.2895       0.350715         2.5961      -999.2500      -999.2500      -999.2500       454.4974        42.4249       804.1620
     651.81480         6.0000         7.5847         2.1850      0.0213878        53.5032       0.345175         2.6442      -999.2500      -999.2500      -999.2500       451.6266        42.4249       802.5686
     651.96720         6.0000         7.5901         2.1969      0.0230186        50.7169       0.339635         2.6922      -999.2500      -999.2500      -999.2500       448.7557        42.4249       800.9751
     652.11960         6.0000         7.2164         2.2608      0.0253145        48.1234       0.295951         2.8585      -999.2500      -999.2500      -999.2500       449.7676        42.4249       798.8480
     652.27200         6.0000         6.7387         2.3389      0.0277928        45.5829       0.241807         3.0572      -999.2500      -999.2500      -999.2500       451.8444        42.4249       796.5745
     652.42440         6.0000         6.2610         2.4169      0.0302711        43.0424       0.187662         3.2560      -999.2500      -999.2500      -999.2500       453.9212        42.4249       794.3010
