~Version Information Block
VERS .                 2.00:  CWLS LOG ASCII STANDARD - VERSION 2.00
WRAP .                   NO:  One line per depth step
~Well Information Block
#MNEM.UNIT        Data Type   Information
#---------- ----------------  -----------
STRT .M           527.15160:  START DEPTH
STOP .M          2099.31000:  STOP DEPTH
STEP .M             0.15240:  STEP
NULL .              -999.25:  NULL VALUE
COMP .                     :  COMPANY
WELL .            Ngatoro-8:  WELL
FLD  .                     :  FIELD
LOC  .                     :  LOCATION
CTRY .                     :  COUNTRY
STAT .                     :  STATE
CNTY .                     :  COUNTY
SRVC .     New Zealand Petroleum Co Ltd:  SERVICE COMPANY
DATE .                     :  DATE
API  .                     :  API NUMBER
UWI  .         100000210422:  UNIQUE WELL ID
LATI .          -39.2038856:  LATITUDE
LONG .          174.1703227:  LONGITUDE
~Curve Information Block
#MNEM.UNIT         API CODE   Curve Description
#---------- ----------------  -----------------
DEPTH.M                    :  
BS   .IN                   :  Bit Size (Created in Geolog)
CALI .IN                   :  Caliper (HCAL)
DENS .G/C3                 :  Bulk Density (RHOZ) and HR Bulk Density (RHO8)
DTC  .US/F                 :  Delta Time (DT)
GR   .GAPI                 :  Gamma Ray (GR) and HR Gamma Ray (HGR)
NEUT .V/V                  :  Neutron Porosity (NPHI) and HR Neutron Porosity (HTNP)
NEUT_CORR.V/V                  :  Corrected NPHI (limestone units)
PEF  .B/E                  :  Photoelectric Factor (PEF) and (PEFZ)
RESD .OHMM                 :  HALS Deep Res. (HLLD) and HR HALS Deep Res. (HRLD)
RESS .OHMM                 :  HALS Shallow Res. (HLLS) and HR HALS Shallow Res. (HRLS)
SP   .MV                   :  Spontaneous Potential (SP)
~Parameter Information Block
#MNEM.UNIT            Value   Description
#---------- ----------------  -----------
CUR_INT_BOT.M                2100:  Current interpolated bottom
PROJECT.     New Zealand Log QC Project:  
SET  .     A0_FINAL_INTER_REF_D:  
ELEVATION_AMSL.M                 328:  Elevation above mean sea level
ELEVATION_REF.                   KB:  Measurement reference
FORMATION_AT_TD.             Manganui:  Formation at TD
GL_ELEVATION_AMSL.M            322.5000:  Ground level elevation above mean sea level
LICENCE_NUMBER.             PPL38706:  Licence number
ONSHORE_OR_OFFSHORE.              Onshore:  Onshore/offshore
PR_NUMBER.               PR2216:  Petroleum report number
SPUD_DATE.           22/04/1996:  Spud date
STATUS_AT_COMPLETION.     Suspended with 7" casing cemented to TD:  Status at completion
TD_DATE.           29/04/1996:  Total depth date
TOTAL_DEPTH_DRILLED.M                2100:  Total depth drilled
~Other Information Block
# 
~A       DEPTH             BS           CALI           DENS            DTC             GR           NEUT      NEUT_CORR            PEF           RESD           RESS             SP 
# ...
     657.45360         8.5000         8.2964         2.2263        99.3899        87.4371       0.319524       0.314865         3.1769         9.9109         8.9814        72.8804
     657.60600         8.5000         8.2951         2.2296        99.3900        87.8636       0.316774       0.311894         3.1687         9.9094         9.0152        72.7454
     657.75840         8.5000         8.2954         2.2356        99.3900        90.1194       0.313939       0.308913         3.1585         9.9860         9.1196        72.6680
     657.91080         8.5000         8.2958         2.2416        99.3900        92.3751       0.311104       0.305931         3.1484        10.0627         9.2239        72.5906
     658.06320         8.5000         8.2964         2.2436        99.3900        94.0957       0.313301       0.308154         3.1349        10.0505         9.2489        72.4608
     658.21560         8.5000         8.2975         2.2400        99.3901        95.0611       0.322598       0.317721         3.1166         9.9128         9.1618        72.2569
     658.36800         8.5000         8.2986         2.2365        99.3901        96.0264       0.331896       0.327288         3.0984         9.7752         9.0748        72.0530
     658.52040         8.5000         8.2995         2.2338        99.3902        96.6177       0.340413       0.335988         3.0829         9.6539         9.0040        71.7761
     658.67280         8.5000         8.2999         2.2362        99.3902        94.7886       0.343878       0.339072         3.0854         9.6379         9.0384        71.0267
     658.82520         8.5000         8.3003         2.2387        99.3902        92.9595       0.347343       0.342157         3.0880         9.6219         9.0727        70.2773
     658.97760         8.5000         8.3006         2.2411        99.3903        91.1304       0.350808       0.345241         3.0905         9.6060         9.1071        69.5279
     659.13000         8.5000         8.3026         2.2392        99.3903        92.4909       0.338274       0.332800         3.0860         9.3717         8.9455        68.8700
     659.28240         8.5000         8.3049         2.2365        99.3903        94.4010       0.322983       0.317685         3.0802         9.0998         8.7502        68.2279
     659.43480         8.5000         8.3072         2.2339        99.3903        96.3111       0.307692       0.302569         3.0744         8.8279         8.5548        67.5858
     659.58720         8.5000         8.3087         2.2318        99.3904        97.2664       0.307013       0.302184         3.0922         8.6721         8.4565        67.3757
     659.73960         8.5000         8.3096         2.2303        99.3904        97.5078       0.317260       0.312814         3.1277         8.6031         8.4307        67.4885
     659.89200         8.5000         8.3105         2.2287        99.3904        97.7492       0.327506       0.323443         3.1631         8.5341         8.4049        67.6013
     660.04440         8.5000         8.3086         2.2295        99.3905        97.5922       0.334525       0.330777         3.1834         8.4501         8.3613        67.6505
     660.19680         8.5000         8.2997         2.2361        99.3905        96.4662       0.333692       0.330093         3.1670         8.3299         8.2743        67.5448
     660.34920         8.5000         8.2909         2.2427        99.3905        95.3402       0.332859       0.329408         3.1505         8.2096         8.1873        67.4392
     660.50160         8.5000         8.2822         2.2493        99.3906        94.2187       0.332007       0.328701         3.1342         8.0904         8.1016        67.3337
     660.65400         8.5000         8.2862         2.2534        99.3906        93.5183       0.329380       0.325753         3.1301         8.0666         8.1321        67.2477
     660.80640         8.5000         8.2902         2.2576        99.3906        92.8179       0.326753       0.322806         3.1260         8.0429         8.1626        67.1616
     660.95880         8.5000         8.2942         2.2617        99.3907        92.1175       0.324125       0.319859         3.1219         8.0192         8.1931        67.0755
     661.11120         8.5000         8.2898         2.2609        99.3907        92.0368       0.319143       0.314649         3.1046         7.8927         8.1159        67.0439
     661.26360         8.5000         8.2822         2.2584        99.3907        92.1857       0.313289       0.308601         3.0824         7.7282         7.9988        67.0324
     661.41600         8.5000         8.2746         2.2559        99.3908        92.3345       0.307435       0.302554         3.0602         7.5637         7.8817        67.0209
     661.56840         8.5000         8.2702         2.2550        99.3908        92.3275       0.304177       0.299156         3.0618         7.4965         7.8435        66.9236
     661.72080         8.5000         8.2696         2.2561        99.3908        92.1289       0.304108       0.299013         3.0926         7.5488         7.9023        66.7210
     661.87320         8.5000         8.2689         2.2571        99.3909        91.9304       0.304039       0.298870         3.1233         7.6012         7.9610        66.5184
     662.02560         8.5000         8.2657         2.2603        99.3909        91.9741       0.304914       0.299737         3.1520         7.6769         8.0402        66.2756
     662.17800         8.5000         8.2496         2.2735        99.3909        93.2177       0.310470       0.305612         3.1700         7.8682         8.2208        65.8337
     662.33040         8.5000         8.2335         2.2867        99.3910        94.4612       0.316025       0.311486         3.1880         8.0596         8.4014        65.3918
     662.48280         8.5000         8.2175         2.2999        99.3910        95.7048       0.321581       0.317361         3.2060         8.2510         8.5821        64.9499
     662.63520         8.5000         8.2231         2.2830        99.3910        95.6695       0.322909       0.318813         3.1813         7.9246         8.2918        64.8713
     662.78760         8.5000         8.2316         2.2623        99.3911        95.4716       0.323700       0.319702         3.1512         7.5323         7.9416        64.8388
     662.94000         8.5000         8.2400         2.2415        99.3911        95.2737       0.324490       0.320592         3.1211         7.1401         7.5914        64.8064
     663.09240         8.5000         8.2434         2.2345        99.3911        94.0325       0.326629       0.322806         3.1009         6.9598         7.4375        64.7357
     663.24480         8.5000         8.2435         2.2364        99.3912        92.1138       0.329644       0.325881         3.0872         6.9173         7.4109        64.6403
     663.39720         8.5000         8.2435         2.2382        99.3912        90.1951       0.332658       0.328956         3.0735         6.8747         7.3843        64.5448
     663.54960         8.5000         8.2463         2.2403        99.3912        89.2040       0.336487       0.332584         3.0659         6.8770         7.4023        64.5265
     663.70200         8.5000         8.2545         2.2426        99.3913        90.1352       0.342002       0.337359         3.0707         6.9724         7.5128        64.6680
     663.85440         8.5000         8.2627         2.2449        99.3913        91.0663       0.347517       0.342134         3.0756         7.0677         7.6233        64.8095
     664.00680         8.5000         8.2709         2.2469        99.3913        91.9344       0.352478       0.346423         3.0802         7.1682         7.7359        64.9494
     664.15920         8.5000         8.2780         2.2419        99.3914        91.4509       0.345569       0.340318         3.0801         7.3796         7.8949        65.0552
