~Version Information Block
VERS .                 2.00:  CWLS LOG ASCII STANDARD - VERSION 2.00
WRAP .                   NO:  One line per depth step
~Well Information Block
#MNEM.UNIT        Data Type   Information
#---------- ----------------  -----------
STRT .M           422.60520:  START DEPTH
STOP .M          2060.90520:  STOP DEPTH
STEP .M             0.15240:  STEP
NULL .              -999.25:  NULL VALUE
COMP .                     :  COMPANY
WELL .           Ngatoro-11:  WELL
FLD  .                     :  FIELD
LOC  .                     :  LOCATION
CTRY .                     :  COUNTRY
STAT .                     :  STATE
CNTY .                     :  COUNTY
SRVC .     New Zealand Petroleum Co Ltd:  SERVICE COMPANY
DATE .                     :  DATE
API  .                     :  API NUMBER
UWI  .         100000290650:  UNIQUE WELL ID
LATI .          -39.1949222:  LATITUDE
LONG .          174.1848583:  LONGITUDE
~Curve Information Block
#MNEM.UNIT         API CODE   Curve Description
#---------- ----------------  -----------------
DEPTH.M                    :  
BS   .IN                   :  Bit Size (Created in Geolog)
CALI .IN                   :  Caliper Log (CALI)
DENS .G/C3                 :  Compensated Formation Density Log (RHOB)
DRHO .G/C3                 :  Density Log Correction (DRHO)
DTC  .US/F                 :  8-10 Ft Compensated Sonic (BPB) (DTC3)
GR   .GAPI                 :  Gamma-Ray Log (GR)
GR_CORR.GAPI                 :  Gamma ray corrected
NEUT .V/V                  :  Neutron Log Porosity (NPHI)
NEUT_CORR.V/V                  :  Corrected NPHI (limestone units)
PEF  .B/E                  :  Photoelectric Factor (PEDF)
RESD .OHMM                 :  Laterolog Deep Resistivity (LLD)
RESD_CORR.OHMM                 :  Borehole corrected LLD
RESS .OHMM                 :  Shallow Laterolog (LLS)
RESS_CORR.OHMM                 :  Borehole corrected LLS
SP   .MV                   :  Spontaneous Potential Log (SP)
TENS .KGF                  :  Cable tension at surface (TENS)
~Parameter Information Block
#MNEM.UNIT            Value   Description
#---------- ----------------  -----------
CUR_INT_BOT.M                2063:  Current interpolated bottom
PROJECT.     New Zealand Log QC Project:  
SET  .     A0_FINAL_INTER_REF_D:  
ELEVATION_AMSL.M              291.65:  Elevation above mean sea level
ELEVATION_REF.                   KB:  Measurement reference
FORMATION_AT_TD.      Mount Messenger:  Formation at TD
GL_ELEVATION_AMSL.M            286.3000:  Ground level elevation above mean sea level
LICENCE_NUMBER.             PMP38148:  Licence number
ONSHORE_OR_OFFSHORE.              Onshore:  Onshore/offshore
PR_NUMBER.               PR2438:  Petroleum report number
SPUD_DATE.           28/06/1998:  Spud date
STATUS_AT_COMPLETION.     Cased and suspended as a future oil producer:  Status at completion
TD_DATE.           15/07/1998:  Total depth date
TOTAL_DEPTH_DRILLED.M                2063:  Total depth drilled
~Other Information Block
# 
~A       DEPTH             BS           CALI           DENS           DRHO            DTC             GR        GR_CORR           NEUT      NEUT_CORR            PEF           RESD      RESD_CORR           RESS      RESS_CORR             SP           TENS 
# ...
     846.88680         8.5000         8.7812         2.2632       0.027479       110.2159       103.0113       104.5181       0.339806       0.326103         2.7436         5.0177         5.0608         3.9955         4.0867       206.4852      1070.6018
     847.03920         8.5000         8.7829         2.2611       0.029688       110.3627       102.1519       103.6545       0.343851       0.329953         2.7430         5.0016         5.0446         3.9809         4.0721       206.3593      1070.3776
     847.19160         8.5000         8.7964         2.2567       0.026079       111.4223        99.9520       101.4899       0.337968       0.324009         2.7051         4.9236         4.9667         3.9106         4.0025       206.0778      1069.6635
     847.34400         8.5000         8.8100         2.2524       0.022469       112.4820        97.7520        99.3253       0.332085       0.318065         2.6673         4.8457         4.8887         3.8402         3.9330       205.7964      1068.9495
     847.49640         8.5000         8.8235         2.2480       0.018859       113.5416        95.5520        97.1607       0.326202       0.312121         2.6294         4.7677         4.8108         3.7699         3.8634       205.5149      1068.2355
     847.64880         8.5000         8.8427         2.2598       0.019860       112.4350        97.8219        99.5726       0.313637       0.299705         2.6752         4.9350         4.9818         3.8979         3.9952       205.3363      1070.1538
     847.80120         8.5000         8.8621         2.2720       0.020972       111.2760       100.1999       102.0952       0.300910       0.287133         2.7230         5.1081         5.1589         4.0308         4.1319       205.1601      1072.1359
     847.95360         8.5000         8.8815         2.2842       0.022085       110.1169       102.5779       104.6178       0.288183       0.274561         2.7709         5.2813         5.3359         4.1636         4.2685       204.9840      1074.1179
     848.10600         8.5000         8.8677         2.2961       0.026349       108.9972       104.0218       106.0100       0.281119       0.268051         2.7547         5.5085         5.5645         4.3295         4.4343       204.6230      1072.0061
     848.25840         8.5000         8.8393         2.3078       0.031994       107.8947       105.0569       106.9076       0.276536       0.264194         2.7105         5.7592         5.8155         4.5098         4.6127       204.1811      1068.1023
     848.41080         8.5000         8.8109         2.3196       0.037639       106.7921       106.0919       107.8051       0.271952       0.260337         2.6663         6.0100         6.0666         4.6902         4.7912       203.7392      1064.1986
     848.56320         8.5000         8.8063         2.3242       0.038447       106.3571       107.2599       108.9703       0.272036       0.260503         2.6406         6.1322         6.1898         4.7771         4.8784       203.3765      1060.8260
     848.71560         8.5000         8.8350         2.3187       0.032431       106.8642       108.6156       110.5135       0.278709       0.266349         2.6411         6.0729         6.1326         4.7320         4.8371       203.1258      1058.2031
     848.86800         8.5000         8.8638         2.3132       0.026414       107.3713       109.9713       112.0566       0.285381       0.272194         2.6416         6.0136         6.0754         4.6869         4.7957       202.8750      1055.5803
     849.02040         8.5000         8.8867         2.3090       0.022209       107.9234       111.0394       113.2737       0.291014       0.277154         2.6480         5.9522         6.0155         4.6428         4.7545       202.6945      1053.1447
     849.17280         8.5000         8.8719         2.3127       0.029722       108.7662       110.2466       112.3817       0.289916       0.276385         2.6918         5.8771         5.9382         4.6048         4.7139       202.9683      1051.9194
     849.32520         8.5000         8.8571         2.3165       0.037236       109.6091       109.4538       111.4896       0.288817       0.275617         2.7357         5.8020         5.8609         4.5668         4.6734       203.2421      1050.6943
     849.47760         8.5000         8.8423         2.3202       0.044750       110.4520       108.6610       110.5975       0.287719       0.274848         2.7796         5.7269         5.7836         4.5288         4.6328       203.5159      1049.4691
     849.63000         8.5000         8.8365         2.3181       0.041375       110.2373       108.6091       110.5137       0.290123       0.277252         2.7750         5.7432         5.7996         4.5574         4.6610       203.2443      1055.5251
     849.78240         8.5000         8.8323         2.3151       0.036124       109.8404       108.6850       110.5691       0.293130       0.280204         2.7621         5.7753         5.8317         4.5975         4.7009       202.8788      1062.8357
     849.93480         8.5000         8.8281         2.3120       0.030872       109.4435       108.7607       110.6245       0.296137       0.283155         2.7492         5.8075         5.8638         4.6376         4.7409       202.5133      1070.1462
     850.08720         8.5000         8.8560         2.3142       0.031144       108.8703       109.9925       112.0450       0.299233       0.285563         2.7307         5.8047         5.8635         4.6464         4.7537       202.4400      1070.2396
     850.23960         8.5000         8.9078         2.3203       0.035545       108.1654       112.0886       114.4862       0.302395       0.287565         2.7080         5.7758         5.8389         4.6316         4.7461       202.5854      1064.9365
     850.39200         8.5000         8.9597         2.3264       0.039945       107.4605       114.1847       116.9274       0.305556       0.289566         2.6853         5.7469         5.8143         4.6169         4.7386       202.7307      1059.6334
     850.54440         8.5000         8.9709         2.3262       0.043457       107.0305       115.1591       117.9865       0.304000       0.287841         2.6581         5.7170         5.7850         4.6011         4.7242       202.8292      1058.3746
     850.69680         8.5000         8.8831         2.3109       0.044804       107.2694       113.4053       115.6838       0.290967       0.277051         2.6200         5.6846         5.7444         4.5827         4.6933       202.8138      1066.9531
     850.84920         8.5000         8.7952         2.2955       0.046151       107.5082       111.6515       113.3811       0.277934       0.266261         2.5818         5.6522         5.7038         4.5642         4.6624       202.7983      1075.5316
     851.00160         8.5000         8.7094         2.2804       0.047403       107.7576       109.9028       111.0950       0.265056       0.255582         2.5441         5.6197         5.6634         4.5458         4.6317       202.7876      1083.9937
     851.15400         8.5000         8.8094         2.2852       0.039644       108.9949       108.6373       110.3660       0.266791       0.255433         2.5471         5.5842         5.6361         4.5297         4.6291       203.2175      1081.4810
     851.30640         8.5000         8.9093         2.2900       0.031886       110.2322       107.3718       109.6371       0.268526       0.255284         2.5501         5.5486         5.6087         4.5135         4.6265       203.6475      1078.9683
     851.45880         8.5000         9.0093         2.2948       0.024127       111.4696       106.1063       108.9081       0.270261       0.255134         2.5531         5.5131         5.5814         4.4974         4.6239       204.0775      1076.4556
     851.61120         8.5000         8.9612         2.2988       0.025282       111.6849       105.3953       107.9247       0.275197       0.260784         2.5465         5.5329         5.5973         4.5152         4.6352       203.9281      1074.2899
