~Version Information Block
VERS .                 2.00:  CWLS LOG ASCII STANDARD - VERSION 2.00
WRAP .                   NO:  One line per depth step
~Well Information Block
#MNEM.UNIT        Data Type   Information
#---------- ----------------  -----------
STRT .M           387.55320:  START DEPTH
STOP .M          1999.48800:  STOP DEPTH
STEP .M             0.15240:  STEP
NULL .              -999.25:  NULL VALUE
COMP .                     :  COMPANY
WELL .           Ngatoro-13:  WELL
FLD  .                     :  FIELD
LOC  .                     :  LOCATION
CTRY .                     :  COUNTRY
STAT .                     :  STATE
CNTY .                     :  COUNTY
SRVC .     Greymouth Petroleum Ltd:  SERVICE COMPANY
DATE .                     :  DATE
API  .                     :  API NUMBER
UWI  .         100000787699:  UNIQUE WELL ID
LATI .            -39.21139:  LATITUDE
LONG .            174.18349:  LONGITUDE
~Curve Information Block
#MNEM.UNIT         API CODE   Curve Description
#---------- ----------------  -----------------
DEPTH.M                    :  
BS   .IN                   :  Bit Size (Created in Geolog)
CALI .IN                   :  HRCC Cal. Caliper (HCAL)
DENS .G/C3                 :  HRDD Standard Resolution Formation Density (RHOZ) and (RHO8)
DRHO .G/C3                 :  HRDD Density Correction (HDRA)
DTC  .US/F                 :  Delta-T Compressional (DTCO)
DTS  .US/F                 :  Delta-T Shear (DTSM)
GR   .GAPI                 :  Gamma-Ray (GR) and HiRes Gamma-Ray (EHGR)
NEUT .V/V                  :  Enhanced Thermal Neutron Porosity(NPOR) and (HNPO)
PEF  .B/E                  :  HRDD Std Resolution Formation Photoelectric Factor (PEFZ) and (PEF8)
RESD .OHMM                 :  HALS Laterolog Deep R (HLLD) and HALS HiRes Deep Res (HRLD)
RESS .OHMM                 :  HALS Shallow Res. (HLLS) and HR HALS Shallow Res. (HRLS)
SP   .MV                   :  SP Shifted (SP)
TENS .KGF                  :  Cable Tension (TENS)
~Parameter Information Block
#MNEM.UNIT            Value   Description
#---------- ----------------  -----------
CUR_INT_BOT.M                2032:  Current interpolated bottom
PROJECT.     New Zealand Log QC Project:  
SET  .     A0_FINAL_INTER_REF_D:  
ELEVATION_AMSL.M              323.75:  Elevation above mean sea level
ELEVATION_REF.                   DF:  Measurement reference
FORMATION_AT_TD.                 Moki:  Formation at TD
GL_ELEVATION_AMSL.M            323.3000:  Ground level elevation above mean sea level
LICENCE_NUMBER.             PMP38148:  Licence number
ONSHORE_OR_OFFSHORE.              Onshore:  Onshore/offshore
PR_NUMBER.               PR3545:  Petroleum report number
SPUD_DATE.           28/10/2006:  Spud date
STATUS_AT_COMPLETION.     Completed ready for perforating:  Status at completion
TD_DATE.           10/11/2006:  Total depth date
TOTAL_DEPTH_DRILLED.M                2032:  Total depth drilled
~Other Information Block
# 
~A       DEPTH             BS           CALI           DENS           DRHO            DTC            DTS             GR           NEUT            PEF           RESD           RESS             SP           TENS 
# ...
    1047.29280         8.5000         9.0315         2.3460        -0.0005       110.9909       218.5001       103.9244       0.318015         3.0396         2.7864         2.8537       201.8362      1103.7600
    1047.44520         8.5000         9.0340         2.3414        -0.0019       111.0678       218.2640       105.4228       0.311506         3.0456         2.7991         2.8606       202.3118      1105.9332
    1047.59760         8.5000         9.0002         2.3411        -0.0019       110.9797       218.4090       105.8171       0.313179         3.0446         2.7885         2.8489       202.5541      1108.4240
    1047.75000         8.5000         8.9461         2.3432        -0.0012       110.7988       218.7680       105.5915       0.319445         3.0397         2.7649         2.8266       202.6655      1111.0930
    1047.90240         8.5000         8.8919         2.3453        -0.0004       110.6179       219.1270       105.3659       0.325711         3.0349         2.7413         2.8044       202.7768      1113.7622
    1048.05480         8.5000         8.8632         2.3457        -0.0002       110.5335       219.4834       105.1530       0.330008         3.0370         2.7222         2.7857       202.8293      1111.9608
    1048.20720         8.5000         8.8801         2.3430        -0.0008       110.6207       219.8348       104.9626       0.330797         3.0514         2.7112         2.7733       202.7769      1102.1974
    1048.35960         8.5000         8.8969         2.3402        -0.0015       110.7079       220.1863       104.7723       0.331586         3.0659         2.7002         2.7608       202.7245      1092.4338
    1048.51200         8.5000         8.9127         2.3377        -0.0021       110.8026       220.5099       104.4396       0.332397         3.0800         2.6890         2.7486       202.6595      1083.4026
    1048.66440         8.5000         8.9169         2.3369        -0.0028       110.9855       220.5069       102.4410       0.333459         3.0898         2.6759         2.7394       202.4459      1082.9368
    1048.81680         8.5000         8.9210         2.3362        -0.0035       111.1684       220.5039       100.4424       0.334521         3.0996         2.6628         2.7302       202.2323      1082.4709
    1048.96920         8.5000         8.9251         2.3354        -0.0043       111.3513       220.5010        98.4438       0.335583         3.1094         2.6497         2.7210       202.0187      1082.0051
    1049.12160         8.5000         8.9485         2.3365        -0.0039       111.2015       220.6618        99.2029       0.334453         3.0983         2.6416         2.7137       202.0163      1081.8569
    1049.27400         8.5000         8.9768         2.3381        -0.0032       110.9674       220.8642       100.6605       0.332768         3.0819         2.6349         2.7069       202.0675      1081.7891
    1049.42640         8.5000         9.0050         2.3397        -0.0025       110.7333       221.0665       102.1182       0.331084         3.0655         2.6281         2.7001       202.1186      1081.7212
    1049.57880         8.5000         9.0273         2.3405        -0.0023       110.8249       221.2040       103.5018       0.328993         3.0620         2.6235         2.6943       202.2485      1081.4897
    1049.73120         8.5000         9.0441         2.3404        -0.0025       111.2208       221.2811       104.8164       0.326523         3.0706         2.6209         2.6896       202.4520      1081.1055
    1049.88360         8.5000         9.0609         2.3403        -0.0027       111.6167       221.3581       106.1309       0.324053         3.0792         2.6183         2.6848       202.6555      1080.7212
    1050.03600         8.5000         9.0746         2.3410        -0.0027       111.9712       221.4106       106.9454       0.322528         3.0858         2.6196         2.6844       202.7885      1082.9648
    1050.18840         8.5000         9.0782         2.3442        -0.0020       112.1916       221.3839       106.1428       0.324058         3.0857         2.6335         2.6979       202.6932      1093.7056
    1050.34080         8.5000         9.0819         2.3475        -0.0013       112.4120       221.3571       105.3402       0.325587         3.0857         2.6474         2.7114       202.5978      1104.4462
    1050.49320         8.5000         9.0856         2.3507        -0.0006       112.6324       221.3304       104.5377       0.327117         3.0857         2.6613         2.7249       202.5025      1115.1868
    1050.64560         8.5000         9.0888         2.3477        -0.0008       112.4885       221.0207       104.5465       0.323220         3.0909         2.6666         2.7356       202.2287      1112.7197
    1050.79800         8.5000         9.0920         2.3443        -0.0011       112.3275       220.6977       104.5932       0.319070         3.0963         2.6715         2.7463       201.9465      1109.6359
    1050.95040         8.5000         9.0952         2.3410        -0.0014       112.1665       220.3748       104.6400       0.314919         3.1017         2.6765         2.7569       201.6644      1106.5520
    1051.10280         8.5000         9.0788         2.3378        -0.0018       111.9786       220.2672       103.6508       0.315783         3.0943         2.6703         2.7570       201.7914      1102.7485
    1051.25520         8.5000         9.0529         2.3348        -0.0022       111.7777       220.2635       102.1619       0.319065         3.0806         2.6588         2.7520       202.1159      1098.5980
    1051.40760         8.5000         9.0271         2.3317        -0.0026       111.5768       220.2598       100.6731       0.322348         3.0670         2.6473         2.7470       202.4404      1094.4474
    1051.56000         8.5000         8.9984         2.3328        -0.0023       111.6127       220.0437       100.7500       0.322894         3.0594         2.6363         2.7446       202.6618      1089.0331
    1051.71240         8.5000         8.9654         2.3401        -0.0007       112.0133       219.5003       103.2383       0.319225         3.0613         2.6261         2.7461       202.7245      1081.6724
    1051.86480         8.5000         8.9324         2.3474         0.0010       112.4140       218.9569       105.7266       0.315556         3.0632         2.6158         2.7476       202.7872      1074.3118
    1052.01720         8.5000         8.9030         2.3533         0.0023       112.6869       218.2310       107.7318       0.312666         3.0647         2.6059         2.7484       202.8524      1068.8368
    1052.16960         8.5000         8.9012         2.3479         0.0009       111.9564       216.0701       105.9397       0.315906         3.0635         2.5991         2.7431       202.9372      1078.1844
    1052.32200         8.5000         8.8994         2.3425        -0.0004       111.2259       213.9093       104.1476       0.319146         3.0622         2.5922         2.7378       203.0220      1087.5321
    1052.47440         8.5000         8.8976         2.3370        -0.0017       110.4953       211.7484       102.3555       0.322385         3.0609         2.5853         2.7326       203.1067      1096.8798
    1052.62680         8.5000         8.8671         2.3605        -0.0002       108.3872       209.2815       101.0835       0.313176         3.0929         2.6373         2.7855       202.8688      1095.4874
    1052.77920         8.5000         8.8308         2.3898         0.0019       106.0010       206.7529        99.9164       0.301453         3.1316         2.7011         2.8503       202.5657      1091.9268
    1052.93160         8.5000         8.7946         2.4191         0.0039       103.6147       204.2242        98.7494       0.289730         3.1703         2.7650         2.9150       202.2626      1088.3661
    1053.08400         8.5000         8.7822         2.4264         0.0049       103.6487       204.7945        99.0965       0.288801         3.1784         2.9457         3.1002       202.0073      1086.7159
