~Version Information Block
VERS .                 2.00:  CWLS LOG ASCII STANDARD - VERSION 2.00
WRAP .                   NO:  One line per depth step
~Well Information Block
#MNEM.UNIT        Data Type   Information
#---------- ----------------  -----------
STRT .M           535.07640:  START DEPTH
STOP .M          2419.95960:  STOP DEPTH
STEP .M             0.15240:  STEP
NULL .              -999.25:  NULL VALUE
COMP .                     :  COMPANY
WELL .            Ngatoro-3:  WELL
FLD  .                     :  FIELD
LOC  .                     :  LOCATION
CTRY .                     :  COUNTRY
STAT .                     :  STATE
CNTY .                     :  COUNTY
SRVC .     New Zealand Petroleum Co Ltd:  SERVICE COMPANY
DATE .                     :  DATE
API  .                     :  API NUMBER
UWI  .         100000158215:  UNIQUE WELL ID
LATI .          -39.1846093:  LATITUDE
LONG .          174.1883769:  LONGITUDE
~Curve Information Block
#MNEM.UNIT         API CODE   Curve Description
#---------- ----------------  -----------------
DEPTH.M                    :  
BS   .IN                   :  Bit Size (Created in Geolog)
CALI .IN                   :  Caliper Log (CALI)
DENS .G/C3                 :  Compensated Formation Density Log (RHOB)
DRHO .G/C3                 :  Density Log Correction (DRHO)
DTC  .US/F                 :  Delta T (DT)
GR   .GAPI                 :  Gamma-Ray Log (GR)
GR_CORR.GAPI                 :  Gamma ray corrected
NEUT .V/V                  :  Neutron Log Porosity (NPHI)
NEUT_CORR.V/V                  :  Corrected NPHI (limestone units)
PEF  .B/E                  :  Photoelectric Factor (PEDF)
RESD .OHMM                 :  Laterolog Deep Resistivity (LLD)
RESD_CORR.OHMM                 :  Borehole corrected LLD
RESS .OHMM                 :  Shallow Laterolog (LLS)
RESS_CORR.OHMM                 :  Borehole corrected LLS
SP   .MV                   :  Spontaneous Potential Log (SP)
TEMP .DEGC                 :  Temperature (TEMP)
TENS .KGF                  :  Cable tension at surface (TENS)
~Parameter Information Block
#MNEM.UNIT            Value   Description
#---------- ----------------  -----------
CUR_INT_BOT.M                2420:  Current interpolated bottom
PROJECT.     New Zealand Log QC Project:  
SET  .     A0_FINAL_INTER_REF_D:  
ELEVATION_AMSL.M              267.94:  Elevation above mean sea level
ELEVATION_REF.                   KB:  Measurement reference
FORMATION_AT_TD.             Manganui:  Formation at TD
GL_ELEVATION_AMSL.M            263.2000:  Ground level elevation above mean sea level
LICENCE_NUMBER.             PPL38706:  Licence number
ONSHORE_OR_OFFSHORE.              Onshore:  Onshore/offshore
PR_NUMBER.               PR1863:  Petroleum report number
SPUD_DATE.           14/01/1993:  Spud date
STATUS_AT_COMPLETION.     Suspended as a potential oil producer:  Status at completion
TD_DATE.           08/02/1993:  Total depth date
TOTAL_DEPTH_DRILLED.M                2420:  Total depth drilled
~Other Information Block
# 
~A       DEPTH             BS           CALI           DENS           DRHO            DTC             GR        GR_CORR           NEUT      NEUT_CORR            PEF           RESD      RESD_CORR           RESS      RESS_CORR             SP           TEMP           TENS 
# ...
    1783.23240         8.5000         8.7250         2.4777      0.0214956        80.5863       107.0697       107.9517       0.252749       0.246209         2.9343         4.0346         4.0672         4.5327         4.5989        71.8801        62.0461      1286.5013
    1783.38480         8.5000         8.7273         2.4906      0.0201775        80.3467       105.4394       106.3205       0.243823       0.237520         2.9844         4.2044         4.2386         4.7152         4.7825        72.1521        62.0440      1285.1367
    1783.53720         8.5000         8.7290         2.4999      0.0188743        80.2866       105.1488       106.0374       0.239012       0.232826         3.0327         4.3146         4.3499         4.8327         4.9008        72.2815        62.0437      1284.2588
    1783.68960         8.5000         8.7292         2.4983      0.0176174        80.7818       109.0068       109.9290       0.246941       0.240506         3.0756         4.2403         4.2751         4.7492         4.8170        71.9692        62.0493      1284.8879
    1783.84200         8.5000         8.7294         2.4967      0.0163606        81.2771       112.8647       113.8206       0.254871       0.248186         3.1186         4.1660         4.2002         4.6657         4.7331        71.6570        62.0548      1285.5171
    1783.99440         8.5000         8.7295         2.4951      0.0151037        81.7724       116.7227       117.7122       0.262800       0.255866         3.1615         4.0918         4.1253         4.5821         4.6493        71.3447        62.0603      1286.1464
    1784.14680         8.5000         8.7222         2.4890      0.0148955        82.0701       112.1352       113.0476       0.256564       0.249948         3.1939         4.0247         4.0572         4.5257         4.5915        71.0819        62.0606      1288.4784
    1784.29920         8.5000         8.7146         2.4827      0.0147274        82.3604       107.2256       108.0566       0.249787       0.243511         3.2260         3.9580         3.9894         4.4703         4.5348        70.8209        62.0606      1290.8756
    1784.45160         8.5000         8.7070         2.4764      0.0145592        82.6506       102.3160       103.0656       0.243010       0.237074         3.2580         3.8912         3.9215         4.4149         4.4780        70.5600        62.0606      1293.2727
    1784.60400         8.5000         8.6930         2.4701      0.0165746        82.5956       102.8581       103.5307       0.237489       0.231954         3.2477         3.8158         3.8446         4.3364         4.3972        70.5186        62.0606      1293.7184
    1784.75640         8.5000         8.6761         2.4636      0.0196062        82.3799       105.9372       106.5349       0.232553       0.227446         3.2176         3.7364         3.7634         4.2471         4.3052        70.5794        62.0606      1293.2560
    1784.90880         8.5000         8.6591         2.4572      0.0226378        82.1641       109.0164       109.5392       0.227617       0.222938         3.1876         3.6570         3.6822         4.1578         4.2132        70.6401        62.0606      1292.7936
    1785.06120         8.5000         8.6533         2.4577      0.0240328        81.7792       111.3335       111.8393       0.224718       0.220221         3.1891         3.6937         3.7189         4.1923         4.2469        70.6748        62.0606      1292.8226
    1785.21360         8.5000         8.6642         2.4688      0.0229892        81.1421       112.5150       113.0898       0.224852       0.220174         3.2375         3.9036         3.9313         4.4110         4.4676        70.6705        62.0606      1293.5839
    1785.36600         8.5000         8.6751         2.4799      0.0219456        80.5050       113.6965       114.3404       0.224987       0.220126         3.2860         4.1135         4.1436         4.6298         4.6884        70.6662        62.0606      1294.3452
    1785.51840         8.5000         8.6851         2.4902      0.0210761        80.0440       114.6984       115.4058       0.226165       0.221104         3.3276         4.2931         4.3253         4.8171         4.8774        70.7132        62.0609      1294.9670
    1785.67080         8.5000         8.6893         2.4950      0.0214751        80.8660       114.3926       115.1228       0.234938       0.229549         3.3197         4.2518         4.2840         4.7745         4.8355        71.1339        62.0636      1294.5723
    1785.82320         8.5000         8.6935         2.4998      0.0218741        81.6879       114.0869       114.8398       0.243710       0.237995         3.3118         4.2106         4.2427         4.7320         4.7935        71.5545        62.0663      1294.1775
    1785.97560         8.5000         8.6976         2.5047      0.0222731        82.5098       113.7812       114.5568       0.252483       0.246441         3.3039         4.1693         4.2014         4.6894         4.7516        71.9752        62.0689      1293.7827
    1786.12800         8.5000         8.6984         2.4996      0.0203447        82.9698       114.5505       115.3359       0.252723       0.246663         3.2650         4.1001         4.1317         4.6224         4.6845        72.1372        62.0671      1293.7496
    1786.28040         8.5000         8.6985         2.4926      0.0179725        83.3607       115.5248       116.3175       0.251337       0.245316         3.2202         4.0256         4.0565         4.5506         4.6126        72.2499        62.0644      1293.7856
    1786.43280         8.5000         8.6986         2.4856      0.0156004        83.7517       116.4991       117.2990       0.249951       0.243970         3.1754         3.9511         3.9814         4.4789         4.5407        72.3626        62.0617      1293.8215
    1786.58520         8.5000         8.6986         2.4844      0.0149055        83.9544       118.1031       118.9141       0.252856       0.246790         3.1700         3.9098         3.9398         4.4406         4.5023        72.2083        62.0633      1295.0582
    1786.73760         8.5000         8.6985         2.4876      0.0155336        84.0086       120.2038       121.0289       0.259146       0.252897         3.1957         3.8947         3.9246         4.4288         4.4904        71.8434        62.0681      1297.2421
    1786.89000         8.5000         8.6985         2.4908      0.0161616        84.0629       122.3045       123.1438       0.265436       0.259004         3.2214         3.8796         3.9093         4.4169         4.4785        71.4784        62.0730      1299.4259
    1787.04240         8.5000         8.6973         2.4904      0.0165528        84.0735       122.7966       123.6322       0.267236       0.260774         3.2299         3.8616         3.8910         4.3990         4.4603        71.1759        62.0752      1299.2540
    1787.19480         8.5000         8.6931         2.4807      0.0163296        83.9710       119.1155       119.9015       0.257392       0.251289         3.1943         3.8357         3.8647         4.3651         4.4258        71.0350        62.0703      1292.9708
    1787.34720         8.5000         8.6889         2.4709      0.0161063        83.8685       115.4344       116.1707       0.247547       0.241804         3.1586         3.8099         3.8384         4.3313         4.3912        70.8942        62.0654      1286.6875
    1787.49960         8.5000         8.6848         2.4611      0.0158830        83.7659       111.7532       112.4399       0.237702       0.232320         3.1229         3.7841         3.8120         4.2975         4.3567        70.7534        62.0606      1280.4042
    1787.65200         8.5000         8.6969         2.4662      0.0188274        83.8119       113.1228       113.8916       0.244276       0.238487         3.1311         3.7874         3.8162         4.3031         4.3641        71.2815        62.0646      1289.8087
