~Version Information Block
VERS .                 2.00:  CWLS LOG ASCII STANDARD - VERSION 2.00
WRAP .                   NO:  One line per depth step
~Well Information Block
#MNEM.UNIT        Data Type   Information
#---------- ----------------  -----------
STRT .M            16.61160:  START DEPTH
STOP .M          1898.90400:  STOP DEPTH
STEP .M             0.15240:  STEP
NULL .              -999.25:  NULL VALUE
COMP .                     :  COMPANY
WELL .         Ngatoro-3ST1:  WELL
FLD  .                     :  FIELD
LOC  .                     :  LOCATION
CTRY .                     :  COUNTRY
STAT .                     :  STATE
CNTY .                     :  COUNTY
SRVC .     Greymouth Petroleum Ltd:  SERVICE COMPANY
DATE .                     :  DATE
API  .                     :  API NUMBER
UWI  .         100000787700:  UNIQUE WELL ID
LATI .          -39.1846084:  LATITUDE
LONG .          174.1883756:  LONGITUDE
~Curve Information Block
#MNEM.UNIT         API CODE   Curve Description
#---------- ----------------  -----------------
DEPTH.M                    :  
BS   .IN                   :  Bit Size (Created in Geolog)
CALI .IN                   :  HRCC Cal. Caliper (HCAL)
DENS .G/C3                 :  HRDD High Resolution Formation Density (RHO8)
DRHO .G/C3                 :  HRDD Density Correction (HDRA)
GR   .GAPI                 :  HiRes Gamma-Ray (EHGR)
NEUT .V/V                  :  HiRes Thermal Neutron Porosity (HTNP)
PEF  .B/E                  :  HRDD High Resolution Formation Photoelectric Factor (PEF8)
RESD .OHMM                 :  Array Induction Two Foot Resistivity A90 (AHT90)
RESM .OHMM                 :  Array Induction Two Foot Resistivity A30 (AHT30)
RESS .OHMM                 :  Array Induction Two Foot Resistivity A10 (AHT10)
SP   .MV                   :  SP Shifted (SP)
TEMP .DEGC                 :  HTC Temperature (HTEM)
TENS .KGF                  :  Cable Tension (TENS)
~Parameter Information Block
#MNEM.UNIT            Value   Description
#---------- ----------------  -----------
CUR_INT_BOT.M                1899:  Current interpolated bottom
PROJECT.     New Zealand Log QC Project:  
SET  .     A0_FINAL_INTER_REF_D:  
ELEVATION_AMSL.M              262.91:  Elevation above mean sea level
ELEVATION_REF.                   DF:  Measurement reference
FORMATION_AT_TD.             Manganui:  Formation at TD
GL_ELEVATION_AMSL.M            259.3000:  Ground level elevation above mean sea level
KICK_OFF_DATE.           26/09/2005:  Kick off date
KICK_OFF_DEPTH.M                 645:  Kick off depth
LICENCE_NUMBER.             PMP38148:  Licence number
ONSHORE_OR_OFFSHORE.              Onshore:  Onshore/offshore
PARENT_WELL.            Ngatoro-3:  Parent well
PR_NUMBER.               PR3237:  Petroleum report number
STATUS_AT_COMPLETION.     Completed ready for perforating:  Status at completion
TD_DATE.           05/10/2005:  Total depth date
TOTAL_DEPTH_DRILLED.M             1898.82:  Total depth drilled
~Other Information Block
# 
~A       DEPTH             BS           CALI           DENS           DRHO             GR           NEUT            PEF           RESD           RESM           RESS             SP           TEMP           TENS 
# ...
    1062.68520         6.0000         6.0702         2.2565     -0.0011195        90.0822       0.336177         2.7158         2.8423         2.7489         2.8846       399.1936        48.2138       960.6014
    1062.83760         6.0000         6.0582         2.2740     -0.0017429        91.0406       0.332672         2.7925         2.8514         2.7527         2.9030       404.3332        48.2138       952.3248
    1062.99000         6.0000         6.0462         2.2916     -0.0023664        91.9991       0.329167         2.8692         2.8606         2.7565         2.9214       409.4727        48.2138       944.0482
    1063.14240         6.0000         6.0078         2.2891     -0.0008480        92.3711       0.338016         2.8959         2.9144         2.8144         2.9779       410.8511        48.2138       946.8157
    1063.29480         6.0000         5.9675         2.2851      0.0008207        92.7020       0.347733         2.9191         2.9714         2.8760         3.0372       411.9654        48.2138       950.3588
    1063.44720         6.0000         5.9272         2.2812      0.0024895        93.0328       0.357449         2.9424         3.0284         2.9376         3.0964       413.0796        48.2138       953.9019
    1063.59960         6.0000         5.9460         2.2792      0.0034408        92.6592       0.353383         2.9600         3.0395         2.9552         3.1173       413.0143        48.2138       956.6973
    1063.75200         6.0000         5.9963         2.2782      0.0040119        91.9122       0.342011         2.9746         3.0263         2.9495         3.1178       412.3236        48.2138       959.0962
    1063.90440         6.0000         6.0466         2.2773      0.0045829        91.1652       0.330638         2.9891         3.0131         2.9438         3.1183       411.6329        48.2138       961.4952
    1064.05680         6.0000         6.0571         2.2772      0.0052114        90.7561       0.324613         2.9932         3.0041         2.9400         3.1213       410.6264        48.2138       959.7645
    1064.20920         6.0000         6.0007         2.2786      0.0059367        90.9157       0.327586         2.9794         3.0022         2.9394         3.1284       409.0885        48.2138       951.0831
    1064.36160         6.0000         5.9443         2.2800      0.0066619        91.0753       0.330559         2.9656         3.0003         2.9388         3.1356       407.5506        48.2138       942.4018
    1064.51400         6.0000         5.8926         2.2819      0.0072140        91.1774       0.332873         2.9537         2.9986         2.9384         3.1423       406.1966        48.2138       936.2908
    1064.66640         6.0000         5.8880         2.2883      0.0060542        90.7104       0.328669         2.9602         2.9986         2.9390         3.1445       406.6597        48.2138       955.5898
    1064.81880         6.0000         5.8834         2.2947      0.0048944        90.2435       0.324465         2.9667         2.9986         2.9397         3.1468       407.1229        48.2138       974.8889
    1064.97120         6.0000         5.8788         2.3012      0.0037346        89.7765       0.320261         2.9732         2.9986         2.9404         3.1490       407.5861        48.2138       994.1880
    1065.12360         6.0000         5.8770         2.2996      0.0030990        92.3208       0.322584         2.9900         2.9833         2.9338         3.1458       406.2273        48.2138       988.8970
    1065.27600         6.0000         5.8759         2.2962      0.0025855        95.5668       0.326428         3.0093         2.9645         2.9256         3.1413       404.4440        48.2138       977.8763
    1065.42840         6.0000         5.8748         2.2928      0.0020721        98.8128       0.330271         3.0285         2.9456         2.9174         3.1368       402.6607        48.2138       966.8557
    1065.58080         6.0000         5.8759         2.2914      0.0008775        97.9570       0.332552         3.0217         2.9320         2.9131         3.1356       402.2840        48.2138       964.8168
    1065.73320         6.0000         5.8788         2.2918     -0.0009205        93.4666       0.333447         2.9917         2.9230         2.9121         3.1374       403.1536        48.2138       970.7372
    1065.88560         6.0000         5.8818         2.2922     -0.0027186        88.9761       0.334342         2.9617         2.9141         2.9111         3.1393       404.0232        48.2138       976.6575
    1066.03800         6.0000         5.8905         2.2928     -0.0039854        86.3924       0.335009         2.9359         2.9076         2.9115         3.1421       404.9377        48.2138       978.8522
    1066.19040         6.0000         5.9167         2.2940     -0.0036530        89.5494       0.334990         2.9227         2.9087         2.9157         3.1480       405.9869        48.2138       969.8306
    1066.34280         6.0000         5.9428         2.2952     -0.0033205        92.7064       0.334970         2.9094         2.9097         2.9199         3.1539       407.0361        48.2138       960.8090
    1066.49520         6.0000         5.9690         2.2965     -0.0029880        95.8634       0.334951         2.8961         2.9108         2.9241         3.1598       408.0854        48.2138       951.7874
    1066.64760         6.0000         6.0023         2.2898     -0.0014330        93.4750       0.331885         2.9242         2.8842         2.8860         3.1074       407.6923        48.2138       946.6466
    1066.80000         6.0000         6.0358         2.2829      0.0001617        90.9063       0.328721         2.9536         2.8567         2.8467         3.0532       407.2523        48.2138       941.6321
    1066.95240         6.0000         6.0693         2.2760      0.0017564        88.3376       0.325556         2.9831         2.8293         2.8073         2.9990       406.8123        48.2138       936.6176
    1067.10480         6.0000         6.1115         2.2755      0.0037520        89.5997       0.332706         2.9930         2.8393         2.8120         2.9994       406.7495        48.2138       932.3188
    1067.25720         6.0000         6.1577         2.2780      0.0059295        92.6017       0.344542         2.9942         2.8664         2.8367         3.0247       406.8580        48.2138       928.3452
    1067.40960         6.0000         6.2039         2.2805      0.0081071        95.6038       0.356377         2.9954         2.8936         2.8614         3.0500       406.9666        48.2138       924.3716
    1067.56200         6.0000         6.2464         2.2827      0.0099464        97.7172       0.360045         2.9946         2.9045         2.8760         3.0690       406.6613        48.2138       921.4238
    1067.71440         6.0000         6.2837         2.2848      0.0112924        98.5350       0.351802         2.9911         2.8918         2.8757         3.0787       405.7527        48.2138       919.9716
    1067.86680         6.0000         6.3209         2.2868      0.0126383        99.3528       0.343560         2.9875         2.8792         2.8755         3.0884       404.8440        48.2138       918.5195
    1068.01920         6.0000         6.3548         2.2880      0.0134163       100.0221       0.335967         2.9874         2.8676         2.8779         3.0998       403.7684        48.2138       917.0925
    1068.17160         6.0000         6.3658         2.2838      0.0102538        99.6605       0.332880         3.0107         2.8635         2.8986         3.1224       401.5339        48.2138       915.8405
    1068.32400         6.0000         6.3768         2.2795      0.0070913        99.2990       0.329792         3.0339         2.8593         2.9193         3.1451       399.2994        48.2138       914.5884
    1068.47640         6.0000         6.3878         2.2752      0.0039287        98.9375       0.326705         3.0572         2.8552         2.9399         3.1677       397.0649        48.2138       913.3364
