~Version Information Block
VERS .                 2.00:  CWLS LOG ASCII STANDARD - VERSION 2.00
WRAP .                   NO:  One line per depth step
~Well Information Block
#MNEM.UNIT        Data Type   Information
#---------- ----------------  -----------
STRT .M           514.50240:  START DEPTH
STOP .M          1925.26920:  STOP DEPTH
STEP .M             0.15240:  STEP
NULL .              -999.25:  NULL VALUE
COMP .                     :  COMPANY
WELL .            Ngatoro-6:  WELL
FLD  .                     :  FIELD
LOC  .                     :  LOCATION
CTRY .                     :  COUNTRY
STAT .                     :  STATE
CNTY .                     :  COUNTY
SRVC .     New Zealand Petroleum Co Ltd:  SERVICE COMPANY
DATE .                     :  DATE
API  .                     :  API NUMBER
UWI  .         100000210185:  UNIQUE WELL ID
LATI .          -39.2039386:  LATITUDE
LONG .          174.1707675:  LONGITUDE
~Curve Information Block
#MNEM.UNIT         API CODE   Curve Description
#---------- ----------------  -----------------
DEPTH.M                    :  
BS   .IN                   :  Bit Size (Created in Geolog)
CALI .IN                   :  CALIPER (HCAL)
DENS .G/C3                 :  Bulk Density (RHOZ) and HR Bulk Density (RHO8)
DTC  .US/F                 :  Delta Time Compressional (DTCO)
DTS  .US/F                 :  Delta-T Shear (DTSM)
GR   .GAPI                 :  Gamma Ray (GR) and HR Gamma Ray (HGR)
NEUT .V/V                  :  Neutron Porosity (NPHI) and HR Neutron Porosity (HTNP)
NEUT_CORR.V/V                  :  Corrected NPHI (limestone units)
PEF  .B/E                  :  HRDD Std Resolution Formation Photoelectric Factor (PEFZ) and (PEF8)
RESD .OHMM                 :  HALS Deep Res. (HLLD) and HR HALS Deep Res. (HRLD)
RESS .OHMM                 :  HALS Shallow Res. (HLLS) and HR HALS Shallow Res. (HRLS)
SP   .MV                   :  Spontaneous Potential (SP)
~Parameter Information Block
#MNEM.UNIT            Value   Description
#---------- ----------------  -----------
CUR_INT_BOT.M                1930:  Current interpolated bottom
PROJECT.     New Zealand Log QC Project:  
SET  .     A0_FINAL_INTER_REF_D:  
ELEVATION_AMSL.M                 328:  Elevation above mean sea level
ELEVATION_REF.                   KB:  Measurement reference
FORMATION_AT_TD.      Mount Messenger:  Formation at TD
GL_ELEVATION_AMSL.M            322.5000:  Ground level elevation above mean sea level
LICENCE_NUMBER.             PPL38706:  Licence number
ONSHORE_OR_OFFSHORE.              Onshore:  Onshore/offshore
PR_NUMBER.               PR2214:  Petroleum report number
SPUD_DATE.           27/03/1996:  Spud date
STATUS_AT_COMPLETION.     Suspended with 7" casing cemented in place:  Status at completion
TD_DATE.           04/04/1996:  Total depth date
TOTAL_DEPTH_DRILLED.M                1930:  Total depth drilled
~Other Information Block
# 
~A       DEPTH             BS           CALI           DENS            DTC            DTS             GR           NEUT      NEUT_CORR            PEF           RESD           RESS             SP 
# ...
    1276.19760         8.5000         8.4979         2.3457      -999.2500      -999.2500       110.1769       0.309621       0.308518         3.2365         2.1876         2.2659       227.8293
    1276.35000         8.5000         8.5022         2.3400      -999.2500      -999.2500       112.9895       0.308349       0.307369         3.2676         2.2065         2.2928       227.3555
    1276.50240         8.5000         8.5066         2.3344      -999.2500      -999.2500       115.7301       0.307090       0.306232         3.2978         2.2255         2.3197       226.8904
    1276.65480         8.5000         8.5253         2.3381      -999.2500      -999.2500       113.9720       0.306626       0.305817         3.2789         2.2455         2.3499       226.9588
    1276.80720         8.5000         8.5440         2.3418      -999.2500      -999.2500       112.2140       0.306163       0.305403         3.2600         2.2655         2.3801       227.0272
    1276.95960         8.5000         8.5627         2.3455      -999.2500      -999.2500       110.4559       0.305699       0.304988         3.2412         2.2855         2.4102       227.0956
    1277.11200         8.5000         8.5669         2.3456      -999.2500      -999.2500       110.2303       0.302276       0.301732         3.2370         2.2852         2.4138       227.1418
    1277.26440         8.5000         8.5659         2.3445      -999.2500      -999.2500       110.5575       0.297786       0.297450         3.2380         2.2775         2.4078       227.1802
    1277.41680         8.5000         8.5648         2.3433      -999.2500      -999.2500       110.8847       0.293296       0.293168         3.2391         2.2698         2.4018       227.2185
    1277.56920         8.5000         8.5652         2.3438      -999.2500      -999.2500       110.4783       0.289358       0.289129         3.2461         2.2874         2.4223       227.3346
    1277.72160         8.5000         8.5673         2.3460      -999.2500      -999.2500       109.1900       0.286085       0.285383         3.2603         2.3353         2.4746       227.5442
    1277.87400         8.5000         8.5693         2.3483      -999.2500      -999.2500       107.9016       0.282811       0.281637         3.2745         2.3833         2.5269       227.7538
    1278.02640         8.5000         8.5683         2.3523      -999.2500      -999.2500       106.3277       0.279846       0.278223         3.2902         2.4752         2.6266       227.9341
    1278.17880         8.5000         8.5528         2.3649      -999.2500      -999.2500       103.3909       0.278354       0.276395         3.3132         2.7767         2.9524       227.9745
    1278.33120         8.5000         8.5374         2.3775      -999.2500      -999.2500       100.4541       0.276862       0.274568         3.3362         3.0782         3.2781       228.0150
    1278.48360         8.5000         8.5219         2.3901      -999.2500      -999.2500        97.5172       0.275370       0.272740         3.3592         3.3797         3.6038       228.0554
    1278.63600         8.5000         8.5806         2.4059      -999.2500      -999.2500        95.6692       0.271778       0.268721         3.3747         3.3778         3.5996       228.0092
    1278.78840         8.5000         8.6482         2.4222      -999.2500      -999.2500        93.9524       0.267932       0.264437         3.3894         3.3393         3.5556       227.9526
    1278.94080         8.5000         8.7158         2.4384      -999.2500      -999.2500        92.2356       0.264086       0.260153         3.4041         3.3008         3.5117       227.8960
    1279.09320         8.5000         8.7506         2.4328      -999.2500      -999.2500        91.9696       0.264438       0.260379         3.3973         3.2055         3.4080       227.7436
    1279.24560         8.5000         8.7645         2.4134      -999.2500      -999.2500        92.6252       0.267456       0.263469         3.3768         3.0742         3.2664       227.5305
    1279.39800         8.5000         8.7784         2.3940      -999.2500      -999.2500        93.2808       0.270473       0.266559         3.3564         2.9428         3.1248       227.3173
    1279.55040         8.5000         8.7892         2.3867      -999.2500      -999.2500        94.2613       0.269318       0.265694         3.3394         2.8955         3.0766       226.9995
    1279.70280         8.5000         8.7938         2.4039      -999.2500      -999.2500        95.8996       0.259718       0.256824         3.3295         3.0183         3.2175       226.4700
    1279.85520         8.5000         8.7984         2.4211      -999.2500      -999.2500        97.5379       0.250117       0.247954         3.3196         3.1411         3.3584       225.9405
    1280.00760         8.5000         8.8027         2.4366      -999.2500      -999.2500        99.1373       0.241580       0.240091         3.3088         3.2460         3.4799       225.4330
    1280.16000         8.5000         8.8010         2.4194      -999.2500      -999.2500        99.9966       0.253309       0.251402         3.2797         3.0098         3.2316       225.3445
    1280.31240         8.5000         8.7994         2.4022      -999.2500      -999.2500       100.8559       0.265038       0.262713         3.2507         2.7736         2.9834       225.2560
    1280.46480         8.5000         8.7977         2.3850      -999.2500      -999.2500       101.7152       0.276767       0.274025         3.2217         2.5374         2.7351       225.1675
    1280.61720         8.5000         8.8052         2.3753      -999.2500      -999.2500       102.9819       0.277624       0.274601         3.2247         2.4717         2.6577       225.2155
    1280.76960         8.5000         8.8154         2.3678      -999.2500      -999.2500       104.3711       0.275215       0.271952         3.2374         2.4571         2.6316       225.3046
    1280.92200         8.5000         8.8257         2.3603      -999.2500      -999.2500       105.7602       0.272806       0.269304         3.2500         2.4426         2.6056       225.3936
    1281.07440         8.5000         8.8363         2.3570      -999.2500      -999.2500       106.4737       0.271109       0.267392         3.2717         2.4287         2.5816       225.4509
    1281.22680         8.5000         8.8474         2.3579      -999.2500      -999.2500       106.4789       0.270159       0.266253         3.3028         2.4155         2.5599       225.4750
    1281.37920         8.5000         8.8584         2.3589      -999.2500      -999.2500       106.4841       0.269208       0.265113         3.3338         2.4023         2.5382       225.4990
    1281.53160         8.5000         8.8712         2.3597      -999.2500      -999.2500       106.2624       0.269611       0.265553         3.3505         2.3907         2.5185       225.5842
    1281.68400         8.5000         8.8908         2.3598      -999.2500      -999.2500       105.1730       0.275187       0.272030         3.3117         2.3855         2.5062       225.9037
    1281.83640         8.5000         8.9104         2.3599      -999.2500      -999.2500       104.0837       0.280763       0.278507         3.2730         2.3803         2.4939       226.2232
    1281.98880         8.5000         8.9299         2.3601      -999.2500      -999.2500       102.9943       0.286339       0.284983         3.2342         2.3750         2.4816       226.5426
    1282.14120         8.5000         8.9094         2.3606      -999.2500      -999.2500       103.4965       0.291517       0.290247         3.2148         2.3777         2.4799       226.4951
    1282.29360         8.5000         8.8857         2.3612      -999.2500      -999.2500       104.1249       0.296663       0.295414         3.1969         2.3810         2.4790       226.4184
    1282.44600         8.5000         8.8621         2.3618      -999.2500      -999.2500       104.7533       0.301810       0.300581         3.1790         2.3844         2.4781       226.3417
