~Version Information Block
VERS .                 2.00:  CWLS LOG ASCII STANDARD - VERSION 2.00
WRAP .                   NO:  One line per depth step
~Well Information Block
#MNEM.UNIT        Data Type   Information
#---------- ----------------  -----------
STRT .M           535.07640:  START DEPTH
STOP .M          2419.95960:  STOP DEPTH
STEP .M             0.15240:  STEP
NULL .              -999.25:  NULL VALUE
COMP .                     :  COMPANY
WELL .            Ngatoro-3:  WELL
FLD  .                     :  FIELD
LOC  .                     :  LOCATION
CTRY .                     :  COUNTRY
STAT .                     :  STATE
CNTY .                     :  COUNTY
SRVC .     New Zealand Petroleum Co Ltd:  SERVICE COMPANY
DATE .                     :  DATE
API  .                     :  API NUMBER
UWI  .         100000158215:  UNIQUE WELL ID
LATI .          -39.1846093:  LATITUDE
LONG .          174.1883769:  LONGITUDE
~Curve Information Block
#MNEM.UNIT         API CODE   Curve Description
#---------- ----------------  -----------------
DEPTH.M                    :  
BS   .IN                   :  Bit Size (Created in Geolog)
CALI .IN                   :  Caliper Log (CALI)
DENS .G/C3                 :  Compensated Formation Density Log (RHOB)
DRHO .G/C3                 :  Density Log Correction (DRHO)
DTC  .US/F                 :  Delta T (DT)
GR   .GAPI                 :  Gamma-Ray Log (GR)
GR_CORR.GAPI                 :  Gamma ray corrected
NEUT .V/V                  :  Neutron Log Porosity (NPHI)
NEUT_CORR.V/V                  :  Corrected NPHI (limestone units)
PEF  .B/E                  :  Photoelectric Factor (PEDF)
RESD .OHMM                 :  Laterolog Deep Resistivity (LLD)
RESD_CORR.OHMM                 :  Borehole corrected LLD
RESS .OHMM                 :  Shallow Laterolog (LLS)
RESS_CORR.OHMM                 :  Borehole corrected LLS
SP   .MV                   :  Spontaneous Potential Log (SP)
TEMP .DEGC                 :  Temperature (TEMP)
TENS .KGF                  :  Cable tension at surface (TENS)
~Parameter Information Block
#MNEM.UNIT            Value   Description
#---------- ----------------  -----------
CUR_INT_BOT.M                2420:  Current interpolated bottom
PROJECT.     New Zealand Log QC Project:  
SET  .     A0_FINAL_INTER_REF_D:  
ELEVATION_AMSL.M              267.94:  Elevation above mean sea level
ELEVATION_REF.                   KB:  Measurement reference
FORMATION_AT_TD.             Manganui:  Formation at TD
GL_ELEVATION_AMSL.M            263.2000:  Ground level elevation above mean sea level
LICENCE_NUMBER.             PPL38706:  Licence number
ONSHORE_OR_OFFSHORE.              Onshore:  Onshore/offshore
PR_NUMBER.               PR1863:  Petroleum report number
SPUD_DATE.           14/01/1993:  Spud date
STATUS_AT_COMPLETION.     Suspended as a potential oil producer:  Status at completion
TD_DATE.           08/02/1993:  Total depth date
TOTAL_DEPTH_DRILLED.M                2420:  Total depth drilled
~Other Information Block
# 
~A       DEPTH             BS           CALI           DENS           DRHO            DTC             GR        GR_CORR           NEUT      NEUT_CORR            PEF           RESD      RESD_CORR           RESS      RESS_CORR             SP           TEMP           TENS 
# ...
    1170.58440         8.5000         9.0151         2.3891      0.0109517        92.6904       112.8695       115.4841       0.331338       0.313286         3.0678         2.8716         2.8989         3.0381         3.1306        72.0372        51.3184      1033.2557
    1170.73680         8.5000         9.0035         2.3890      0.0106761        92.7747       114.0648       116.6393       0.316635       0.299562         3.0515         2.8682         2.8950         3.0366         3.1281        72.2711        51.3184      1033.7977
    1170.88920         8.5000         8.9920         2.3889      0.0104005        92.8591       115.2601       117.7944       0.301933       0.285839         3.0353         2.8648         2.8910         3.0351         3.1256        72.5050        51.3184      1034.3396
    1171.04160         8.5000         8.9810         2.3885      0.0104856        92.9579       115.2160       117.6873       0.289761       0.274500         3.0144         2.8625         2.8881         3.0334         3.1230        72.6569        51.3184      1034.8239
    1171.19400         8.5000         8.9712         2.3873      0.0115311        93.0952       111.8706       114.2179       0.284330       0.269517         2.9808         2.8628         2.8881         3.0313         3.1200        72.5906        51.3184      1035.1549
    1171.34640         8.5000         8.9615         2.3862      0.0125766        93.2326       108.5252       110.7485       0.278899       0.264534         2.9472         2.8632         2.8881         3.0291         3.1169        72.5243        51.3184      1035.4861
    1171.49880         8.5000         8.9518         2.3850      0.0136221        93.3699       105.1798       107.2791       0.273468       0.259550         2.9136         2.8636         2.8881         3.0269         3.1139        72.4580        51.3184      1035.8171
    1171.65120         8.5000         8.9356         2.3881      0.0143524        92.9120       103.7893       105.7771       0.278103       0.264270         2.9468         2.8972         2.9216         3.0570         3.1431        72.3534        51.3184      1035.4730
    1171.80360         8.5000         8.9194         2.3911      0.0150802        92.4493       102.4144       104.2907       0.282817       0.269066         2.9805         2.9310         2.9553         3.0873         3.1725        72.2484        51.3184      1035.1237
    1171.95600         8.5000         8.9033         2.3942      0.0158080        91.9866       101.0394       102.8044       0.287532       0.273863         3.0143         2.9649         2.9891         3.1176         3.2019        72.1434        51.3184      1034.7742
    1172.10840         8.5000         8.8971         2.3929      0.0148086        91.8692       101.5659       103.3064       0.294994       0.281107         3.0267         2.9681         2.9921         3.1188         3.2026        72.0267        51.3187      1034.1415
    1172.26080         8.5000         8.8949         2.3898      0.0131080        91.8920       102.8642       104.6155       0.303572       0.289344         3.0304         2.9589         2.9826         3.1081         3.1916        71.9051        51.3192      1033.3938
    1172.41320         8.5000         8.8927         2.3867      0.0114075        91.9147       104.1625       105.9245       0.312150       0.297581         3.0342         2.9497         2.9731         3.0974         3.1806        71.7836        51.3197      1032.6461
    1172.56560         8.5000         8.8898         2.3841      0.0100356        92.0056       104.5265       106.2795       0.313941       0.299349         3.0450         2.9412         2.9644         3.0893         3.1721        71.7647        51.3222      1033.2236
    1172.71800         8.5000         8.8859         2.3823      0.0090984        92.1865       103.6541       105.3721       0.306752       0.292557         3.0653         2.9339         2.9568         3.0847         3.1670        71.8816        51.3274      1035.5546
    1172.87040         8.5000         8.8820         2.3805      0.0081613        92.3674       102.7818       104.4646       0.299564       0.285765         3.0855         2.9265         2.9491         3.0800         3.1619        71.9986        51.3325      1037.8855
    1173.02280         8.5000         8.8802         2.3795      0.0076296        92.5421       101.9998       103.6602       0.292825       0.279362         3.1131         2.9218         2.9442         3.0770         3.1588        72.1076        51.3368      1039.5927
    1173.17520         8.5000         8.8907         2.3829      0.0094020        92.6817       101.7315       103.4419       0.288645       0.275173         3.1826         2.9322         2.9553         3.0839         3.1667        72.1714        51.3359      1037.7539
    1173.32760         8.5000         8.9011         2.3864      0.0111745        92.8212       101.4632       103.2236       0.284464       0.270984         3.2520         2.9426         2.9664         3.0908         3.1745        72.2353        51.3349      1035.9150
    1173.48000         8.5000         8.9116         2.3898      0.0129469        92.9608       101.1949       103.0053       0.280284       0.266794         3.3214         2.9530         2.9774         3.0977         3.1824        72.2991        51.3340      1034.0763
    1173.63240         8.5000         8.9145         2.3882      0.0152668        93.2578       102.0020       103.8420       0.282984       0.269320         3.2667         2.8911         2.9144         3.0378         3.1219        72.1320        51.3380      1033.2585
    1173.78480         8.5000         8.9162         2.3859      0.0176694        93.5787       102.9715       104.8380       0.286724       0.272861         3.1932         2.8182         2.8403         2.9678         3.0510        71.9301        51.3428      1032.5950
    1173.93720         8.5000         8.9180         2.3835      0.0200720        93.8996       103.9410       105.8340       0.290463       0.276401         3.1198         2.7453         2.7661         2.8978         2.9801        71.7281        51.3476      1031.9314
    1174.08960         8.5000         8.8895         2.3780      0.0230146        94.0254       103.2378       104.9737       0.296882       0.283122         3.0592         2.6866         2.7052         2.8397         2.9191        71.6878        51.3489      1031.7305
    1174.24200         8.5000         8.8398         2.3702      0.0263357        94.0145       101.3623       102.8122       0.305177       0.292073         3.0076         2.6379         2.6536         2.7899         2.8651        71.7608        51.3478      1031.8536
    1174.39440         8.5000         8.7900         2.3624      0.0296567        94.0036        99.4868       100.6507       0.313473       0.301023         2.9560         2.5891         2.6019         2.7402         2.8111        71.8337        51.3467      1031.9769
    1174.54680         8.5000         8.7540         2.3583      0.0303339        93.8995        98.4997        99.4601       0.316218       0.304364         2.9400         2.5742         2.5852         2.7252         2.7933        71.9149        51.3496      1031.9543
    1174.69920         8.5000         8.7488         2.3626      0.0250453        93.5851        99.5172       100.4600       0.306440       0.295049         3.0045         2.6355         2.6474         2.7888         2.8570        72.0146        51.3612      1031.6028
    1174.85160         8.5000         8.7437         2.3669      0.0197568        93.2706       100.5346       101.4599       0.296662       0.285734         3.0691         2.6968         2.7095         2.8524         2.9207        72.1142        51.3729      1031.2512
    1175.00400         8.5000         8.7388         2.3711      0.0146221        92.9745       101.5143       102.4231       0.287195       0.276713         3.1318         2.7562         2.7697         2.9141         2.9825        72.2026        51.3843      1030.9458
