~Version Information Block
VERS .                 2.00:  CWLS LOG ASCII STANDARD - VERSION 2.00
WRAP .                   NO:  One line per depth step
~Well Information Block
#MNEM.UNIT        Data Type   Information
#---------- ----------------  -----------
STRT .M           376.58040:  START DEPTH
STOP .M          2000.85960:  STOP DEPTH
STEP .M             0.15240:  STEP
NULL .              -999.25:  NULL VALUE
COMP .                     :  COMPANY
WELL .            Ngatoro-9:  WELL
FLD  .                     :  FIELD
LOC  .                     :  LOCATION
CTRY .                     :  COUNTRY
STAT .                     :  STATE
CNTY .                     :  COUNTY
SRVC .     New Zealand Petroleum Co Ltd:  SERVICE COMPANY
DATE .                     :  DATE
API  .                     :  API NUMBER
UWI  .         100000290639:  UNIQUE WELL ID
LATI .          -39.1948838:  LATITUDE
LONG .          174.1848348:  LONGITUDE
~Curve Information Block
#MNEM.UNIT         API CODE   Curve Description
#---------- ----------------  -----------------
DEPTH.M                    :  
BS   .IN                   :  Bit Size (Created in Geolog)
CALI .IN                   :  Caliper Log (CALI)
DENS .G/C3                 :  Compensated Formation Density Log (RHOB)
DRHO .G/C3                 :  Density Log Correction (DRHO)
DTC  .US/F                 :  3-5 Ft Compensated Sonic (BPB) (DTC1)
GR   .GAPI                 :  Gamma-Ray Log (GR)
GR_CORR.GAPI                 :  Gamma ray corrected
NEUT .V/V                  :  Neutron Log Porosity (NPHI)
NEUT_CORR.V/V                  :  Corrected NPHI (limestone units)
PEF  .B/E                  :  Photoelectric Factor (PEDF)
RESD .OHMM                 :  Laterolog Deep Resistivity (LLD)
RESD_CORR.OHMM                 :  Borehole corrected LLD
RESS .OHMM                 :  Shallow Laterolog (LLS)
RESS_CORR.OHMM                 :  Borehole corrected LLS
SP   .MV                   :  Spontaneous Potential Log (SP)
TEMP .DEGC                 :  Temperature (TEMP)
TENS .KGF                  :  Cable tension at surface (TENS)
~Parameter Information Block
#MNEM.UNIT            Value   Description
#---------- ----------------  -----------
CUR_INT_BOT.M              2001.5:  Current interpolated bottom
PROJECT.     New Zealand Log QC Project:  
SET  .     A0_FINAL_INTER_REF_D:  
ELEVATION_AMSL.M              291.65:  Elevation above mean sea level
ELEVATION_REF.                   KB:  Measurement reference
FORMATION_AT_TD.      Mount Messenger:  Formation at TD
GL_ELEVATION_AMSL.M            286.3000:  Ground level elevation above mean sea level
LICENCE_NUMBER.             PMP38148:  Licence number
ONSHORE_OR_OFFSHORE.              Onshore:  Onshore/offshore
PR_NUMBER.               PR2437:  Petroleum report number
SPUD_DATE.           06/06/1998:  Spud date
STATUS_AT_COMPLETION.     Cased and suspended as a potential oil producer:  Status at completion
TD_DATE.           20/06/1998:  Total depth date
TOTAL_DEPTH_DRILLED.M              2001.5:  Total depth drilled
~Other Information Block
# 
~A       DEPTH             BS           CALI           DENS           DRHO            DTC             GR        GR_CORR           NEUT      NEUT_CORR            PEF           RESD      RESD_CORR           RESS      RESS_CORR             SP           TEMP           TENS 
# ...
    1332.12840         8.5000      -999.2500      -999.2500   -999.2500000        95.4364       107.0926      -999.2500    -999.250000    -999.250000      -999.2500         2.3173      -999.2500         2.4923      -999.2500        16.6653        47.4121      -999.2500
    1332.28080         8.5000      -999.2500      -999.2500   -999.2500000        95.7995       106.4008      -999.2500    -999.250000    -999.250000      -999.2500         2.3022      -999.2500         2.4745      -999.2500        16.7094        47.4121      -999.2500
    1332.43320         8.5000      -999.2500      -999.2500   -999.2500000        96.1626       105.7089      -999.2500    -999.250000    -999.250000      -999.2500         2.2871      -999.2500         2.4568      -999.2500        16.7535        47.4121      -999.2500
    1332.58560         8.5000      -999.2500      -999.2500   -999.2500000        96.4489       105.2560      -999.2500    -999.250000    -999.250000      -999.2500         2.2740      -999.2500         2.4420      -999.2500        16.6099        47.4121      -999.2500
    1332.73800         8.5000      -999.2500      -999.2500   -999.2500000        96.6753       104.9894      -999.2500    -999.250000    -999.250000      -999.2500         2.2626      -999.2500         2.4296      -999.2500        16.3200        47.4121      -999.2500
    1332.89040         8.5000      -999.2500      -999.2500   -999.2500000        96.9017       104.7228      -999.2500    -999.250000    -999.250000      -999.2500         2.2512      -999.2500         2.4172      -999.2500        16.0301        47.4121      -999.2500
    1333.04280         8.5000      -999.2500      -999.2500   -999.2500000        96.8284       105.0590      -999.2500       0.322695    -999.250000      -999.2500         2.2459      -999.2500         2.4128      -999.2500        15.8031        47.4121      -999.2500
    1333.19520         8.5000      -999.2500      -999.2500   -999.2500000        95.9878       106.9389      -999.2500       0.325948    -999.250000      -999.2500         2.2560      -999.2500         2.4291      -999.2500        15.7370        47.4121      -999.2500
    1333.34760         8.5000      -999.2500      -999.2500   -999.2500000        95.1472       108.8188      -999.2500       0.329200    -999.250000      -999.2500         2.2662      -999.2500         2.4454      -999.2500        15.6709        47.4121      -999.2500
    1333.50000         8.5000      -999.2500      -999.2500   -999.2500000        94.3066       110.6987      -999.2500       0.332452    -999.250000      -999.2500         2.2763      -999.2500         2.4617      -999.2500        15.6048        47.4121      -999.2500
    1333.65240         8.5000      -999.2500      -999.2500   -999.2500000        94.6657       109.1637      -999.2500       0.319962    -999.250000      -999.2500         2.2834      -999.2500         2.4778      -999.2500        15.6137        47.4121      -999.2500
    1333.80480         8.5000      -999.2500      -999.2500   -999.2500000        95.0248       107.6288      -999.2500       0.307471    -999.250000      -999.2500         2.2905      -999.2500         2.4940      -999.2500        15.6226        47.4121      -999.2500
    1333.95720         8.5000      -999.2500      -999.2500   -999.2500000        95.3839       106.0938      -999.2500       0.294981    -999.250000      -999.2500         2.2976      -999.2500         2.5102      -999.2500        15.6314        47.4121      -999.2500
    1334.10960         8.5000      -999.2500      -999.2500   -999.2500000        95.4549       105.0808      -999.2500       0.291128    -999.250000      -999.2500         2.3041      -999.2500         2.5170      -999.2500        15.6453        47.4121      -999.2500
    1334.26200         8.5000      -999.2500      -999.2500   -999.2500000        95.4133       104.2715      -999.2500       0.290648    -999.250000      -999.2500         2.3104      -999.2500         2.5201      -999.2500        15.6613        47.4121      -999.2500
    1334.41440         8.5000      -999.2500      -999.2500   -999.2500000        95.3718       103.4623      -999.2500       0.290169    -999.250000      -999.2500         2.3167      -999.2500         2.5233      -999.2500        15.6772        47.4121      -999.2500
    1334.56680         8.5000      -999.2500      -999.2500   -999.2500000        94.4578       100.7934      -999.2500       0.281904    -999.250000      -999.2500         2.3497      -999.2500         2.5601      -999.2500        15.5907        47.4121      -999.2500
    1334.71920         8.5000      -999.2500      -999.2500   -999.2500000        92.4259        95.7414      -999.2500       0.263662    -999.250000      -999.2500         2.4170      -999.2500         2.6399      -999.2500        15.3731        47.4121      -999.2500
    1334.87160         8.5000      -999.2500      -999.2500   -999.2500000        90.3941        90.6894      -999.2500       0.245420    -999.250000      -999.2500         2.4843      -999.2500         2.7198      -999.2500        15.1554        47.4121      -999.2500
    1335.02400         8.5000         9.2612      -999.2500   -999.2500000        88.2076        86.6013        90.0148       0.230666    -999.250000      -999.2500         2.6188      -999.2500         2.8635      -999.2500        15.0142        47.4121      -999.2500
    1335.17640         8.5000         9.2618      -999.2500   -999.2500000        85.1938        87.6699        91.1285       0.234567    -999.250000      -999.2500         3.1124      -999.2500         3.3485      -999.2500        15.2821        47.4121      -999.2500
    1335.32880         8.5000         9.2624      -999.2500   -999.2500000        82.1801        88.7384        92.2423       0.238469    -999.250000      -999.2500         3.6060      -999.2500         3.8336      -999.2500        15.5500        47.4121      -999.2500
    1335.48120         8.5000         9.2629      -999.2500   -999.2500000        79.1664        89.8070        93.3561       0.242370    -999.250000      -999.2500         4.0996      -999.2500         4.3187      -999.2500        15.8178        47.4121      -999.2500
    1335.63360         8.5000         9.3003      -999.2500      0.0220982        82.9506        93.2281        97.1031       0.250204    -999.250000         2.9762         3.7883      -999.2500         4.0008      -999.2500        16.2388        47.4121      -999.2500
    1335.78600         8.5000         9.3427      -999.2500      0.0214864        87.6913        96.9802       101.2208       0.258592    -999.250000         2.9751         3.3637      -999.2500         3.5699      -999.2500        16.6814        47.4121      -999.2500
    1335.93840         8.5000         9.3852      -999.2500      0.0208747        92.4321       100.7323       105.3384       0.266979    -999.250000         2.9741         2.9390      -999.2500         3.1390      -999.2500        17.1239        47.4121      -999.2500
    1336.09080         8.5000         9.3920      -999.2500      0.0208944        94.6480       102.1734       106.8701       0.266040    -999.250000         2.9636         2.6708      -999.2500         2.8633      -999.2500        17.2575        47.4143      -999.2500
    1336.24320         8.5000         9.3746      -999.2500      0.0213425        95.1512       102.0467       106.6474       0.258775    -999.250000         2.9469         2.5087      -999.2500         2.6927      -999.2500        17.1814        47.4180      -999.2500
    1336.39560         8.5000         9.3572      -999.2500      0.0217905        95.6543       101.9200       106.4248       0.251509    -999.250000         2.9301         2.3465      -999.2500         2.5222      -999.2500        17.1053        47.4217      -999.2500
    1336.54800         8.5000         9.3524      -999.2500      0.0223070        95.9397       101.9424       106.4230       0.247473    -999.250000         2.9096         2.2360      -999.2500         2.4066      -999.2500        17.1182        47.4230      -999.2500
