~Version Information Block
VERS .                 2.00:  CWLS LOG ASCII STANDARD - VERSION 2.00
WRAP .                   NO:  One line per depth step
~Well Information Block
#MNEM.UNIT        Data Type   Information
#---------- ----------------  -----------
STRT .M            16.61160:  START DEPTH
STOP .M          1898.90400:  STOP DEPTH
STEP .M             0.15240:  STEP
NULL .              -999.25:  NULL VALUE
COMP .                     :  COMPANY
WELL .         Ngatoro-3ST1:  WELL
FLD  .                     :  FIELD
LOC  .                     :  LOCATION
CTRY .                     :  COUNTRY
STAT .                     :  STATE
CNTY .                     :  COUNTY
SRVC .     Greymouth Petroleum Ltd:  SERVICE COMPANY
DATE .                     :  DATE
API  .                     :  API NUMBER
UWI  .         100000787700:  UNIQUE WELL ID
LATI .          -39.1846084:  LATITUDE
LONG .          174.1883756:  LONGITUDE
~Curve Information Block
#MNEM.UNIT         API CODE   Curve Description
#---------- ----------------  -----------------
DEPTH.M                    :  
BS   .IN                   :  Bit Size (Created in Geolog)
CALI .IN                   :  HRCC Cal. Caliper (HCAL)
DENS .G/C3                 :  HRDD High Resolution Formation Density (RHO8)
DRHO .G/C3                 :  HRDD Density Correction (HDRA)
GR   .GAPI                 :  HiRes Gamma-Ray (EHGR)
NEUT .V/V                  :  HiRes Thermal Neutron Porosity (HTNP)
PEF  .B/E                  :  HRDD High Resolution Formation Photoelectric Factor (PEF8)
RESD .OHMM                 :  Array Induction Two Foot Resistivity A90 (AHT90)
RESM .OHMM                 :  Array Induction Two Foot Resistivity A30 (AHT30)
RESS .OHMM                 :  Array Induction Two Foot Resistivity A10 (AHT10)
SP   .MV                   :  SP Shifted (SP)
TEMP .DEGC                 :  HTC Temperature (HTEM)
TENS .KGF                  :  Cable Tension (TENS)
~Parameter Information Block
#MNEM.UNIT            Value   Description
#---------- ----------------  -----------
CUR_INT_BOT.M                1899:  Current interpolated bottom
PROJECT.     New Zealand Log QC Project:  
SET  .     A0_FINAL_INTER_REF_D:  
ELEVATION_AMSL.M              262.91:  Elevation above mean sea level
ELEVATION_REF.                   DF:  Measurement reference
FORMATION_AT_TD.             Manganui:  Formation at TD
GL_ELEVATION_AMSL.M            259.3000:  Ground level elevation above mean sea level
KICK_OFF_DATE.           26/09/2005:  Kick off date
KICK_OFF_DEPTH.M                 645:  Kick off depth
LICENCE_NUMBER.             PMP38148:  Licence number
ONSHORE_OR_OFFSHORE.              Onshore:  Onshore/offshore
PARENT_WELL.            Ngatoro-3:  Parent well
PR_NUMBER.               PR3237:  Petroleum report number
STATUS_AT_COMPLETION.     Completed ready for perforating:  Status at completion
TD_DATE.           05/10/2005:  Total depth date
TOTAL_DEPTH_DRILLED.M             1898.82:  Total depth drilled
~Other Information Block
# 
~A       DEPTH             BS           CALI           DENS           DRHO             GR           NEUT            PEF           RESD           RESM           RESS             SP           TEMP           TENS 
# ...
    1229.10600         6.0000         5.8518         2.3087      0.0086676       101.6115       0.336932         3.0493         2.7189         2.7729         2.9797       367.3041        50.2099      1008.8618
    1229.25840         6.0000         5.8303         2.3008      0.0096308        98.3845       0.338249         3.0057         2.7246         2.7785         2.9888       367.0039        50.2099      1008.1301
    1229.41080         6.0000         5.8089         2.2929      0.0105941        95.1574       0.339567         2.9621         2.7303         2.7842         2.9979       366.7038        50.2099      1007.3984
    1229.56320         6.0000         5.7918         2.2897      0.0105802        93.7366       0.339342         2.9351         2.7304         2.7835         2.9991       366.5049        50.2099      1010.0834
    1229.71560         6.0000         5.7807         2.2932      0.0091871        94.8652       0.336939         2.9318         2.7227         2.7740         2.9891       366.4489        50.2099      1017.5906
    1229.86800         6.0000         5.7695         2.2968      0.0077941        95.9938       0.334537         2.9285         2.7150         2.7644         2.9792       366.3929        50.2099      1025.0978
    1230.02040         6.0000         5.7626         2.3001      0.0064227        96.7579       0.331740         2.9260         2.7085         2.7557         2.9703       366.3773        50.2099      1032.4810
    1230.17280         6.0000         5.7834         2.3018      0.0051919        95.1635       0.326391         2.9289         2.7095         2.7519         2.9681       366.6234        50.2099      1039.0618
    1230.32520         6.0000         5.8042         2.3036      0.0039611        93.5691       0.321043         2.9318         2.7105         2.7482         2.9659       366.8696        50.2099      1045.6426
    1230.47760         6.0000         5.8249         2.3053      0.0027302        91.9748       0.315695         2.9348         2.7115         2.7444         2.9637       367.1158        50.2099      1052.2234
    1230.63000         6.0000         5.8358         2.3047      0.0090409        91.9790       0.312615         2.9578         2.7124         2.7405         2.9615       369.0984        50.2099      1045.7804
    1230.78240         6.0000         5.8450         2.3038      0.0166511        92.2586       0.309927         2.9843         2.7134         2.7367         2.9593       371.3802        50.2099      1037.0934
    1230.93480         6.0000         5.8542         2.3028      0.0242613        92.5382       0.307239         3.0108         2.7144         2.7328         2.9571       373.6620        50.2099      1028.4064
    1231.08720         6.0000         5.8941         2.2988      0.0343783        92.1531       0.310843         3.0460         2.7084         2.7219         2.9469       376.0044        50.2099      1021.2982
    1231.23960         6.0000         5.9570         2.2925      0.0463696        91.2709       0.319152         3.0879         2.6973         2.7058         2.9305       378.3922        50.2099      1015.3705
    1231.39200         6.0000         6.0199         2.2861      0.0583610        90.3887       0.327460         3.1298         2.6861         2.6897         2.9142       380.7800        50.2099      1009.4428
    1231.54440         6.0000         6.0540         2.2861      0.0690002        90.3849       0.332104         3.1638         2.6821         2.6831         2.9096       382.3779        50.2099      1006.1285
    1231.69680         6.0000         6.0181         2.3016      0.0763504        92.5178       0.327834         3.1785         2.6955         2.6999         2.9332       382.0545        50.2099      1009.1710
    1231.84920         6.0000         5.9821         2.3170      0.0837005        94.6507       0.323565         3.1933         2.7089         2.7167         2.9568       381.7311        50.2099      1012.2136
    1232.00160         6.0000         5.9474         2.3322      0.0910119        96.7520       0.319336         3.2082         2.7219         2.7332         2.9800       381.3900        50.2099      1015.1907
    1232.15400         6.0000         6.0194         2.3238      0.0946725        95.8784       0.318898         3.2392         2.7050         2.7207         2.9608       379.3803        50.2099      1012.0045
    1232.30640         6.0000         6.0915         2.3154      0.0983331        95.0049       0.318460         3.2702         2.6880         2.7082         2.9416       377.3706        50.2099      1008.8182
    1232.45880         6.0000         6.1636         2.3071      0.1019937        94.1313       0.318022         3.3012         2.6710         2.6957         2.9224       375.3609        50.2099      1005.6320
    1232.61120         6.0000         6.2436         2.3087      0.1074730        94.3648       0.321308         3.3169         2.6785         2.7100         2.9384       374.1219        50.2099      1013.3107
    1232.76360         6.0000         6.3265         2.3142      0.1136260        95.0084       0.325974         3.3270         2.6951         2.7343         2.9673       373.1684        50.2099      1025.0150
    1232.91600         6.0000         6.4094         2.3196      0.1197791        95.6521       0.330640         3.3370         2.7117         2.7585         2.9963       372.2149        50.2099      1036.7194
    1233.06840         6.0000         6.4310         2.3252      0.1198273        96.1875       0.332791         3.3364         2.7146         2.7683         3.0074       371.8964        50.2099      1037.9623
    1233.22080         6.0000         6.3772         2.3312      0.1123784        96.5902       0.331854         3.3228         2.7008         2.7604         2.9966       372.3577        50.2099      1026.3580
    1233.37320         6.0000         6.3234         2.3371      0.1049295        96.9928       0.330918         3.3092         2.6869         2.7524         2.9859       372.8190        50.2099      1014.7538
    1233.52560         6.0000         6.2682         2.3404      0.0943098        97.1427       0.330116         3.2830         2.6737         2.7452         2.9753       373.1185        50.2099      1004.1673
    1233.67800         6.0000         6.2061         2.3307      0.0679846        96.0408       0.329980         3.1941         2.6641         2.7417         2.9657       372.6160        50.2099       998.6223
    1233.83040         6.0000         6.1440         2.3209      0.0416595        94.9389       0.329845         3.1053         2.6545         2.7382         2.9561       372.1135        50.2099       993.0773
    1233.98280         6.0000         6.0818         2.3112      0.0153344        93.8370       0.329709         3.0165         2.6448         2.7347         2.9465       371.6110        50.2099       987.5322
    1234.13520         6.0000         6.0573         2.3070      0.0109916        94.2437       0.329359         3.0249         2.7073         2.8116         3.0268       372.0800        50.2099       988.5618
    1234.28760         6.0000         6.0376         2.3036      0.0094454        94.8424       0.328982         3.0457         2.7789         2.8988         3.1185       372.6726        50.2099       990.4279
    1234.44000         6.0000         6.0179         2.3002      0.0078991        95.4410       0.328605         3.0664         2.8505         2.9859         3.2103       373.2653        50.2099       992.2939
    1234.59240         6.0000         6.0331         2.3010      0.0157478        94.2513       0.329737         3.0911         2.8542         2.9883         3.2042       371.8455        50.2099       991.8306
    1234.74480         6.0000         6.0710         2.3046      0.0296971        91.9004       0.331849         3.1183         2.8138         2.9356         3.1346       369.1189        50.2099       989.8547
    1234.89720         6.0000         6.1088         2.3081      0.0436464        89.5495       0.333961         3.1455         2.7735         2.8828         3.0650       366.3924        50.2099       987.8787
