~Version Information Block
VERS .                 2.00:  CWLS LOG ASCII STANDARD - VERSION 2.00
WRAP .                   NO:  One line per depth step
~Well Information Block
#MNEM.UNIT        Data Type   Information
#---------- ----------------  -----------
STRT .M             9.14400:  START DEPTH
STOP .M          1999.48800:  STOP DEPTH
STEP .M             0.15240:  STEP
NULL .              -999.25:  NULL VALUE
COMP .                     :  COMPANY
WELL .            Ngatoro-2:  WELL
FLD  .                     :  FIELD
LOC  .                     :  LOCATION
CTRY .                     :  COUNTRY
STAT .                     :  STATE
CNTY .                     :  COUNTY
SRVC .     New Zealand Petroleum Co Ltd:  SERVICE COMPANY
DATE .                     :  DATE
API  .                     :  API NUMBER
UWI  .         100000127958:  UNIQUE WELL ID
LATI .          -39.1949429:  LATITUDE
LONG .          174.1849215:  LONGITUDE
~Curve Information Block
#MNEM.UNIT         API CODE   Curve Description
#---------- ----------------  -----------------
DEPTH.M                    :  
BS   .IN                   :  Bit Size (Created in Geolog)
CALI .IN                   :  Caliper Log (CALI)
DENS .G/C3                 :  Compensated Formation Density Log (RHOB)
DRHO .G/C3                 :  Density Log Correction (DRHO)
DTC  .US/F                 :  Delta T (DT)
DTS  .US/F                 :  Delta T Shear Lower Dipole (DT1)
GR   .GAPI                 :  Gamma-Ray Raw (Reeves PSD) (GRCF)
GR_CORR.GAPI                 :  Gamma ray corrected
NEUT .V/V                  :  Neutron Log Porosity (NPHI)
NEUT_CORR.V/V                  :  Corrected NPHI (limestone units)
PEF  .B/E                  :  Photoelectric Factor (PEDF)
RESD .OHMM                 :  Laterolog Deep Resistivity (LLD)
RESD_CORR.OHMM                 :  Borehole corrected LLD
RESS .OHMM                 :  Shallow Laterolog (LLS)
RESS_CORR.OHMM                 :  Borehole corrected LLS
SP   .MV                   :  Spontaneous Potential Log (SP)
TEMP .DEGC                 :  Temperature (TEMP)
TENS .KGF                  :  Cable tension at surface (TENS)
~Parameter Information Block
#MNEM.UNIT            Value   Description
#---------- ----------------  -----------
CUR_INT_BOT.M                2000:  Current interpolated bottom
PROJECT.     New Zealand Log QC Project:  
SET  .     A0_FINAL_INTER_REF_D:  
ELEVATION_AMSL.M              294.94:  Elevation above mean sea level
ELEVATION_REF.                   KB:  Measurement reference
FORMATION_AT_TD.             Manganui:  Formation at TD
GL_ELEVATION_AMSL.M            286.3000:  Ground level elevation above mean sea level
LICENCE_NUMBER.             PPL38706:  Licence number
ONSHORE_OR_OFFSHORE.              Onshore:  Onshore/offshore
PR_NUMBER.               PR1920:  Petroleum report number
SPUD_DATE.           12/10/1991:  Spud date
STATUS_AT_COMPLETION.     Completed as an oil producer:  Status at completion
TD_DATE.           26/10/1991:  Total depth date
TOTAL_DEPTH_DRILLED.M                2000:  Total depth drilled
~Other Information Block
# 
~A       DEPTH             BS           CALI           DENS           DRHO            DTC            DTS             GR        GR_CORR           NEUT      NEUT_CORR            PEF           RESD      RESD_CORR           RESS      RESS_CORR             SP           TEMP           TENS 
# ...
    1357.12200         8.5000         8.5539         2.3225      0.0091486        89.1241        56.9548       103.7111       103.4658       0.315612       0.307912         2.9806         1.8928         1.8829         2.2026         2.2486       119.3760        49.1041       706.9970
    1357.27440         8.5000         8.5494         2.3103      0.0073291        91.4038        57.2884       103.5192       103.2502       0.323916       0.316101         2.9217         1.6637         1.6601         1.8363         1.8812       119.1579        49.1068       704.4390
    1357.42680         8.5000         8.5450         2.2980      0.0055096        93.6834        57.6221       103.3274       103.0345       0.332220       0.324290         2.8628         1.4345         1.4374         1.4701         1.5139       118.9398        49.1096       701.8809
    1357.57920         8.5000         8.5535         2.3078      0.0054930        93.2858        57.5956       101.6894       101.4415       0.321992       0.314185         2.8700         1.4865         1.4900         1.5078         1.5522       118.7979        49.1112       702.1294
    1357.73160         8.5000         8.5740         2.3381      0.0071426        90.4139        57.2363        98.7150        98.5755       0.294637       0.287172         2.9382         1.7984         1.7970         1.9189         1.9655       118.7265        49.1118       704.9716
    1357.88400         8.5000         8.5944         2.3684      0.0087923        87.5419        56.8770        95.7405        95.7095       0.267281       0.260160         3.0064         2.1102         2.1041         2.3300         2.3787       118.6552        49.1124       707.8139
    1358.03640         8.5000         8.6053         2.3859      0.0098887        85.7023        56.6082        94.4894        94.5151       0.251485       0.244577         3.0495         2.3052         2.2966         2.5824         2.6323       118.6405        49.1138       709.0573
    1358.18880         8.5000         8.5855         2.3629      0.0092221        87.1527        56.6280        98.7303        98.6477       0.272526       0.265418         3.0129         2.1278         2.1239         2.3287         2.3772       118.8065        49.1175       705.2056
    1358.34120         8.5000         8.5658         2.3399      0.0085556        88.6032        56.6478       102.9713       102.7804       0.293567       0.286259         2.9763         1.9504         1.9513         2.0751         2.1221       118.9725        49.1211       701.3538
    1358.49360         8.5000         8.5461         2.3168      0.0078890        90.0536        56.6676       107.2122       106.9130       0.314608       0.307100         2.9397         1.7729         1.7786         1.8215         1.8670       119.1385        49.1248       697.5020
    1358.64600         8.5000         8.5390         2.3051      0.0091776        91.6769        56.6662       104.2462       103.9199       0.324742       0.317138         2.9072         1.6452         1.6458         1.7306         1.7756       119.1084        49.0540       698.6288
    1358.79840         8.5000         8.5325         2.2939      0.0105520        93.3077        56.6638       100.9643       100.6145       0.334397       0.326702         2.8749         1.5196         1.5148         1.6468         1.6913       119.0697        48.9800       699.9739
    1358.95080         8.5000         8.5260         2.2827      0.0119263        94.9385        56.6614        97.6824        97.3091       0.344053       0.336266         2.8426         1.3940         1.3838         1.5630         1.6071       119.0310        48.9060       701.3190
    1359.10320         8.5000         8.5233         2.2724      0.0108828        95.9092        56.6628        95.7026        95.3224       0.349731       0.341868         2.8307         1.3104         1.2990         1.4957         1.5395       119.1415        48.9918       702.9863
    1359.25560         8.5000         8.5224         2.2624      0.0086866        96.5652        56.6658        94.3436        93.9645       0.353512       0.345580         2.8286         1.2469         1.2363         1.4362         1.4797       119.3233        49.1539       704.8074
    1359.40800         8.5000         8.5216         2.2525      0.0064904        97.2212        56.6689        92.9845        92.6065       0.357293       0.349293         2.8264         1.1834         1.1735         1.3767         1.4199       119.5050        49.3159       706.6285
    1359.56040         8.5000         8.5231         2.2516      0.0052222        97.3968        56.6799        92.5264        92.1578       0.357137       0.349105         2.8260         1.1746         1.1648         1.3766         1.4199       119.5729        49.3831       707.2619
    1359.71280         8.5000         8.5284         2.2644      0.0053677        96.8405        56.7029        93.4403        93.0943       0.350983       0.342977         2.8281         1.2492         1.2384         1.4670         1.5108       119.4675        49.3059       706.0862
    1359.86520         8.5000         8.5337         2.2772      0.0055132        96.2843        56.7260        94.3543        94.0307       0.344830       0.336849         2.8302         1.3237         1.3121         1.5574         1.6017       119.3621        49.2287       704.9105
    1360.01760         8.5000         8.5383         2.2889      0.0055247        95.7344        56.7412        95.4563        95.1516       0.337691       0.329774         2.8351         1.3912         1.3790         1.6330         1.6777       119.2561        49.1603       704.0217
    1360.17000         8.5000         8.5382         2.2924      0.0045102        95.2332        56.6970        97.9986        97.6854       0.323003       0.315456         2.8614         1.4037         1.3941         1.5954         1.6399       119.1459        49.1589       705.3297
    1360.32240         8.5000         8.5381         2.2960      0.0034956        94.7320        56.6527       100.5409       100.2191       0.308315       0.301137         2.8878         1.4162         1.4093         1.5577         1.6021       119.0357        49.1575       706.6378
    1360.47480         8.5000         8.5380         2.2995      0.0024811        94.2308        56.6084       103.0832       102.7528       0.293627       0.286818         2.9141         1.4287         1.4244         1.5200         1.5643       118.9255        49.1561       707.9458
    1360.62720         8.5000         8.5428         2.3348      0.0023369        91.7780        56.5967       101.1653       100.8648       0.270100       0.263830         2.9876         1.7005         1.7005         1.8077         1.8526       119.0681        49.1614       708.8504
    1360.77960         8.5000         8.5485         2.3765      0.0023651        88.9386        56.5914        98.3637        98.1008       0.244822       0.239123         3.0704         2.0236         2.0282         2.1599         2.2056       119.2606        49.1680       709.6750
    1360.93200         8.5000         8.5542         2.4182      0.0023934        86.0991        56.5860        95.5622        95.3368       0.219543       0.214417         3.1532         2.3468         2.3559         2.5121         2.5585       119.4532        49.1746       710.4996
    1361.08440         8.5000         8.5578         2.4279      0.0036518        84.2824        56.5851        96.2191        96.0117       0.223390       0.218091         3.1791         2.4968         2.5056         2.6719         2.7188       119.5095        49.1786       709.9419
    1361.23680         8.5000         8.5597         2.4118      0.0059014        83.2897        56.5877        99.6624        99.4574       0.250702       0.244632         3.1593         2.5075         2.5118         2.6767         2.7238       119.4561        49.1805       708.2704
    1361.38920         8.5000         8.5616         2.3957      0.0081509        82.2971        56.5902       103.1058       102.9030       0.278014       0.271173         3.1394         2.5181         2.5180         2.6815         2.7288       119.4026        49.1825       706.5989
