~Version Information Block
VERS .                 2.00:  CWLS LOG ASCII STANDARD - VERSION 2.00
WRAP .                   NO:  One line per depth step
~Well Information Block
#MNEM.UNIT        Data Type   Information
#---------- ----------------  -----------
STRT .M            16.61160:  START DEPTH
STOP .M          1898.90400:  STOP DEPTH
STEP .M             0.15240:  STEP
NULL .              -999.25:  NULL VALUE
COMP .                     :  COMPANY
WELL .         Ngatoro-3ST1:  WELL
FLD  .                     :  FIELD
LOC  .                     :  LOCATION
CTRY .                     :  COUNTRY
STAT .                     :  STATE
CNTY .                     :  COUNTY
SRVC .     Greymouth Petroleum Ltd:  SERVICE COMPANY
DATE .                     :  DATE
API  .                     :  API NUMBER
UWI  .         100000787700:  UNIQUE WELL ID
LATI .          -39.1846084:  LATITUDE
LONG .          174.1883756:  LONGITUDE
~Curve Information Block
#MNEM.UNIT         API CODE   Curve Description
#---------- ----------------  -----------------
DEPTH.M                    :  
BS   .IN                   :  Bit Size (Created in Geolog)
CALI .IN                   :  HRCC Cal. Caliper (HCAL)
DENS .G/C3                 :  HRDD High Resolution Formation Density (RHO8)
DRHO .G/C3                 :  HRDD Density Correction (HDRA)
GR   .GAPI                 :  HiRes Gamma-Ray (EHGR)
NEUT .V/V                  :  HiRes Thermal Neutron Porosity (HTNP)
PEF  .B/E                  :  HRDD High Resolution Formation Photoelectric Factor (PEF8)
RESD .OHMM                 :  Array Induction Two Foot Resistivity A90 (AHT90)
RESM .OHMM                 :  Array Induction Two Foot Resistivity A30 (AHT30)
RESS .OHMM                 :  Array Induction Two Foot Resistivity A10 (AHT10)
SP   .MV                   :  SP Shifted (SP)
TEMP .DEGC                 :  HTC Temperature (HTEM)
TENS .KGF                  :  Cable Tension (TENS)
~Parameter Information Block
#MNEM.UNIT            Value   Description
#---------- ----------------  -----------
CUR_INT_BOT.M                1899:  Current interpolated bottom
PROJECT.     New Zealand Log QC Project:  
SET  .     A0_FINAL_INTER_REF_D:  
ELEVATION_AMSL.M              262.91:  Elevation above mean sea level
ELEVATION_REF.                   DF:  Measurement reference
FORMATION_AT_TD.             Manganui:  Formation at TD
GL_ELEVATION_AMSL.M            259.3000:  Ground level elevation above mean sea level
KICK_OFF_DATE.           26/09/2005:  Kick off date
KICK_OFF_DEPTH.M                 645:  Kick off depth
LICENCE_NUMBER.             PMP38148:  Licence number
ONSHORE_OR_OFFSHORE.              Onshore:  Onshore/offshore
PARENT_WELL.            Ngatoro-3:  Parent well
PR_NUMBER.               PR3237:  Petroleum report number
STATUS_AT_COMPLETION.     Completed ready for perforating:  Status at completion
TD_DATE.           05/10/2005:  Total depth date
TOTAL_DEPTH_DRILLED.M             1898.82:  Total depth drilled
~Other Information Block
# 
~A       DEPTH             BS           CALI           DENS           DRHO             GR           NEUT            PEF           RESD           RESM           RESS             SP           TEMP           TENS 
# ...
     813.05400         6.0000         6.1040         2.2502      0.0242376        85.0968       0.330555         2.9146         5.4849         5.5596         5.4783       398.7607        45.0199       906.3500
     813.20640         6.0000         6.0817         2.2597      0.0259775        87.8414       0.342276         2.9589         5.5056         5.5886         5.4672       398.4345        45.0199       911.9557
     813.35880         6.0000         6.0594         2.2692      0.0277173        90.5861       0.353997         3.0031         5.5263         5.6176         5.4560       398.1084        45.0199       917.5614
     813.51120         6.0000         6.0368         2.2778      0.0292753        93.0427       0.364044         3.0437         5.5547         5.6465         5.4376       397.8565        45.0199       922.8204
     813.66360         6.0000         6.0104         2.2763      0.0285409        91.8674       0.352990         3.0396         5.6814         5.6745         5.3277       398.5391        45.0199       923.7093
     813.81600         6.0000         5.9840         2.2747      0.0278066        90.6922       0.341936         3.0355         5.8081         5.7026         5.2177       399.2217        45.0199       924.5981
     813.96840         6.0000         5.9576         2.2731      0.0270722        89.5170       0.330882         3.0314         5.9348         5.7306         5.1078       399.9044        45.0199       925.4869
     814.12080         6.0000         5.9876         2.2740      0.0219887        89.3456       0.329773         2.9779         5.9508         5.7765         5.0764       399.8108        45.0199       925.7889
     814.27320         6.0000         6.0323         2.2756      0.0157674        89.4367       0.331266         2.9116         5.9379         5.8271         5.0656       399.5142        45.0199       925.9374
     814.42560         6.0000         6.0770         2.2772      0.0095462        89.5279       0.332760         2.8452         5.9250         5.8777         5.0547       399.2176        45.0199       926.0858
     814.57800         6.0000         6.1016         2.2783      0.0064798        91.0057       0.331575         2.8333         5.8836         5.8418         5.1118       399.4761        45.0199       922.2265
     814.73040         6.0000         6.1067         2.2789      0.0064226        93.8061       0.327836         2.8733         5.8149         5.7235         5.2335       400.2640        45.0199       914.5444
     814.88280         6.0000         6.1119         2.2795      0.0063655        96.6065       0.324096         2.9134         5.7462         5.6051         5.3552       401.0519        45.0199       906.8622
     815.03520         6.0000         6.1089         2.2789      0.0062186        98.6266       0.321289         2.9361         5.6811         5.5105         5.4555       401.8306        45.0199       901.2323
     815.18760         6.0000         6.0784         2.2739      0.0057730        98.0486       0.321584         2.9010         5.6282         5.4949         5.4843       402.5789        45.0199       902.4351
     815.34000         6.0000         6.0478         2.2690      0.0053274        97.4706       0.321879         2.8659         5.5753         5.4792         5.5132       403.3272        45.0199       903.6380
     815.49240         6.0000         6.0173         2.2640      0.0048817        96.8926       0.322174         2.8308         5.5224         5.4636         5.5420       404.0755        45.0199       904.8408
     815.64480         6.0000         6.0975         2.2705      0.0033197        95.8344       0.332508         2.8415         5.4991         5.4347         5.4962       404.6685        45.0199       908.3441
     815.79720         6.0000         6.1836         2.2776      0.0016991        94.7509       0.343368         2.8547         5.4774         5.4051         5.4464       405.2534        45.0199       911.9681
     815.94960         6.0000         6.2696         2.2847      0.0000784        93.6675       0.354229         2.8678         5.4556         5.3754         5.3966       405.8383        45.0199       915.5921
     816.10200         6.0000         6.3775         2.2813     -0.0014177        92.1320       0.357794         2.8662         5.4354         5.3568         5.3757       405.3799        45.0199       916.4561
     816.25440         6.0000         6.4962         2.2727     -0.0028524        90.3731       0.357754         2.8573         5.4160         5.3435         5.3690       404.4059        45.0199       915.9564
     816.40680         6.0000         6.6148         2.2642     -0.0042870        88.6142       0.357715         2.8484         5.3966         5.3302         5.3623       403.4320        45.0199       915.4565
     816.55920         6.0000         6.7450         2.2586     -0.0040332        88.2771       0.359373         2.8478         5.3793         5.3167         5.3528       402.5590        45.0199       915.5678
     816.71160         6.0000         6.8931         2.2579     -0.0011213        90.1785       0.363705         2.8602         5.3652         5.3029         5.3387       401.8449        45.0199       916.6411
     816.86400         6.0000         7.0413         2.2571      0.0017906        92.0799       0.368036         2.8727         5.3511         5.2890         5.3245       401.1308        45.0199       917.7143
     817.01640         6.0000         7.1829         2.2564      0.0044263        93.9688       0.371379         2.8882         5.3390         5.2784         5.3152       400.4920        45.0199       919.4766
     817.16880         6.0000         7.2702         2.2562      0.0047712        95.7544       0.366525         2.9294         5.3427         5.2941         5.3461       400.4773        45.0199       926.9529
     817.32120         6.0000         7.3574         2.2561      0.0051162        97.5400       0.361670         2.9706         5.3465         5.3099         5.3770       400.4626        45.0199       934.4292
     817.47360         6.0000         7.4446         2.2560      0.0054612        99.3255       0.356815         3.0119         5.3503         5.3256         5.4079       400.4479        45.0199       941.9056
     817.62600         6.0000         7.3578         2.2561      0.0075847        98.2666       0.359488         2.9926         5.3166         5.3000         5.3891       399.0801        45.0199       941.2779
     817.77840         6.0000         7.2346         2.2562      0.0100808        96.6118       0.363738         2.9606         5.2750         5.2657         5.3599       397.4287        45.0199       938.9523
     817.93080         6.0000         7.1114         2.2563      0.0125769        94.9569       0.367989         2.9286         5.2334         5.2313         5.3307       395.7774        45.0199       936.6266
     818.08320         6.0000         6.9358         2.2567      0.0136343        94.2171       0.367650         2.9245         5.2005         5.1965         5.3022       395.5371        45.0199       936.8066
     818.23560         6.0000         6.7165         2.2574      0.0134951        94.2383       0.363496         2.9436         5.1748         5.1611         5.2743       396.4706        45.0199       939.0706
     818.38800         6.0000         6.4972         2.2581      0.0133560        94.2596       0.359342         2.9627         5.1491         5.1257         5.2463       397.4040        45.0199       941.3345
     818.54040         6.0000         6.3047         2.2593      0.0120169        93.9401       0.355504         2.9710         5.1382         5.1126         5.2361       398.2934        45.0199       939.3127
     818.69280         6.0000         6.1863         2.2616      0.0073515        92.6760       0.352544         2.9495         5.1682         5.1612         5.2750       399.0608        45.0199       925.4094
     818.84520         6.0000         6.0678         2.2640      0.0026860        91.4120       0.349583         2.9280         5.1983         5.2097         5.3139       399.8281        45.0199       911.5062
