~Version Information Block
VERS .                 2.00:  CWLS LOG ASCII STANDARD - VERSION 2.00
WRAP .                   NO:  One line per depth step
~Well Information Block
#MNEM.UNIT        Data Type   Information
#---------- ----------------  -----------
STRT .M           376.58040:  START DEPTH
STOP .M          2000.85960:  STOP DEPTH
STEP .M             0.15240:  STEP
NULL .              -999.25:  NULL VALUE
COMP .                     :  COMPANY
WELL .            Ngatoro-9:  WELL
FLD  .                     :  FIELD
LOC  .                     :  LOCATION
CTRY .                     :  COUNTRY
STAT .                     :  STATE
CNTY .                     :  COUNTY
SRVC .     New Zealand Petroleum Co Ltd:  SERVICE COMPANY
DATE .                     :  DATE
API  .                     :  API NUMBER
UWI  .         100000290639:  UNIQUE WELL ID
LATI .          -39.1948838:  LATITUDE
LONG .          174.1848348:  LONGITUDE
~Curve Information Block
#MNEM.UNIT         API CODE   Curve Description
#---------- ----------------  -----------------
DEPTH.M                    :  
BS   .IN                   :  Bit Size (Created in Geolog)
CALI .IN                   :  Caliper Log (CALI)
DENS .G/C3                 :  Compensated Formation Density Log (RHOB)
DRHO .G/C3                 :  Density Log Correction (DRHO)
DTC  .US/F                 :  3-5 Ft Compensated Sonic (BPB) (DTC1)
GR   .GAPI                 :  Gamma-Ray Log (GR)
GR_CORR.GAPI                 :  Gamma ray corrected
NEUT .V/V                  :  Neutron Log Porosity (NPHI)
NEUT_CORR.V/V                  :  Corrected NPHI (limestone units)
PEF  .B/E                  :  Photoelectric Factor (PEDF)
RESD .OHMM                 :  Laterolog Deep Resistivity (LLD)
RESD_CORR.OHMM                 :  Borehole corrected LLD
RESS .OHMM                 :  Shallow Laterolog (LLS)
RESS_CORR.OHMM                 :  Borehole corrected LLS
SP   .MV                   :  Spontaneous Potential Log (SP)
TEMP .DEGC                 :  Temperature (TEMP)
TENS .KGF                  :  Cable tension at surface (TENS)
~Parameter Information Block
#MNEM.UNIT            Value   Description
#---------- ----------------  -----------
CUR_INT_BOT.M              2001.5:  Current interpolated bottom
PROJECT.     New Zealand Log QC Project:  
SET  .     A0_FINAL_INTER_REF_D:  
ELEVATION_AMSL.M              291.65:  Elevation above mean sea level
ELEVATION_REF.                   KB:  Measurement reference
FORMATION_AT_TD.      Mount Messenger:  Formation at TD
GL_ELEVATION_AMSL.M            286.3000:  Ground level elevation above mean sea level
LICENCE_NUMBER.             PMP38148:  Licence number
ONSHORE_OR_OFFSHORE.              Onshore:  Onshore/offshore
PR_NUMBER.               PR2437:  Petroleum report number
SPUD_DATE.           06/06/1998:  Spud date
STATUS_AT_COMPLETION.     Cased and suspended as a potential oil producer:  Status at completion
TD_DATE.           20/06/1998:  Total depth date
TOTAL_DEPTH_DRILLED.M              2001.5:  Total depth drilled
~Other Information Block
# 
~A       DEPTH             BS           CALI           DENS           DRHO            DTC             GR        GR_CORR           NEUT      NEUT_CORR            PEF           RESD      RESD_CORR           RESS      RESS_CORR             SP           TEMP           TENS 
# ...
    1551.58440         8.5000         9.4928         2.4150      0.0313745        92.6764       114.9754       120.8385       0.296120       0.271947         3.1314         2.4882         2.5123         2.8552         2.9854        23.5114        50.4384       359.1289
    1551.73680         8.5000         9.3718         2.4002      0.0303289        92.0245       114.5933       119.7416       0.299666       0.277524         3.0277         2.4470         2.4661         2.7987         2.9197        23.5523        50.4313       359.2542
    1551.88920         8.5000         9.2507         2.3855      0.0292833        91.3725       114.2113       118.6448       0.303212       0.283101         2.9241         2.4057         2.4198         2.7422         2.8541        23.5932        50.4241       359.3793
    1552.04160         8.5000         9.1621         2.3732      0.0293411        91.2179       113.9158       117.8253       0.306238       0.287589         2.8515         2.3370         2.3465         2.6608         2.7650        23.6021        50.4217       359.4256
    1552.19400         8.5000         9.1599         2.3677      0.0323376        92.3877       113.8510       117.7447       0.307877       0.289178         2.8616         2.1953         2.2011         2.5130         2.6133        23.5254        50.4318       359.2615
    1552.34640         8.5000         9.1577         2.3621      0.0353342        93.5575       113.7861       117.6641       0.309515       0.290766         2.8717         2.0535         2.0558         2.3651         2.4616        23.4487        50.4420       359.0974
    1552.49880         8.5000         9.1555         2.3565      0.0383307        94.7273       113.7213       117.5834       0.311154       0.292355         2.8818         1.9118         1.9105         2.2173         2.3100        23.3721        50.4521       358.9334
    1552.65120         8.5000         9.1375         2.3666      0.0357972        95.1064       113.8381       117.5996       0.306017       0.287859         2.9395         1.9639         1.9633         2.2652         2.3582        22.9683        50.4557       358.0067
    1552.80360         8.5000         9.1194         2.3769      0.0332198        95.4792       113.9563       117.6165       0.300826       0.283316         2.9975         2.0174         2.0177         2.3147         2.4081        22.5619        50.4593       357.0739
    1552.95600         8.5000         9.1013         2.3872      0.0306424        95.8520       114.0745       117.6334       0.295635       0.278772         3.0556         2.0710         2.0721         2.3642         2.4580        22.1555        50.4628       356.1411
    1553.10840         8.5000         9.0695         2.3876      0.0291449        95.8997       112.8490       116.1924       0.296636       0.280360         3.0649         2.1298         2.1314         2.4223         2.5158        22.1025        50.4639       355.8344
    1553.26080         8.5000         9.0323         2.3842      0.0280856        95.8154       111.0782       114.1596       0.300149       0.284436         3.0545         2.1908         2.1926         2.4839         2.5768        22.1930        50.4639       355.7817
    1553.41320         8.5000         8.9950         2.3807      0.0270263        95.7311       109.3073       112.1269       0.303662       0.288513         3.0441         2.2518         2.2538         2.5455         2.6378        22.2835        50.4639       355.7291
    1553.56560         8.5000         8.9569         2.3739      0.0256186        95.5270       108.2977       110.8729       0.301287       0.286983         3.0133         2.2604         2.2615         2.5484         2.6390        22.2344        50.4639       355.9017
    1553.71800         8.5000         8.9176         2.3627      0.0237499        95.1642       108.2952       110.6492       0.291119       0.278035         2.9555         2.1998         2.1985         2.4736         2.5611        22.0008        50.4639       356.3723
    1553.87040         8.5000         8.8784         2.3515      0.0218811        94.8014       108.2927       110.4256       0.280951       0.269088         2.8978         2.1392         2.1354         2.3988         2.4831        21.7672        50.4639       356.8429
    1554.02280         8.5000         8.8421         2.3428      0.0208907        94.5509       108.3115       110.2402       0.271954       0.261197         2.8530         2.0812         2.0751         2.3292         2.4106        21.6361        50.4639       357.1993
    1554.17520         8.5000         8.8227         2.3480      0.0248931        94.9380       108.4514       110.2722       0.269609       0.259314         2.8821         2.0381         2.0307         2.2888         2.3689        22.0881        50.4639       356.9069
    1554.32760         8.5000         8.8034         2.3532      0.0288956        95.3252       108.5913       110.3042       0.267265       0.257431         2.9111         1.9951         1.9862         2.2485         2.3272        22.5402        50.4639       356.6144
    1554.48000         8.5000         8.7840         2.3585      0.0328980        95.7124       108.7312       110.3362       0.264920       0.255548         2.9402         1.9520         1.9418         2.2082         2.2855        22.9922        50.4639       356.3220
    1554.63240         8.5000         8.7872         2.3585      0.0307200        95.3895       109.3504       110.9836       0.271812       0.262110         2.9511         1.9817         1.9721         2.2393         2.3170        23.0904        50.4639       356.4976
    1554.78480         8.5000         8.7938         2.3579      0.0276083        94.9593       110.0420       111.7238       0.280098       0.269947         2.9593         2.0223         2.0137         2.2811         2.3597        23.1351        50.4639       356.7439
    1554.93720         8.5000         8.8003         2.3572      0.0244967        94.5291       110.7337       112.4641       0.288385       0.277785         2.9675         2.0629         2.0552         2.3229         2.4024        23.1798        50.4639       356.9901
    1555.08960         8.5000         8.8027         2.3580      0.0253000        94.5354       110.8006       112.5455       0.292201       0.281408         2.9619         2.0782         2.0709         2.3392         2.4190        23.1770        50.4774       357.0888
    1555.24200         8.5000         8.8021         2.3600      0.0288472        94.8476       110.4296       112.1651       0.292884       0.282077         2.9467         2.0759         2.0685         2.3376         2.4173        23.1408        50.5004       357.0841
    1555.39440         8.5000         8.8015         2.3619      0.0323945        95.1598       110.0586       111.7848       0.293567       0.282746         2.9315         2.0735         2.0660         2.3360         2.4156        23.1047        50.5234       357.0793
    1555.54680         8.5000         8.7967         2.3623      0.0342559        95.2854       109.5587       111.2497       0.293264       0.282552         2.9171         2.0727         2.0651         2.3355         2.4149        23.0673        50.5414       357.2568
    1555.69920         8.5000         8.7823         2.3592      0.0323135        94.9899       108.7680       110.3657       0.290737       0.280411         2.9047         2.0755         2.0675         2.3377         2.4165        23.0272        50.5480       357.8452
    1555.85160         8.5000         8.7679         2.3562      0.0303711        94.6944       107.9773       109.4817       0.288210       0.278271         2.8922         2.0783         2.0699         2.3400         2.4181        22.9870        50.5547       358.4337
    1556.00400         8.5000         8.7542         2.3534      0.0284367        94.4022       107.2458       108.6613       0.285581       0.276019         2.8805         2.0820         2.0733         2.3431         2.4207        22.9394        50.5609       358.9948
