~Version Information Block
VERS .                 2.00:  CWLS LOG ASCII STANDARD - VERSION 2.00
WRAP .                   NO:  One line per depth step
~Well Information Block
#MNEM.UNIT        Data Type   Information
#---------- ----------------  -----------
STRT .M           514.50240:  START DEPTH
STOP .M          1925.26920:  STOP DEPTH
STEP .M             0.15240:  STEP
NULL .              -999.25:  NULL VALUE
COMP .                     :  COMPANY
WELL .            Ngatoro-6:  WELL
FLD  .                     :  FIELD
LOC  .                     :  LOCATION
CTRY .                     :  COUNTRY
STAT .                     :  STATE
CNTY .                     :  COUNTY
SRVC .     New Zealand Petroleum Co Ltd:  SERVICE COMPANY
DATE .                     :  DATE
API  .                     :  API NUMBER
UWI  .         100000210185:  UNIQUE WELL ID
LATI .          -39.2039386:  LATITUDE
LONG .          174.1707675:  LONGITUDE
~Curve Information Block
#MNEM.UNIT         API CODE   Curve Description
#---------- ----------------  -----------------
DEPTH.M                    :  
BS   .IN                   :  Bit Size (Created in Geolog)
CALI .IN                   :  CALIPER (HCAL)
DENS .G/C3                 :  Bulk Density (RHOZ) and HR Bulk Density (RHO8)
DTC  .US/F                 :  Delta Time Compressional (DTCO)
DTS  .US/F                 :  Delta-T Shear (DTSM)
GR   .GAPI                 :  Gamma Ray (GR) and HR Gamma Ray (HGR)
NEUT .V/V                  :  Neutron Porosity (NPHI) and HR Neutron Porosity (HTNP)
NEUT_CORR.V/V                  :  Corrected NPHI (limestone units)
PEF  .B/E                  :  HRDD Std Resolution Formation Photoelectric Factor (PEFZ) and (PEF8)
RESD .OHMM                 :  HALS Deep Res. (HLLD) and HR HALS Deep Res. (HRLD)
RESS .OHMM                 :  HALS Shallow Res. (HLLS) and HR HALS Shallow Res. (HRLS)
SP   .MV                   :  Spontaneous Potential (SP)
~Parameter Information Block
#MNEM.UNIT            Value   Description
#---------- ----------------  -----------
CUR_INT_BOT.M                1930:  Current interpolated bottom
PROJECT.     New Zealand Log QC Project:  
SET  .     A0_FINAL_INTER_REF_D:  
ELEVATION_AMSL.M                 328:  Elevation above mean sea level
ELEVATION_REF.                   KB:  Measurement reference
FORMATION_AT_TD.      Mount Messenger:  Formation at TD
GL_ELEVATION_AMSL.M            322.5000:  Ground level elevation above mean sea level
LICENCE_NUMBER.             PPL38706:  Licence number
ONSHORE_OR_OFFSHORE.              Onshore:  Onshore/offshore
PR_NUMBER.               PR2214:  Petroleum report number
SPUD_DATE.           27/03/1996:  Spud date
STATUS_AT_COMPLETION.     Suspended with 7" casing cemented in place:  Status at completion
TD_DATE.           04/04/1996:  Total depth date
TOTAL_DEPTH_DRILLED.M                1930:  Total depth drilled
~Other Information Block
# 
~A       DEPTH             BS           CALI           DENS            DTC            DTS             GR           NEUT      NEUT_CORR            PEF           RESD           RESS             SP 
# ...
    1090.57440         8.5000         8.6259         2.3957      -999.2500      -999.2500       103.5371       0.222670       0.217677         3.3513         4.7203         4.7790       192.9608
    1090.72680         8.5000         8.5815         2.4395      -999.2500      -999.2500       101.1826       0.208624       0.204172         3.3736         7.1393         7.1632       193.1536
    1090.87920         8.5000         8.5372         2.4833      -999.2500      -999.2500        98.8281       0.194578       0.190666         3.3958         9.5582         9.5475       193.3465
    1091.03160         8.5000         8.4943         2.5125      -999.2500      -999.2500        97.4292       0.188969       0.185434         3.4070        11.1132        11.0787       193.5018
    1091.18400         8.5000         8.4573         2.4858      -999.2500      -999.2500        99.6830       0.215616       0.211827         3.3761         9.3658         9.3489       193.5136
    1091.33640         8.5000         8.4202         2.4590      -999.2500      -999.2500       101.9368       0.242262       0.238221         3.3453         7.6184         7.6192       193.5254
    1091.48880         8.5000         8.3831         2.4323      -999.2500      -999.2500       104.1906       0.268908       0.264615         3.3144         5.8711         5.8894       193.5372
    1091.64120         8.5000         8.4173         2.4089      -999.2500      -999.2500       103.1683       0.270678       0.266284         3.2734         5.1860         5.2013       193.7398
    1091.79360         8.5000         8.4571         2.3857      -999.2500      -999.2500       101.8862       0.270475       0.265991         3.2316         4.5851         4.5959       193.9574
    1091.94600         8.5000         8.4969         2.3626      -999.2500      -999.2500       100.6040       0.270272       0.265699         3.1899         3.9843         3.9904       194.1751
    1092.09840         8.5000         8.5160         2.3539      -999.2500      -999.2500       100.0727       0.272156       0.267944         3.1673         3.7530         3.7665       193.9151
    1092.25080         8.5000         8.5238         2.3531      -999.2500      -999.2500        99.9534       0.275185       0.271581         3.1552         3.7246         3.7518       193.3929
    1092.40320         8.5000         8.5316         2.3523      -999.2500      -999.2500        99.8342       0.278214       0.275218         3.1431         3.6961         3.7372       192.8707
    1092.55560         8.5000         8.5402         2.3509      -999.2500      -999.2500        99.2816       0.281018       0.278446         3.1392         3.6687         3.7098       192.4036
    1092.70800         8.5000         8.5505         2.3486      -999.2500      -999.2500        97.9747       0.283432       0.280961         3.1496         3.6432         3.6602       192.0325
    1092.86040         8.5000         8.5608         2.3462      -999.2500      -999.2500        96.6679       0.285845       0.283475         3.1600         3.6176         3.6106       191.6614
    1093.01280         8.5000         8.5696         2.3441      -999.2500      -999.2500        95.5267       0.287305       0.284966         3.1683         3.5977         3.5658       191.3358
    1093.16520         8.5000         8.5626         2.3448      -999.2500      -999.2500        96.1926       0.278366       0.275290         3.1535         3.6390         3.5728       191.5054
    1093.31760         8.5000         8.5555         2.3454      -999.2500      -999.2500        96.8585       0.269427       0.265613         3.1387         3.6802         3.5798       191.6750
    1093.47000         8.5000         8.5485         2.3461      -999.2500      -999.2500        97.5244       0.260489       0.255937         3.1238         3.7215         3.5869       191.8447
    1093.62240         8.5000         8.5344         2.3458      -999.2500      -999.2500        97.9200       0.265338       0.261216         3.1011         3.7386         3.5816       192.1577
    1093.77480         8.5000         8.5185         2.3452      -999.2500      -999.2500        98.2492       0.273567       0.270162         3.0765         3.7498         3.5733       192.5058
    1093.92720         8.5000         8.5026         2.3446      -999.2500      -999.2500        98.5785       0.281795       0.279107         3.0518         3.7611         3.5650       192.8539
    1094.07960         8.5000         8.4810         2.3433      -999.2500      -999.2500        98.3136       0.287354       0.285481         3.0489         3.7174         3.5136       193.0797
    1094.23200         8.5000         8.4542         2.3412      -999.2500      -999.2500        97.5051       0.290470       0.289503         3.0659         3.6236         3.4228       193.1937
    1094.38440         8.5000         8.4273         2.3392      -999.2500      -999.2500        96.6966       0.293587       0.293525         3.0830         3.5298         3.3321       193.3077
    1094.53680         8.5000         8.4104         2.3353      -999.2500      -999.2500        95.9725       0.297233       0.297713         3.1006         3.4478         3.2509       193.3638
    1094.68920         8.5000         8.4246         2.3255      -999.2500      -999.2500        95.5131       0.302542       0.302423         3.1200         3.4031         3.1998       193.2383
    1094.84160         8.5000         8.4388         2.3156      -999.2500      -999.2500        95.0536       0.307852       0.307133         3.1394         3.3584         3.1488       193.1127
    1094.99400         8.5000         8.4530         2.3058      -999.2500      -999.2500        94.5942       0.313161       0.311843         3.1588         3.3137         3.0977       192.9871
    1095.14640         8.5000         8.4274         2.3083      -999.2500      -999.2500        95.8166       0.309305       0.308537         3.1624         3.3211         3.0940       193.4813
    1095.29880         8.5000         8.4001         2.3114      -999.2500      -999.2500        97.1079       0.305073       0.304901         3.1654         3.3306         3.0922       194.0008
    1095.45120         8.5000         8.3729         2.3144      -999.2500      -999.2500        98.3992       0.300841       0.301266         3.1685         3.3401         3.0903       194.5203
    1095.60360         8.5000         8.3764         2.3159      -999.2500      -999.2500        98.1991       0.298631       0.299103         3.1644         3.3280         3.0762       194.5922
    1095.75600         8.5000         8.3943         2.3167      -999.2500      -999.2500        97.2966       0.297372       0.297634         3.1571         3.3058         3.0563       194.4531
    1095.90840         8.5000         8.4122         2.3175      -999.2500      -999.2500        96.3941       0.296114       0.296165         3.1497         3.2835         3.0364       194.3140
    1096.06080         8.5000         8.4259         2.3174      -999.2500      -999.2500        95.9564       0.295830       0.295770         3.1437         3.2745         3.0283       194.2390
    1096.21320         8.5000         8.4333         2.3161      -999.2500      -999.2500        96.2191       0.297015       0.296994         3.1397         3.2852         3.0379       194.2604
    1096.36560         8.5000         8.4406         2.3148      -999.2500      -999.2500        96.4818       0.298199       0.298218         3.1357         3.2960         3.0476       194.2818
    1096.51800         8.5000         8.4468         2.3126      -999.2500      -999.2500        96.7788       0.300082       0.300075         3.1283         3.2835         3.0365       194.3125
    1096.67040         8.5000         8.4445         2.3037      -999.2500      -999.2500        97.3322       0.307183       0.306654         3.0957         3.0974         2.8705       194.4124
    1096.82280         8.5000         8.4422         2.2948      -999.2500      -999.2500        97.8856       0.314283       0.313232         3.0631         2.9113         2.7044       194.5123
