~Version Information Block
VERS .                 2.00:  CWLS LOG ASCII STANDARD - VERSION 2.00
WRAP .                   NO:  One line per depth step
~Well Information Block
#MNEM.UNIT        Data Type   Information
#---------- ----------------  -----------
STRT .M           422.60520:  START DEPTH
STOP .M          2060.90520:  STOP DEPTH
STEP .M             0.15240:  STEP
NULL .              -999.25:  NULL VALUE
COMP .                     :  COMPANY
WELL .           Ngatoro-11:  WELL
FLD  .                     :  FIELD
LOC  .                     :  LOCATION
CTRY .                     :  COUNTRY
STAT .                     :  STATE
CNTY .                     :  COUNTY
SRVC .     New Zealand Petroleum Co Ltd:  SERVICE COMPANY
DATE .                     :  DATE
API  .                     :  API NUMBER
UWI  .         100000290650:  UNIQUE WELL ID
LATI .          -39.1949222:  LATITUDE
LONG .          174.1848583:  LONGITUDE
~Curve Information Block
#MNEM.UNIT         API CODE   Curve Description
#---------- ----------------  -----------------
DEPTH.M                    :  
BS   .IN                   :  Bit Size (Created in Geolog)
CALI .IN                   :  Caliper Log (CALI)
DENS .G/C3                 :  Compensated Formation Density Log (RHOB)
DRHO .G/C3                 :  Density Log Correction (DRHO)
DTC  .US/F                 :  8-10 Ft Compensated Sonic (BPB) (DTC3)
GR   .GAPI                 :  Gamma-Ray Log (GR)
GR_CORR.GAPI                 :  Gamma ray corrected
NEUT .V/V                  :  Neutron Log Porosity (NPHI)
NEUT_CORR.V/V                  :  Corrected NPHI (limestone units)
PEF  .B/E                  :  Photoelectric Factor (PEDF)
RESD .OHMM                 :  Laterolog Deep Resistivity (LLD)
RESD_CORR.OHMM                 :  Borehole corrected LLD
RESS .OHMM                 :  Shallow Laterolog (LLS)
RESS_CORR.OHMM                 :  Borehole corrected LLS
SP   .MV                   :  Spontaneous Potential Log (SP)
TENS .KGF                  :  Cable tension at surface (TENS)
~Parameter Information Block
#MNEM.UNIT            Value   Description
#---------- ----------------  -----------
CUR_INT_BOT.M                2063:  Current interpolated bottom
PROJECT.     New Zealand Log QC Project:  
SET  .     A0_FINAL_INTER_REF_D:  
ELEVATION_AMSL.M              291.65:  Elevation above mean sea level
ELEVATION_REF.                   KB:  Measurement reference
FORMATION_AT_TD.      Mount Messenger:  Formation at TD
GL_ELEVATION_AMSL.M            286.3000:  Ground level elevation above mean sea level
LICENCE_NUMBER.             PMP38148:  Licence number
ONSHORE_OR_OFFSHORE.              Onshore:  Onshore/offshore
PR_NUMBER.               PR2438:  Petroleum report number
SPUD_DATE.           28/06/1998:  Spud date
STATUS_AT_COMPLETION.     Cased and suspended as a future oil producer:  Status at completion
TD_DATE.           15/07/1998:  Total depth date
TOTAL_DEPTH_DRILLED.M                2063:  Total depth drilled
~Other Information Block
# 
~A       DEPTH             BS           CALI           DENS           DRHO            DTC             GR        GR_CORR           NEUT      NEUT_CORR            PEF           RESD      RESD_CORR           RESS      RESS_CORR             SP           TENS 
# ...
    1490.62440         8.5000        10.0883         2.4208       0.049437        94.3364       109.3184       118.0794       0.322140       0.286245         3.0200         2.3995         2.4523         2.6394         2.7976       167.0338      1674.1362
    1490.77680         8.5000        10.0839         2.4181       0.047556        94.0978       113.0104       122.0430       0.331474       0.294707         3.0229         2.4009         2.4537         2.6391         2.7970       167.1786      1674.2610
    1490.92920         8.5000        10.0796         2.4153       0.045675        93.8592       116.7025       126.0066       0.340809       0.303169         3.0259         2.4024         2.4551         2.6389         2.7963       167.3234      1674.3856
    1491.08160         8.5000        10.0711         2.4150       0.044765        94.1709       118.3962       127.7881       0.348421       0.310164         2.9962         2.3971         2.4493         2.6332         2.7897       167.3017      1672.9799
    1491.23400         8.5000        10.0590         2.4168       0.044700        94.9600       118.3560       127.6763       0.354537       0.315886         2.9381         2.3859         2.4374         2.6230         2.7778       167.1356      1670.2465
    1491.38640         8.5000        10.0469         2.4186       0.044634        95.7491       118.3158       127.5645       0.360654       0.321608         2.8801         2.3747         2.4255         2.6128         2.7659       166.9695      1667.5129
    1491.53880         8.5000        10.0303         2.4197       0.044333        96.2353       118.2167       127.3635       0.363084       0.324098         2.8495         2.3673         2.4174         2.6080         2.7594       166.7778      1663.3849
    1491.69120         8.5000        10.0005         2.4185       0.043345        95.8346       117.9451       126.9013       0.354723       0.317126         2.8990         2.3710         2.4203         2.6191         2.7690       166.5114      1655.1735
    1491.84360         8.5000         9.9706         2.4174       0.042357        95.4338       117.6735       126.4392       0.346362       0.310154         2.9485         2.3747         2.4233         2.6301         2.7785       166.2450      1646.9620
    1491.99600         8.5000         9.9408         2.4163       0.041369        95.0331       117.4020       125.9771       0.338001       0.303182         2.9981         2.3783         2.4262         2.6412         2.7880       165.9785      1638.7507
    1492.14840         8.5000         9.9072         2.4151       0.040979        94.2063       116.5897       124.9186       0.327811       0.294530         2.9642         2.4091         2.4570         2.6725         2.8187       166.1525      1652.0293
    1492.30080         8.5000         9.8735         2.4139       0.040605        93.3680       115.7629       123.8441       0.317571       0.285834         2.9281         2.4405         2.4885         2.7043         2.8499       166.3383      1665.8871
    1492.45320         8.5000         9.8398         2.4127       0.040230        92.5297       114.9360       122.7696       0.307332       0.277137         2.8920         2.4720         2.5201         2.7362         2.8811       166.5241      1679.7449
    1492.60560         8.5000         9.8287         2.4134       0.039223        93.4703       113.6717       121.3567       0.310310       0.280054         2.9065         2.4381         2.4847         2.7006         2.8428       166.6312      1674.2354
    1492.75800         8.5000         9.8276         2.4150       0.037935        95.1992       112.2135       119.7938       0.319146       0.288118         2.9433         2.3753         2.4198         2.6350         2.7738       166.7033      1660.1426
    1492.91040         8.5000         9.8266         2.4166       0.036646        96.9281       110.7553       118.2309       0.327982       0.296182         2.9802         2.3124         2.3548         2.5695         2.7048       166.7755      1646.0498
    1493.06280         8.5000         9.8148         2.4159       0.034831        97.7699       111.9371       119.4200       0.337917       0.305463         3.0018         2.2772         2.3180         2.5332         2.6658       166.6277      1634.1117
    1493.21520         8.5000         9.7879         2.4119       0.032264        97.3460       116.8856       124.5356       0.349420       0.316479         3.0015         2.2813         2.3215         2.5385         2.6696       166.1662      1625.2477
    1493.36760         8.5000         9.7610         2.4079       0.029697        96.9221       121.8341       129.6512       0.360922       0.327495         3.0012         2.2854         2.3249         2.5438         2.6735       165.7046      1616.3837
    1493.52000         8.5000         9.7326         2.4046       0.027275        96.5490       126.1546       134.0870       0.370880       0.337138         2.9935         2.2906         2.3296         2.5500         2.6781       165.2812      1611.2592
    1493.67240         8.5000         9.6942         2.4056       0.025817        96.5121       126.3180       134.0217       0.370606       0.337689         2.9369         2.3039         2.3421         2.5618         2.6880       165.1098      1630.8907
    1493.82480         8.5000         9.6558         2.4066       0.024358        96.4752       126.4814       133.9565       0.370332       0.338240         2.8804         2.3172         2.3547         2.5737         2.6978       164.9384      1650.5222
    1493.97720         8.5000         9.6173         2.4076       0.022899        96.4383       126.6448       133.8912       0.370059       0.338791         2.8238         2.3304         2.3672         2.5855         2.7077       164.7670      1670.1538
    1494.12960         8.5000         9.5768         2.4059       0.022407        96.2273       123.0349       129.8455       0.347260       0.318508         2.8567         2.3435         2.3794         2.5987         2.7187       165.0133      1666.3281
    1494.28200         8.5000         9.5359         2.4038       0.022085        95.9856       118.7612       125.0996       0.320499       0.294558         2.9054         2.3565         2.3915         2.6121         2.7300       165.3332      1658.3759
    1494.43440         8.5000         9.4950         2.4017       0.021763        95.7439       114.4875       120.3536       0.293738       0.270609         2.9540         2.3695         2.4036         2.6256         2.7412       165.6531      1650.4235
    1494.58680         8.5000         9.4550         2.4017       0.022331        95.4842       112.5968       118.1299       0.280906       0.259467         2.9596         2.3694         2.4023         2.6268         2.7398       165.8643      1639.4757
    1494.73920         8.5000         9.4155         2.4033       0.023573        95.2110       112.5070       117.8124       0.278602       0.258004         2.9328         2.3594         2.3908         2.6188         2.7289       165.9934      1626.2640
    1494.89160         8.5000         9.3761         2.4049       0.024815        94.9378       112.4172       117.4950       0.276297       0.256542         2.9059         2.3495         2.3793         2.6109         2.7179       166.1224      1613.0525
    1495.04400         8.5000         9.3496         2.4053       0.024905        94.7072       112.7727       117.7161       0.278336       0.258908         2.8984         2.3518         2.3809         2.6147         2.7201       166.0898      1610.7568
    1495.19640         8.5000         9.3550         2.4030       0.022155        94.5820       114.2254       119.2642       0.291073       0.270707         2.9384         2.3844         2.4146         2.6478         2.7547       165.6587      1635.3539
    1495.34880         8.5000         9.3604         2.4007       0.019405        94.4568       115.6780       120.8124       0.303811       0.282507         2.9784         2.4171         2.4483         2.6809         2.7893       165.2276      1659.9510
