~Version Information Block
VERS .                 2.00:  CWLS LOG ASCII STANDARD - VERSION 2.00
WRAP .                   NO:  One line per depth step
~Well Information Block
#MNEM.UNIT        Data Type   Information
#---------- ----------------  -----------
STRT .M           422.60520:  START DEPTH
STOP .M          2060.90520:  STOP DEPTH
STEP .M             0.15240:  STEP
NULL .              -999.25:  NULL VALUE
COMP .                     :  COMPANY
WELL .           Ngatoro-11:  WELL
FLD  .                     :  FIELD
LOC  .                     :  LOCATION
CTRY .                     :  COUNTRY
STAT .                     :  STATE
CNTY .                     :  COUNTY
SRVC .     New Zealand Petroleum Co Ltd:  SERVICE COMPANY
DATE .                     :  DATE
API  .                     :  API NUMBER
UWI  .         100000290650:  UNIQUE WELL ID
LATI .          -39.1949222:  LATITUDE
LONG .          174.1848583:  LONGITUDE
~Curve Information Block
#MNEM.UNIT         API CODE   Curve Description
#---------- ----------------  -----------------
DEPTH.M                    :  
BS   .IN                   :  Bit Size (Created in Geolog)
CALI .IN                   :  Caliper Log (CALI)
DENS .G/C3                 :  Compensated Formation Density Log (RHOB)
DRHO .G/C3                 :  Density Log Correction (DRHO)
DTC  .US/F                 :  8-10 Ft Compensated Sonic (BPB) (DTC3)
GR   .GAPI                 :  Gamma-Ray Log (GR)
GR_CORR.GAPI                 :  Gamma ray corrected
NEUT .V/V                  :  Neutron Log Porosity (NPHI)
NEUT_CORR.V/V                  :  Corrected NPHI (limestone units)
PEF  .B/E                  :  Photoelectric Factor (PEDF)
RESD .OHMM                 :  Laterolog Deep Resistivity (LLD)
RESD_CORR.OHMM                 :  Borehole corrected LLD
RESS .OHMM                 :  Shallow Laterolog (LLS)
RESS_CORR.OHMM                 :  Borehole corrected LLS
SP   .MV                   :  Spontaneous Potential Log (SP)
TENS .KGF                  :  Cable tension at surface (TENS)
~Parameter Information Block
#MNEM.UNIT            Value   Description
#---------- ----------------  -----------
CUR_INT_BOT.M                2063:  Current interpolated bottom
PROJECT.     New Zealand Log QC Project:  
SET  .     A0_FINAL_INTER_REF_D:  
ELEVATION_AMSL.M              291.65:  Elevation above mean sea level
ELEVATION_REF.                   KB:  Measurement reference
FORMATION_AT_TD.      Mount Messenger:  Formation at TD
GL_ELEVATION_AMSL.M            286.3000:  Ground level elevation above mean sea level
LICENCE_NUMBER.             PMP38148:  Licence number
ONSHORE_OR_OFFSHORE.              Onshore:  Onshore/offshore
PR_NUMBER.               PR2438:  Petroleum report number
SPUD_DATE.           28/06/1998:  Spud date
STATUS_AT_COMPLETION.     Cased and suspended as a future oil producer:  Status at completion
TD_DATE.           15/07/1998:  Total depth date
TOTAL_DEPTH_DRILLED.M                2063:  Total depth drilled
~Other Information Block
# 
~A       DEPTH             BS           CALI           DENS           DRHO            DTC             GR        GR_CORR           NEUT      NEUT_CORR            PEF           RESD      RESD_CORR           RESS      RESS_CORR             SP           TENS 
# ...
    1061.46600         8.5000         9.7113         2.3391       0.010068       102.1980       102.0692       108.3811       0.344991       0.312321         2.9687         2.8281         2.8780         2.9184         3.0636       186.6771      1189.3645
    1061.61840         8.5000         9.6664         2.3401       0.009404       102.0224       102.8642       108.9931       0.346130       0.314253         2.9574         2.8088         2.8564         2.8982         3.0392       187.2574      1191.6276
    1061.77080         8.5000         9.6209         2.3422       0.008954       101.6842       103.8728       109.8264       0.348102       0.316957         2.9357         2.7935         2.8390         2.8802         3.0171       187.8220      1193.8475
    1061.92320         8.5000         9.5754         2.3444       0.008504       101.3459       104.8815       110.6597       0.350074       0.319662         2.9140         2.7781         2.8215         2.8621         2.9950       188.3866      1196.0675
    1062.07560         8.5000         9.5572         2.3450       0.008596       101.2313       106.5314       112.3091       0.348724       0.318778         2.8845         2.7640         2.8063         2.8476         2.9785       188.4329      1196.2947
    1062.22800         8.5000         9.5665         2.3440       0.009239       101.3439       108.8327       114.7875       0.344000       0.314251         2.8471         2.7511         2.7934         2.8367         2.9678       187.9527      1194.4972
    1062.38040         8.5000         9.5759         2.3430       0.009883       101.4565       111.1341       117.2659       0.339276       0.309723         2.8097         2.7382         2.7804         2.8258         2.9571       187.4726      1192.6997
    1062.53280         8.5000         9.5792         2.3422       0.010757       101.4711       112.5699       118.7985       0.331133       0.302155         2.7833         2.7327         2.7749         2.8213         2.9527       187.1108      1191.3398
    1062.68520         8.5000         9.5604         2.3419       0.012476       101.1281       110.8493       116.8825       0.310523       0.283499         2.7969         2.7544         2.7965         2.8405         2.9713       187.1804      1191.5756
    1062.83760         8.5000         9.5415         2.3416       0.014194       100.7851       109.1287       114.9664       0.289914       0.264843         2.8105         2.7761         2.8182         2.8596         2.9899       187.2500      1191.8114
    1062.99000         8.5000         9.5227         2.3413       0.015912       100.4422       107.4081       113.0503       0.269305       0.246187         2.8241         2.7977         2.8398         2.8788         3.0085       187.3197      1192.0471
    1063.14240         8.5000         9.5190         2.3412       0.016498       100.4517       107.5481       113.1777       0.279990       0.256122         2.8358         2.7723         2.8135         2.8543         2.9827       187.1849      1191.8240
    1063.29480         8.5000         9.5163         2.3412       0.017003       100.4860       107.8189       113.4486       0.292873       0.268065         2.8475         2.7436         2.7838         2.8267         2.9538       187.0357      1191.5685
    1063.44720         8.5000         9.5137         2.3411       0.017509       100.5203       108.0896       113.7195       0.305756       0.280008         2.8591         2.7149         2.7542         2.7991         2.9249       186.8866      1191.3131
    1063.59960         8.5000         9.5205         2.3399       0.016332       100.8930       109.0547       114.7722       0.309725       0.283547         2.8503         2.6950         2.7339         2.7791         2.9046       186.8963      1193.0139
    1063.75200         8.5000         9.5324         2.3381       0.014263       101.4452       110.3879       116.2394       0.308969       0.282631         2.8307         2.6797         2.7187         2.7630         2.8887       186.9902      1195.7516
    1063.90440         8.5000         9.5442         2.3362       0.012194       101.9973       111.7212       117.7065       0.308213       0.281715         2.8112         2.6645         2.7034         2.7470         2.8729       187.0841      1198.4894
    1064.05680         8.5000         9.5489         2.3346       0.010863       102.2010       113.8035       119.9235       0.303475       0.277256         2.7964         2.6585         2.6974         2.7408         2.8667       187.1352      1199.6329
    1064.20920         8.5000         9.5415         2.3335       0.010772       101.8180       117.1468       123.4027       0.292034       0.266833         2.7897         2.6681         2.7071         2.7511         2.8770       187.1140      1198.0931
    1064.36160         8.5000         9.5341         2.3323       0.010681       101.4351       120.4901       126.8819       0.280594       0.256411         2.7830         2.6777         2.7167         2.7614         2.8872       187.0928      1196.5533
    1064.51400         8.5000         9.5293         2.3313       0.010511       101.1546       123.4429       129.9652       0.270404       0.247097         2.7782         2.6858         2.7248         2.7701         2.8958       187.0602      1195.1282
    1064.66640         8.5000         9.5502         2.3315       0.009551       101.8873       122.5360       129.1348       0.272565       0.248744         2.7913         2.6785         2.7181         2.7618         2.8887       186.9144      1194.8358
    1064.81880         8.5000         9.5711         2.3318       0.008592       102.6199       121.6291       128.3045       0.274727       0.250391         2.8044         2.6713         2.7114         2.7536         2.8815       186.7686      1194.5435
    1064.97120         8.5000         9.5920         2.3320       0.007633       103.3525       120.7222       127.4741       0.276889       0.252039         2.8175         2.6641         2.7047         2.7454         2.8744       186.6228      1194.2511
    1065.12360         8.5000         9.5369         2.3343       0.009459       102.6574       119.3792       125.7393       0.282879       0.258545         2.8533         2.6764         2.7154         2.7594         2.8852       186.8331      1192.8767
    1065.27600         8.5000         9.4641         2.3372       0.011934       101.6297       117.9345       123.7938       0.289761       0.266184         2.8944         2.6933         2.7302         2.7787         2.9002       187.1263      1191.2502
    1065.42840         8.5000         9.3913         2.3400       0.014408       100.6019       116.4899       121.8484       0.296642       0.273823         2.9354         2.7102         2.7449         2.7979         2.9153       187.4196      1189.6238
    1065.58080         8.5000         9.3936         2.3438       0.016790       100.3947       115.8134       121.1474       0.304511       0.281022         2.9475         2.7180         2.7531         2.8058         2.9236       187.4007      1188.8003
    1065.73320         8.5000         9.4623         2.3485       0.019088       100.9147       115.8177       121.5492       0.313253       0.287830         2.9341         2.7179         2.7555         2.8036         2.9260       187.1051      1188.6885
    1065.88560         8.5000         9.5310         2.3531       0.021387       101.4347       115.8219       121.9510       0.321996       0.294638         2.9206         2.7178         2.7579         2.8013         2.9284       186.8096      1188.5767
    1066.03800         8.5000         9.5754         2.3554       0.022261       101.8875       116.0403       122.4369       0.323860       0.295541         2.9180         2.7194         2.7611         2.8007         2.9309       186.6256      1189.5861
    1066.19040         8.5000         9.5463         2.3506       0.018846       102.1385       116.9035       123.1759       0.305018       0.278668         2.9483         2.7261         2.7669         2.8050         2.9334       186.7772      1193.9711
