~Version Information Block
VERS .                 2.00:  CWLS LOG ASCII STANDARD - VERSION 2.00
WRAP .                   NO:  One line per depth step
~Well Information Block
#MNEM.UNIT        Data Type   Information
#---------- ----------------  -----------
STRT .M           530.50440:  START DEPTH
STOP .M          1878.48240:  STOP DEPTH
STEP .M             0.15240:  STEP
NULL .              -999.25:  NULL VALUE
COMP .                     :  COMPANY
WELL .            Ngatoro-7:  WELL
FLD  .                     :  FIELD
LOC  .                     :  LOCATION
CTRY .                     :  COUNTRY
STAT .                     :  STATE
CNTY .                     :  COUNTY
SRVC .     New Zealand Petroleum Co Ltd:  SERVICE COMPANY
DATE .                     :  DATE
API  .                     :  API NUMBER
UWI  .         100000210191:  UNIQUE WELL ID
LATI .          -39.2039075:  LATITUDE
LONG .          174.1707218:  LONGITUDE
~Curve Information Block
#MNEM.UNIT         API CODE   Curve Description
#---------- ----------------  -----------------
DEPTH.M                    :  
BS   .IN                   :  Bit Size (Created in Geolog)
CALI .IN                   :  Caliper (HCAL)
DENS .G/C3                 :  Bulk Density (RHOZ) and HR Bulk Density (RHO8)
DTC  .US/F                 :  Delta Time (DTC)
GR   .GAPI                 :  Gamma Ray (GR) and HR Gamma Ray (HGR)
NEUT .V/V                  :  Neutron Porosity (NPHI) and HR Neutron Porosity (HTNP)
NEUT_CORR.V/V                  :  Corrected NPHI (limestone units)
PEF  .B/E                  :  HRDD Std Resolution Formation Photoelectric Factor (PEFZ) and (PEF8)
RESD .OHMM                 :  HALS Deep Res. (HLLD) and HR HALS Deep Res. (HRLD)
RESS .OHMM                 :  HALS Shallow Res. (HLLS) and HR HALS Shallow Res. (HRLS)
SP   .MV                   :  Spontaneous Potential (SP)
~Parameter Information Block
#MNEM.UNIT            Value   Description
#---------- ----------------  -----------
CUR_INT_BOT.M                1879:  Current interpolated bottom
PROJECT.     New Zealand Log QC Project:  
SET  .     A0_FINAL_INTER_REF_D:  
ELEVATION_AMSL.M                 327:  Elevation above mean sea level
ELEVATION_REF.                   KB:  Measurement reference
FORMATION_AT_TD.      Mount Messenger:  Formation at TD
GL_ELEVATION_AMSL.M            321.4000:  Ground level elevation above mean sea level
LICENCE_NUMBER.             PPL38706:  Licence number
ONSHORE_OR_OFFSHORE.              Onshore:  Onshore/offshore
PR_NUMBER.               PR2215:  Petroleum report number
SPUD_DATE.           09/04/1996:  Spud date
STATUS_AT_COMPLETION.     Suspended with 7" casing cemented in place:  Status at completion
TD_DATE.           18/04/1996:  Total depth date
TOTAL_DEPTH_DRILLED.M                1879:  Total depth drilled
~Other Information Block
# 
~A       DEPTH             BS           CALI           DENS            DTC             GR           NEUT      NEUT_CORR            PEF           RESD           RESS             SP 
# ...
    1860.95640         8.5000         8.6819         2.3509        86.2702        89.6325       0.272709       0.273717         3.0623         2.0181         2.3877      -999.2500
    1861.10880         8.5000         8.6991         2.3868        84.5358        90.3411       0.259319       0.259841         3.1188         2.7569         3.1197      -999.2500
    1861.26120         8.5000         8.7281         2.4379        82.8662        91.1540       0.238457       0.238185         3.1963         3.8142         4.1759      -999.2500
    1861.41360         8.5000         8.7572         2.4891        81.1965        91.9669       0.217594       0.216529         3.2738         4.8715         5.2321      -999.2500
    1861.56600         8.5000         8.7510         2.4912        81.3845        92.3719       0.211745       0.210531         3.2650         5.1256         5.4938      -999.2500
    1861.71840         8.5000         8.6989         2.4290        84.0043        92.2430       0.225548       0.225033         3.1432         4.3283         4.7154      -999.2500
    1861.87080         8.5000         8.6467         2.3669        86.6241        92.1141       0.239352       0.239534         3.0213         3.5309         3.9370      -999.2500
    1862.02320         8.5000         8.6190         2.3179        88.8762        91.9957       0.251840       0.252536         2.9244         2.8296         3.2507      -999.2500
    1862.17560         8.5000         8.7277         2.3424        89.0810        91.9356       0.257006       0.257194         2.9664         2.6634         3.0775      -999.2500
    1862.32800         8.5000         8.8364         2.3669        89.2857        91.8754       0.262172       0.261852         3.0083         2.4972         2.9044      -999.2500
    1862.48040         8.5000         8.9451         2.3914        89.4905        91.8153       0.267337       0.266509         3.0502         2.3309         2.7312      -999.2500
    1862.63280         8.5000         8.9123         2.3872        89.5673        91.0929       0.267763       0.267067         3.0549         2.2710         2.6457      -999.2500
    1862.78520         8.5000         8.8586         2.3788        89.6253        90.2729       0.267489       0.267021         3.0540         2.2268         2.5730      -999.2500
    1862.93760         8.5000         8.8049         2.3704        89.6833        89.4528       0.267216       0.266974         3.0531         2.1826         2.5004      -999.2500
    1863.09000         8.5000         8.7928         2.3723        89.3426        89.9818       0.265414       0.265243         3.0736         2.2181         2.4978      -999.2500
    1863.24240         8.5000         8.8096         2.3813        88.7256        91.4463       0.262554       0.262344         3.1089         2.3090         2.5437      -999.2500
    1863.39480         8.5000         8.8263         2.3902        88.1085        92.9107       0.259694       0.259446         3.1442         2.3998         2.5896      -999.2500
    1863.54720         8.5000         8.8409         2.3999        87.4665        94.0299       0.257407       0.257152         3.1823         2.4795         2.6470      -999.2500
    1863.69960         8.5000         8.8507         2.4111        86.7686        94.3794       0.256401       0.256205         3.2266         2.5344         2.7298      -999.2500
    1863.85200         8.5000         8.8606         2.4224        86.0708        94.7289       0.255394       0.255259         3.2710         2.5893         2.8126      -999.2500
    1864.00440         8.5000         8.8694         2.4328        85.4447      -999.2500       0.254523       0.254444         3.3124         2.6476         2.8976      -999.2500
    1864.15680         8.5000         8.8451         2.4159        87.2328      -999.2500       0.258214       0.258059         3.2556         2.8182         3.0564      -999.2500
    1864.30920         8.5000         8.8208         2.3991        89.0208      -999.2500       0.261905       0.261674         3.1989         2.9887         3.2152      -999.2500
    1864.46160         8.5000         8.7964         2.3823        90.8088      -999.2500       0.265596       0.265289         3.1421         3.1593         3.3740      -999.2500
    1864.61400         8.5000         8.7759         2.3782        90.9221      -999.2500       0.262434       0.262457         3.1171         3.0409         3.2432      -999.2500
    1864.76640         8.5000         8.7567         2.3785        90.4714      -999.2500       0.256963       0.257453         3.1028         2.8251         3.0148      -999.2500
    1864.91880         8.5000         8.7375         2.3787        90.0206      -999.2500       0.251493       0.252449         3.0884         2.6093         2.7863      -999.2500
    1865.07120         8.5000         8.7422         2.3801        89.7610      -999.2500       0.247485       0.248761         3.0806         2.4886         2.6760      -999.2500
    1865.22360         8.5000         8.7741         2.3828        89.7195      -999.2500       0.245143       0.246574         3.0803         2.4762         2.7002      -999.2500
    1865.37600         8.5000         8.8060         2.3855        89.6779      -999.2500       0.242802       0.244386         3.0799         2.4639         2.7245      -999.2500
    1865.52840         8.5000         8.8288         2.3869        89.5634      -999.2500       0.240707       0.242415         3.0777         2.4357         2.7271      -999.2500
    1865.68080         8.5000         8.8119         2.3830        89.1305      -999.2500       0.239685       0.241393         3.0673         2.3381         2.6354      -999.2500
    1865.83320         8.5000         8.7949         2.3791        88.6976      -999.2500       0.238664       0.240370         3.0570         2.2405         2.5436      -999.2500
    1865.98560         8.5000         8.7779         2.3752        88.2647      -999.2500       0.237642       0.239348         3.0466         2.1430         2.4518      -999.2500
    1866.13800         8.5000         8.7883         2.3927        87.2877      -999.2500       0.241217       0.242605         3.0914         2.4743         2.7754      -999.2500
    1866.29040         8.5000         8.8015         2.4123        86.2539      -999.2500       0.245273       0.246309         3.1420         2.8505         3.1422      -999.2500
    1866.44280         8.5000         8.8147         2.4320        85.2201      -999.2500       0.249328       0.250013         3.1926         3.2266         3.5091      -999.2500
    1866.59520         8.5000         8.8226         2.4379        85.5301      -999.2500       0.251406       0.251891         3.2225         3.2956      -999.2500      -999.2500
    1866.74760         8.5000         8.8274         2.4357        86.6476      -999.2500       0.252297       0.252671         3.2400         3.1801      -999.2500      -999.2500
    1866.90000         8.5000         8.8322         2.4334        87.7650      -999.2500       0.253188       0.253452         3.2575         3.0646      -999.2500      -999.2500
    1867.05240         8.5000         8.8504         2.4283        88.6576      -999.2500       0.254328       0.254416         3.2483         2.9339      -999.2500      -999.2500
    1867.20480         8.5000         8.8944         2.4178        89.1213      -999.2500       0.255942       0.255733         3.1884         2.7743      -999.2500      -999.2500
    1867.35720         8.5000         8.9384         2.4073        89.5849      -999.2500       0.257556       0.257050         3.1285         2.6146      -999.2500      -999.2500
    1867.50960         8.5000      -999.2500         2.3972        90.0151      -999.2500       0.259134    -999.250000      -999.2500         2.4664      -999.2500      -999.2500
    1867.66200         8.5000      -999.2500         2.3947        89.9480      -999.2500       0.260175    -999.250000      -999.2500         2.4889      -999.2500      -999.2500
