~Version Information Block
VERS .                 2.00:  CWLS LOG ASCII STANDARD - VERSION 2.00
WRAP .                   NO:  One line per depth step
~Well Information Block
#MNEM.UNIT        Data Type   Information
#---------- ----------------  -----------
STRT .M             9.14400:  START DEPTH
STOP .M          1999.48800:  STOP DEPTH
STEP .M             0.15240:  STEP
NULL .              -999.25:  NULL VALUE
COMP .                     :  COMPANY
WELL .            Ngatoro-2:  WELL
FLD  .                     :  FIELD
LOC  .                     :  LOCATION
CTRY .                     :  COUNTRY
STAT .                     :  STATE
CNTY .                     :  COUNTY
SRVC .     New Zealand Petroleum Co Ltd:  SERVICE COMPANY
DATE .                     :  DATE
API  .                     :  API NUMBER
UWI  .         100000127958:  UNIQUE WELL ID
LATI .          -39.1949429:  LATITUDE
LONG .          174.1849215:  LONGITUDE
~Curve Information Block
#MNEM.UNIT         API CODE   Curve Description
#---------- ----------------  -----------------
DEPTH.M                    :  
BS   .IN                   :  Bit Size (Created in Geolog)
CALI .IN                   :  Caliper Log (CALI)
DENS .G/C3                 :  Compensated Formation Density Log (RHOB)
DRHO .G/C3                 :  Density Log Correction (DRHO)
DTC  .US/F                 :  Delta T (DT)
DTS  .US/F                 :  Delta T Shear Lower Dipole (DT1)
GR   .GAPI                 :  Gamma-Ray Raw (Reeves PSD) (GRCF)
GR_CORR.GAPI                 :  Gamma ray corrected
NEUT .V/V                  :  Neutron Log Porosity (NPHI)
NEUT_CORR.V/V                  :  Corrected NPHI (limestone units)
PEF  .B/E                  :  Photoelectric Factor (PEDF)
RESD .OHMM                 :  Laterolog Deep Resistivity (LLD)
RESD_CORR.OHMM                 :  Borehole corrected LLD
RESS .OHMM                 :  Shallow Laterolog (LLS)
RESS_CORR.OHMM                 :  Borehole corrected LLS
SP   .MV                   :  Spontaneous Potential Log (SP)
TEMP .DEGC                 :  Temperature (TEMP)
TENS .KGF                  :  Cable tension at surface (TENS)
~Parameter Information Block
#MNEM.UNIT            Value   Description
#---------- ----------------  -----------
CUR_INT_BOT.M                2000:  Current interpolated bottom
PROJECT.     New Zealand Log QC Project:  
SET  .     A0_FINAL_INTER_REF_D:  
ELEVATION_AMSL.M              294.94:  Elevation above mean sea level
ELEVATION_REF.                   KB:  Measurement reference
FORMATION_AT_TD.             Manganui:  Formation at TD
GL_ELEVATION_AMSL.M            286.3000:  Ground level elevation above mean sea level
LICENCE_NUMBER.             PPL38706:  Licence number
ONSHORE_OR_OFFSHORE.              Onshore:  Onshore/offshore
PR_NUMBER.               PR1920:  Petroleum report number
SPUD_DATE.           12/10/1991:  Spud date
STATUS_AT_COMPLETION.     Completed as an oil producer:  Status at completion
TD_DATE.           26/10/1991:  Total depth date
TOTAL_DEPTH_DRILLED.M                2000:  Total depth drilled
~Other Information Block
# 
~A       DEPTH             BS           CALI           DENS           DRHO            DTC            DTS             GR        GR_CORR           NEUT      NEUT_CORR            PEF           RESD      RESD_CORR           RESS      RESS_CORR             SP           TEMP           TENS 
# ...
     623.46840         8.5000         8.7225      -999.2500   -999.2500000       110.5998        56.8442       101.5713       102.2208    -999.250000    -999.250000      -999.2500        16.5066        16.4930        12.6187        12.7133       127.8748        36.7120       382.1472
     623.62080         8.5000         8.6948      -999.2500   -999.2500000       110.9921        56.8147       104.9816       105.4849    -999.250000    -999.250000      -999.2500        16.1079        16.0975        12.3149        12.3979       127.5767        36.7191       381.2446
     623.77320         8.5000         8.6571      -999.2500   -999.2500000       111.4746        56.7793       109.3034       109.6086    -999.250000    -999.250000      -999.2500        15.6048        15.5992        11.9162        11.9835       127.2738        36.7270       380.1277
     623.92560         8.5000         8.6195      -999.2500   -999.2500000       111.9570        56.7439       113.6252       113.7322    -999.250000    -999.250000      -999.2500        15.1016        15.1009        11.5176        11.5692       126.9710        36.7349       379.0107
     624.07800         8.5000         8.6010      -999.2500   -999.2500000       112.3162        56.7108       114.3627       114.3722    -999.250000    -999.250000      -999.2500        14.7514        14.7537        11.2805        11.3244       126.9687        36.7387       379.5450
     624.23040         8.5000         8.6008      -999.2500   -999.2500000       112.5577        56.6798       111.6813       111.6894    -999.250000    -999.250000      -999.2500        14.5470        14.5505        11.1974        11.2413       127.2532        36.7387       381.6544
     624.38280         8.5000         8.6005      -999.2500   -999.2500000       112.7992        56.6488       108.9999       109.0066    -999.250000    -999.250000      -999.2500        14.3426        14.3474        11.1144        11.1582       127.5377        36.7388       383.7638
     624.53520         8.5000         8.6002      -999.2500   -999.2500000       112.9967        56.6272       105.1981       105.2030    -999.250000    -999.250000      -999.2500        14.1840        14.1892        11.0461        11.0898       127.8697        36.7397       384.8655
     624.68760         8.5000         8.5996      -999.2500   -999.2500000       113.0474        56.6368        97.6655        97.6674    -999.250000    -999.250000      -999.2500        14.1778        14.1808        11.0266        11.0702       128.3597        36.7435       382.6121
     624.84000         8.5000         8.5990      -999.2500   -999.2500000       113.0982        56.6463        90.1330        90.1318    -999.250000    -999.250000      -999.2500        14.1717        14.1724        11.0071        11.0506       128.8498        36.7473       380.3587
     624.99240         8.5000         8.5983      -999.2500   -999.2500000       113.1489        56.6559        82.6004        82.5962    -999.250000    -999.250000      -999.2500        14.1656        14.1640        10.9876        11.0309       129.3398        36.7511       378.1053
     625.14480         8.5000         8.6028      -999.2500   -999.2500000       113.0645        56.6518        89.9197        89.9402    -999.250000    -999.250000      -999.2500        14.3935        14.3897        11.1955        11.2396       129.8222        36.7486       379.2774
     625.29720         8.5000         8.6076      -999.2500   -999.2500000       112.9730        56.6470        98.0184        98.0651    -999.250000    -999.250000      -999.2500        14.6336        14.6277        11.4153        11.4603       130.3042        36.7457       380.6293
     625.44960         8.5000         8.6124      -999.2500   -999.2500000       112.8815        56.6422       106.1171       106.1901    -999.250000    -999.250000      -999.2500        14.8738        14.8657        11.6351        11.6810       130.7861        36.7429       381.9812
     625.60200         8.5000         8.6152      -999.2500   -999.2500000       112.4501        56.6463       107.4359       107.5236    -999.250000    -999.250000      -999.2500        15.1409        15.1344        11.8233        11.8695       131.0109        36.7459       382.4098
     625.75440         8.5000         8.6172      -999.2500   -999.2500000       111.8508        56.6547       105.4045       105.5013    -999.250000    -999.250000      -999.2500        15.4213        15.4184        11.9958        12.0420       131.1086        36.7520       382.3821
     625.90680         8.5000         8.6191      -999.2500   -999.2500000       111.2515        56.6632       103.3730       103.4790    -999.250000    -999.250000      -999.2500        15.7017        15.7023        12.1684        12.2146       131.2062        36.7580       382.3545
     626.05920         8.5000         8.6188      -999.2500   -999.2500000       110.6936        56.6765       100.2169       100.3196    -999.250000    -999.250000      -999.2500        16.1241        16.1157        12.4891        12.5331       131.6918        36.7581       382.0762
     626.21160         8.5000         8.6149      -999.2500   -999.2500000       110.2009        56.6976        95.2901        95.3702    -999.250000    -999.250000      -999.2500        16.7702        16.7326        13.0430        13.0812       132.7883        36.7488       381.4034
     626.36400         8.5000         8.6109      -999.2500   -999.2500000       109.7081        56.7187        90.3633        90.4207    -999.250000    -999.250000      -999.2500        17.4162        17.3496        13.5969        13.6294       133.8848        36.7395       380.7306
     626.51640         8.5000         8.6071      -999.2500   -999.2500000       109.2828        56.7371        86.2594        86.2952    -999.250000    -999.250000      -999.2500        17.9737        17.8833        14.0637        14.0912       134.9210        36.7341       380.2098
     626.66880         8.5000         8.6043      -999.2500   -999.2500000       109.4168        56.7330        88.9804        89.0029    -999.250000    -999.250000      -999.2500        17.7964        17.7264        13.8088        13.8364       135.4574        36.7608       380.9497
     626.82120         8.5000         8.6014      -999.2500   -999.2500000       109.5507        56.7288        91.7013        91.7105    -999.250000    -999.250000      -999.2500        17.6191        17.5695        13.5538        13.5817       135.9939        36.7876       381.6895
     626.97360         8.5000         8.5986      -999.2500   -999.2500000       109.6847        56.7247        94.4222        94.4182    -999.250000    -999.250000      -999.2500        17.4418        17.4126        13.2989        13.3270       136.5304        36.8144       382.4294
     627.12600         8.5000         8.5979      -999.2500   -999.2500000       110.0432        56.6942        94.9849        94.9776    -999.250000    -999.250000      -999.2500        17.9930        17.9523        13.6298        13.6549       137.1064        36.8062       382.5056
     627.27840         8.5000         8.5976      -999.2500   -999.2500000       110.4489        56.6582        95.0955        95.0870    -999.250000    -999.250000      -999.2500        18.6968        18.6380        14.0835        14.1049       137.6906        36.7907       382.4428
     627.43080         8.5000         8.5974      -999.2500   -999.2500000       110.8545        56.6222        95.2060        95.1964    -999.250000    -999.250000      -999.2500        19.4007        19.3237        14.5371        14.5548       138.2747        36.7752       382.3800
     627.58320         8.5000         8.5972      -999.2500   -999.2500000       111.9640        56.5987        95.9060        95.8953    -999.250000    -999.250000      -999.2500        19.9977        19.9017        14.9514        14.9656       138.9557        36.7721       382.2825
     627.73560         8.5000         8.5971      -999.2500   -999.2500000       113.6589        56.5855        97.0960        97.0846    -999.250000    -999.250000      -999.2500        20.5059        20.3901        15.3329        15.3438       139.7171        36.7794       382.1561
