~Version Information Block
VERS .                 2.00:  CWLS LOG ASCII STANDARD - VERSION 2.00
WRAP .                   NO:  One line per depth step
~Well Information Block
#MNEM.UNIT        Data Type   Information
#---------- ----------------  -----------
STRT .M            16.61160:  START DEPTH
STOP .M          1898.90400:  STOP DEPTH
STEP .M             0.15240:  STEP
NULL .              -999.25:  NULL VALUE
COMP .                     :  COMPANY
WELL .         Ngatoro-3ST1:  WELL
FLD  .                     :  FIELD
LOC  .                     :  LOCATION
CTRY .                     :  COUNTRY
STAT .                     :  STATE
CNTY .                     :  COUNTY
SRVC .     Greymouth Petroleum Ltd:  SERVICE COMPANY
DATE .                     :  DATE
API  .                     :  API NUMBER
UWI  .         100000787700:  UNIQUE WELL ID
LATI .          -39.1846084:  LATITUDE
LONG .          174.1883756:  LONGITUDE
~Curve Information Block
#MNEM.UNIT         API CODE   Curve Description
#---------- ----------------  -----------------
DEPTH.M                    :  
BS   .IN                   :  Bit Size (Created in Geolog)
CALI .IN                   :  HRCC Cal. Caliper (HCAL)
DENS .G/C3                 :  HRDD High Resolution Formation Density (RHO8)
DRHO .G/C3                 :  HRDD Density Correction (HDRA)
GR   .GAPI                 :  HiRes Gamma-Ray (EHGR)
NEUT .V/V                  :  HiRes Thermal Neutron Porosity (HTNP)
PEF  .B/E                  :  HRDD High Resolution Formation Photoelectric Factor (PEF8)
RESD .OHMM                 :  Array Induction Two Foot Resistivity A90 (AHT90)
RESM .OHMM                 :  Array Induction Two Foot Resistivity A30 (AHT30)
RESS .OHMM                 :  Array Induction Two Foot Resistivity A10 (AHT10)
SP   .MV                   :  SP Shifted (SP)
TEMP .DEGC                 :  HTC Temperature (HTEM)
TENS .KGF                  :  Cable Tension (TENS)
~Parameter Information Block
#MNEM.UNIT            Value   Description
#---------- ----------------  -----------
CUR_INT_BOT.M                1899:  Current interpolated bottom
PROJECT.     New Zealand Log QC Project:  
SET  .     A0_FINAL_INTER_REF_D:  
ELEVATION_AMSL.M              262.91:  Elevation above mean sea level
ELEVATION_REF.                   DF:  Measurement reference
FORMATION_AT_TD.             Manganui:  Formation at TD
GL_ELEVATION_AMSL.M            259.3000:  Ground level elevation above mean sea level
KICK_OFF_DATE.           26/09/2005:  Kick off date
KICK_OFF_DEPTH.M                 645:  Kick off depth
LICENCE_NUMBER.             PMP38148:  Licence number
ONSHORE_OR_OFFSHORE.              Onshore:  Onshore/offshore
PARENT_WELL.            Ngatoro-3:  Parent well
PR_NUMBER.               PR3237:  Petroleum report number
STATUS_AT_COMPLETION.     Completed ready for perforating:  Status at completion
TD_DATE.           05/10/2005:  Total depth date
TOTAL_DEPTH_DRILLED.M             1898.82:  Total depth drilled
~Other Information Block
# 
~A       DEPTH             BS           CALI           DENS           DRHO             GR           NEUT            PEF           RESD           RESM           RESS             SP           TEMP           TENS 
# ...
    1145.89560         6.0000         6.0409         2.2619      0.0108104        87.2614       0.320103         2.9000         2.9683         3.0377         3.1033       349.8209        49.2118       958.8724
    1146.04800         6.0000         6.0246         2.2920      0.0145968        88.2995       0.315861         2.9887         3.0449         3.1652         3.2164       351.7948        49.2118       958.6767
    1146.20040         6.0000         6.0080         2.3966      0.0224471        89.3067       0.301832         3.1188         3.3198         3.5144         3.5019       352.2290        49.2118       960.8511
    1146.35280         6.0000         5.9914         2.5013      0.0302974        90.3140       0.287803         3.2489         3.5947         3.8636         3.7873       352.6633        49.2118       963.0255
    1146.50520         6.0000         5.9743         2.5986      0.0375084        91.0647       0.274221         3.3699         3.8757         4.2124         4.0761       353.1819        49.2118       965.1866
    1146.65760         6.0000         5.9456         2.4886      0.0266228        84.5526       0.273301         3.2317         4.3294         4.5510         4.4586       356.0910        49.2118       966.9707
    1146.81000         6.0000         5.9169         2.3786      0.0157372        78.0405       0.272381         3.0935         4.7831         4.8895         4.8411       359.0000        49.2118       968.7548
    1146.96240         6.0000         5.8882         2.2687      0.0048516        71.5284       0.271460         2.9553         5.2369         5.2281         5.2236       361.9091        49.2118       970.5389
    1147.11480         6.0000         5.8825         2.2262      0.0003136        70.6438       0.279958         2.8491         4.8246         4.7498         4.7274       359.9471        49.2118       973.0074
    1147.26720         6.0000         5.8844         2.2058     -0.0021453        71.6023       0.291540         2.7534         4.1287         4.0040         3.9434       356.3898        49.2118       975.6999
    1147.41960         6.0000         5.8862         2.1855     -0.0046043        72.5608       0.303123         2.6577         3.4328         3.2582         3.1594       352.8325        49.2118       978.3925
    1147.57200         6.0000         5.9114         2.1781     -0.0033606        73.8649       0.310379         2.6242         2.9968         2.8019         2.6866       352.2767        49.2118       977.1327
    1147.72440         6.0000         5.9628         2.1851      0.0020177        75.5551       0.312805         2.6600         2.8510         2.6687         2.5612       355.0725        49.2118       971.4595
    1147.87680         6.0000         6.0142         2.1922      0.0073960        77.2452       0.315231         2.6958         2.7052         2.5356         2.4359       357.8683        49.2118       965.7863
    1148.02920         6.0000         6.0493         2.2036      0.0110594        79.8548       0.316648         2.7337         2.5938         2.4402         2.3599       361.0268        49.2118       960.5283
    1148.18160         6.0000         6.0157         2.2336      0.0074878        86.3437       0.313806         2.7802         2.6274         2.5044         2.4926       365.7156        49.2118       957.0228
    1148.33400         6.0000         5.9821         2.2635      0.0039161        92.8326       0.310964         2.8266         2.6610         2.5686         2.6252       370.4045        49.2118       953.5172
    1148.48640         6.0000         5.9486         2.2935      0.0003445        99.3215       0.308122         2.8731         2.6946         2.6328         2.7578       375.0933        49.2118       950.0115
    1148.63880         6.0000         5.9304         2.2974      0.0039007        97.9204       0.312715         2.9231         2.7392         2.7161         2.8794       374.6964        49.2118       948.6765
    1148.79120         6.0000         5.9137         2.2988      0.0081554        95.7462       0.318036         2.9735         2.7849         2.8013         3.0000       373.8012        49.2118       947.5540
    1148.94360         6.0000         5.8970         2.3002      0.0124101        93.5719       0.323357         3.0239         2.8305         2.8865         3.1205       372.9059        49.2118       946.4316
    1149.09600         6.0000         5.9075         2.3040      0.0192200        93.4172       0.326872         3.0551         2.8422         2.9324         3.1929       368.4976        49.2118       951.3439
    1149.24840         6.0000         5.9339         2.3093      0.0275309        94.4490       0.329326         3.0751         2.8340         2.9554         3.2371       362.0253        49.2118       959.8016
    1149.40080         6.0000         5.9604         2.3145      0.0358419        95.4807       0.331780         3.0950         2.8258         2.9783         3.2813       355.5530        49.2118       968.2594
    1149.55320         6.0000         5.9682         2.3187      0.0382879        96.3987       0.332792         3.0973         2.8248         2.9974         3.3137       350.5633        49.2118       975.5734
    1149.70560         6.0000         5.9412         2.3209      0.0297978        97.1044       0.331114         3.0666         2.8375         3.0095         3.3239       348.3383        49.2118       980.7546
    1149.85800         6.0000         5.9142         2.3230      0.0213077        97.8101       0.329437         3.0358         2.8502         3.0215         3.3342       346.1132        49.2118       985.9358
    1150.01040         6.0000         5.8895         2.3245      0.0130462        98.4937       0.327791         3.0079         2.8625         3.0323         3.3417       344.1396        49.2118       990.3655
    1150.16280         6.0000         5.8965         2.3167      0.0079059        98.8746       0.326582         3.0192         2.8687         3.0262         3.3126       345.5986        49.2118       984.5340
    1150.31520         6.0000         5.9035         2.3088      0.0027655        99.2556       0.325373         3.0306         2.8749         3.0202         3.2834       347.0576        49.2118       978.7026
    1150.46760         6.0000         5.9105         2.3010     -0.0023749        99.6366       0.324163         3.0419         2.8811         3.0142         3.2542       348.5167        49.2118       972.8711
    1150.62000         6.0000         5.9093         2.3018     -0.0024374        99.5896       0.321051         3.0273         2.8887         3.0071         3.2284       349.7899        49.2118       970.0951
    1150.77240         6.0000         5.9060         2.3049     -0.0011288        99.4271       0.317425         3.0056         2.8968         2.9997         3.2035       351.0130        49.2118       968.1441
    1150.92480         6.0000         5.9026         2.3080      0.0001798        99.2647       0.313799         2.9840         2.9048         2.9924         3.1785       352.2361        49.2118       966.1931
    1151.07720         6.0000         5.9237         2.3092      0.0035793        98.0582       0.311690         2.9658         2.9094         2.9816         3.1509       349.6497        49.2118       965.7172
    1151.22960         6.0000         5.9686         2.3084      0.0090157        95.8347       0.311058         2.9510         2.9106         2.9675         3.1207       343.3523        49.2118       966.6783
    1151.38200         6.0000         6.0135         2.3077      0.0144521        93.6113       0.310426         2.9362         2.9118         2.9534         3.0905       337.0550        49.2118       967.6394
    1151.53440         6.0000         6.0441         2.3053      0.0176847        91.9122       0.311966         2.9263         2.9093         2.9351         3.0580       333.7386        49.2118       969.0610
    1151.68680         6.0000         6.0257         2.2974      0.0133575        92.0115       0.320958         2.9333         2.8940         2.9025         3.0174       340.6472        49.2118       972.0622
