~Version Information Block
VERS .                 2.00:  CWLS LOG ASCII STANDARD - VERSION 2.00
WRAP .                   NO:  One line per depth step
~Well Information Block
#MNEM.UNIT        Data Type   Information
#---------- ----------------  -----------
STRT .M           535.07640:  START DEPTH
STOP .M          2419.95960:  STOP DEPTH
STEP .M             0.15240:  STEP
NULL .              -999.25:  NULL VALUE
COMP .                     :  COMPANY
WELL .            Ngatoro-3:  WELL
FLD  .                     :  FIELD
LOC  .                     :  LOCATION
CTRY .                     :  COUNTRY
STAT .                     :  STATE
CNTY .                     :  COUNTY
SRVC .     New Zealand Petroleum Co Ltd:  SERVICE COMPANY
DATE .                     :  DATE
API  .                     :  API NUMBER
UWI  .         100000158215:  UNIQUE WELL ID
LATI .          -39.1846093:  LATITUDE
LONG .          174.1883769:  LONGITUDE
~Curve Information Block
#MNEM.UNIT         API CODE   Curve Description
#---------- ----------------  -----------------
DEPTH.M                    :  
BS   .IN                   :  Bit Size (Created in Geolog)
CALI .IN                   :  Caliper Log (CALI)
DENS .G/C3                 :  Compensated Formation Density Log (RHOB)
DRHO .G/C3                 :  Density Log Correction (DRHO)
DTC  .US/F                 :  Delta T (DT)
GR   .GAPI                 :  Gamma-Ray Log (GR)
GR_CORR.GAPI                 :  Gamma ray corrected
NEUT .V/V                  :  Neutron Log Porosity (NPHI)
NEUT_CORR.V/V                  :  Corrected NPHI (limestone units)
PEF  .B/E                  :  Photoelectric Factor (PEDF)
RESD .OHMM                 :  Laterolog Deep Resistivity (LLD)
RESD_CORR.OHMM                 :  Borehole corrected LLD
RESS .OHMM                 :  Shallow Laterolog (LLS)
RESS_CORR.OHMM                 :  Borehole corrected LLS
SP   .MV                   :  Spontaneous Potential Log (SP)
TEMP .DEGC                 :  Temperature (TEMP)
TENS .KGF                  :  Cable tension at surface (TENS)
~Parameter Information Block
#MNEM.UNIT            Value   Description
#---------- ----------------  -----------
CUR_INT_BOT.M                2420:  Current interpolated bottom
PROJECT.     New Zealand Log QC Project:  
SET  .     A0_FINAL_INTER_REF_D:  
ELEVATION_AMSL.M              267.94:  Elevation above mean sea level
ELEVATION_REF.                   KB:  Measurement reference
FORMATION_AT_TD.             Manganui:  Formation at TD
GL_ELEVATION_AMSL.M            263.2000:  Ground level elevation above mean sea level
LICENCE_NUMBER.             PPL38706:  Licence number
ONSHORE_OR_OFFSHORE.              Onshore:  Onshore/offshore
PR_NUMBER.               PR1863:  Petroleum report number
SPUD_DATE.           14/01/1993:  Spud date
STATUS_AT_COMPLETION.     Suspended as a potential oil producer:  Status at completion
TD_DATE.           08/02/1993:  Total depth date
TOTAL_DEPTH_DRILLED.M                2420:  Total depth drilled
~Other Information Block
# 
~A       DEPTH             BS           CALI           DENS           DRHO            DTC             GR        GR_CORR           NEUT      NEUT_CORR            PEF           RESD      RESD_CORR           RESS      RESS_CORR             SP           TEMP           TENS 
# ...
     800.25240         8.5000         8.6007         2.2945      0.0050723       106.2348       103.9008       104.0837       0.333257       0.322412         2.8647         4.7820         4.8088         3.8862         3.9548        60.1654        45.2157       882.9473
     800.40480         8.5000         8.6122         2.3029      0.0050808       104.7377       104.6512       104.8979       0.352071       0.340381         2.9323         4.8795         4.9081         3.9464         4.0164        59.7650        45.2162       883.2078
     800.55720         8.5000         8.6154         2.3079      0.0052609       104.3864       105.4569       105.7216       0.359951       0.347949         2.9780         4.9364         4.9658         3.9838         4.0542        59.4995        45.2167       883.2153
     800.70960         8.5000         8.6047         2.3071      0.0057263       105.9423       106.3544       106.5610       0.349634       0.338205         2.9873         4.9258         4.9542         3.9832         4.0523        59.4583        45.2174       882.8017
     800.86200         8.5000         8.5940         2.3063      0.0061918       107.4982       107.2519       107.4004       0.339316       0.328460         2.9966         4.9151         4.9426         3.9825         4.0504        59.4172        45.2180       882.3880
     801.01440         8.5000         8.5834         2.3050      0.0064620       108.8889       108.1053       108.1962       0.328541       0.318264         3.0050         4.9035         4.9301         3.9811         4.0477        59.3976        45.2192       882.0436
     801.16680         8.5000         8.5742         2.2982      0.0048601       108.6966       108.5361       108.5743       0.313382       0.303746         3.0048         4.8826         4.9081         3.9727         4.0383        59.5843        45.2253       882.3635
     801.31920         8.5000         8.5649         2.2915      0.0032582       108.5044       108.9670       108.9524       0.298223       0.289227         3.0046         4.8616         4.8862         3.9642         4.0288        59.7710        45.2314       882.6832
     801.47160         8.5000         8.5557         2.2848      0.0016563       108.3121       109.3979       109.3305       0.283064       0.274709         3.0045         4.8406         4.8643         3.9558         4.0193        59.9578        45.2375       883.0031
     801.62400         8.5000         8.5526         2.2838      0.0026921       108.2749       108.1876       108.1040       0.292023       0.283482         3.0088         4.7866         4.8096         3.9231         3.9862        60.3053        45.2367       883.1762
     801.77640         8.5000         8.5510         2.2841      0.0043321       108.2731       106.6016       106.5100       0.306506       0.297589         3.0142         4.7250         4.7473         3.8848         3.9478        60.6898        45.2344       883.3158
     801.92880         8.5000         8.5493         2.2843      0.0059721       108.2714       105.0155       104.9160       0.320988       0.311697         3.0196         4.6635         4.6851         3.8465         3.9093        61.0742        45.2320       883.4554
     802.08120         8.5000         8.5489         2.2843      0.0069193       108.4498       106.1559       106.0527       0.333190       0.323565         3.0094         4.6101         4.6312         3.8153         3.8781        61.1100        45.2391       883.5610
     802.23360         8.5000         8.5495         2.2841      0.0072591       108.7862       109.6869       109.5839       0.343392       0.333469         2.9856         4.5640         4.5847         3.7904         3.8533        60.8400        45.2546       883.6369
     802.38600         8.5000         8.5500         2.2838      0.0075989       109.1226       113.2179       113.1150       0.353594       0.343373         2.9618         4.5178         4.5382         3.7655         3.8285        60.5701        45.2700       883.7128
     802.53840         8.5000         8.5513         2.2843      0.0077274       109.3734       115.1762       115.0783       0.358028       0.347657         2.9473         4.4992         4.5194         3.7641         3.8272        60.1616        45.2794       883.8510
     802.69080         8.5000         8.5544         2.2868      0.0072287       109.3698       112.4651       112.3873       0.345339       0.335254         2.9602         4.5620         4.5830         3.8324         3.8957        59.3419        45.2708       884.1743
     802.84320         8.5000         8.5576         2.2894      0.0067300       109.3661       109.7540       109.6964       0.332649       0.322851         2.9731         4.6248         4.6467         3.9006         3.9643        58.5221        45.2622       884.4975
     802.99560         8.5000         8.5607         2.2920      0.0062313       109.3625       107.0429       107.0054       0.319960       0.310449         2.9860         4.6875         4.7103         3.9689         4.0329        57.7024        45.2536       884.8207
     803.14800         8.5000         8.5583         2.2942      0.0066310       109.3194       107.0054       106.9545       0.334507       0.324641         2.9494         4.6958         4.7185         3.9927         4.0564        58.3692        45.2722       885.1611
     803.30040         8.5000         8.5558         2.2964      0.0070574       109.2751       107.0474       106.9820       0.349865       0.339624         2.9113         4.7025         4.7250         4.0152         4.0786        59.0803        45.2915       885.5021
     803.45280         8.5000         8.5532         2.2986      0.0074838       109.2307       107.0893       107.0095       0.365223       0.354607         2.8732         4.7092         4.7316         4.0377         4.1008        59.7914        45.3108       885.8430
     803.60520         8.5000         8.5539         2.3002      0.0078583       109.1808       105.9185       105.8432       0.374246       0.363356         2.8736         4.7058         4.7282         4.0472         4.1103        59.7686        45.3211       885.5238
     803.75760         8.5000         8.5561         2.3015      0.0082095       109.1283       104.2034       104.1411       0.380428       0.369309         2.8912         4.6980         4.7205         4.0507         4.1141        59.4166        45.3272       884.9084
     803.91000         8.5000         8.5583         2.3028      0.0085608       109.0758       102.4884       102.4391       0.386609       0.375262         2.9089         4.6901         4.7127         4.0543         4.1179        59.0646        45.3333       884.2930
     804.06240         8.5000         8.5587         2.3037      0.0089150       108.9363       102.9142       102.8667       0.382311       0.371075         2.9086         4.7011         4.7238         4.0608         4.1244        58.9039        45.3369       884.1683
     804.21480         8.5000         8.5565         2.3042      0.0092735       108.6714       106.4278       106.3660       0.362899       0.352264         2.8824         4.7391         4.7620         4.0715         4.1349        59.0191        45.3369       884.7516
     804.36720         8.5000         8.5543         2.3047      0.0096320       108.4064       109.9414       109.8652       0.343486       0.333453         2.8561         4.7772         4.8003         4.0823         4.1454        59.1343        45.3369       885.3348
     804.51960         8.5000         8.5525         2.3051      0.0099111       108.1531       112.5753       112.4868       0.327314       0.317784         2.8326         4.8082         4.8314         4.0917         4.1546        59.2527        45.3369       885.8349
     804.67200         8.5000         8.5524         2.3048      0.0096519       107.9790       109.2483       109.1624       0.333103       0.323411         2.8276         4.7914         4.8144         4.0925         4.1553        59.3928        45.3369       885.7714
