~Version Information Block
VERS .                 2.00:  CWLS LOG ASCII STANDARD - VERSION 2.00
WRAP .                   NO:  One line per depth step
~Well Information Block
#MNEM.UNIT        Data Type   Information
#---------- ----------------  -----------
STRT .M             5.63880:  START DEPTH
STOP .M          2149.90680:  STOP DEPTH
STEP .M             0.15240:  STEP
NULL .              -999.25:  NULL VALUE
COMP .                     :  COMPANY
WELL .            Ngatoro-4:  WELL
FLD  .                     :  FIELD
LOC  .                     :  LOCATION
CTRY .                     :  COUNTRY
STAT .                     :  STATE
CNTY .                     :  COUNTY
SRVC .     New Zealand Petroleum Co Ltd:  SERVICE COMPANY
DATE .                     :  DATE
API  .                     :  API NUMBER
UWI  .         100000159749:  UNIQUE WELL ID
LATI .           -39.193014:  LATITUDE
LONG .          174.1756345:  LONGITUDE
~Curve Information Block
#MNEM.UNIT         API CODE   Curve Description
#---------- ----------------  -----------------
DEPTH.M                    :  
BS   .IN                   :  Bit Size (Created in Geolog)
CALI .IN                   :  Caliper Log (CALI)
DRHO .G/C3                 :  Density Log Correction (DRHO)
DTC  .US/F                 :  Delta T (DT)
DTS  .US/F                 :  Delta T Shear Lower Dipole (DT1)
GR   .GAPI                 :  Gamma-Ray Log (GR)
GR_CORR.GAPI                 :  Gamma ray corrected
NEUT .V/V                  :  Neutron Log Porosity (NPHI)
NEUT_CORR.V/V                  :  Corrected NPHI (limestone units)
PEF  .B/E                  :  Photoelectric Factor (PEDF)
RESD .OHMM                 :  Laterolog Deep Resistivity (LLD)
RESD_CORR.OHMM                 :  Borehole corrected LLD
RESS .OHMM                 :  Shallow Laterolog (LLS)
RESS_CORR.OHMM                 :  Borehole corrected LLS
SP   .MV                   :  Spontaneous Potential Log (SP)
TEMP .DEGC                 :  Temperature (TEMP)
TENS .KGF                  :  Cable tension at surface (TENS)
~Parameter Information Block
#MNEM.UNIT            Value   Description
#---------- ----------------  -----------
CUR_INT_BOT.M                2150:  Current interpolated bottom
PROJECT.     New Zealand Log QC Project:  
SET  .     A0_FINAL_INTER_REF_D:  
ELEVATION_AMSL.M               297.7:  Elevation above mean sea level
ELEVATION_REF.                   KB:  Measurement reference
FORMATION_AT_TD.                 Moki:  Formation at TD
GL_ELEVATION_AMSL.M            292.8000:  Ground level elevation above mean sea level
LICENCE_NUMBER.             PPL38706:  Licence number
ONSHORE_OR_OFFSHORE.              Onshore:  Onshore/offshore
PR_NUMBER.               PR1914:  Petroleum report number
SPUD_DATE.           07/03/1993:  Spud date
STATUS_AT_COMPLETION.     Suspended as a potential oil producer:  Status at completion
TD_DATE.           21/03/1993:  Total depth date
TOTAL_DEPTH_DRILLED.M                2150:  Total depth drilled
~Other Information Block
# 
~A       DEPTH             BS           CALI           DRHO            DTC            DTS             GR        GR_CORR           NEUT      NEUT_CORR            PEF           RESD      RESD_CORR           RESS      RESS_CORR             SP           TEMP           TENS 
# ...
    1089.20280         8.5000         8.4896      0.0060995      -999.2500      -999.2500        98.1543        98.0204       0.319649       0.312903         2.7718         1.8117         1.7954         1.9755         2.0346      -999.2500      -999.2500       413.4939
    1089.35520         8.5000         8.4897      0.0057940      -999.2500      -999.2500        98.1704        97.8682       0.315832       0.309160         2.7944         1.7952         1.7787         1.9498         2.0088      -999.2500      -999.2500       413.2720
    1089.50760         8.5000         8.4901      0.0054476      -999.2500      -999.2500        98.0911        97.6330       0.311566       0.304980         2.8165         1.7794         1.7627         1.9250         1.9839      -999.2500      -999.2500       413.0552
    1089.66000         8.5000         8.4945      0.0043215      -999.2500      -999.2500        96.1926        95.8168       0.298758       0.292479         2.8298         1.7750         1.7583         1.9169         1.9760      -999.2500      -999.2500       412.9366
    1089.81240         8.5000         8.4990      0.0031954      -999.2500      -999.2500        94.2941        94.0007       0.285949       0.279978         2.8431         1.7706         1.7540         1.9088         1.9680      -999.2500      -999.2500       412.8179
    1089.96480         8.5000         8.5034      0.0020693      -999.2500      -999.2500        92.3955        92.1845       0.273140       0.267477         2.8564         1.7662         1.7497         1.9007         1.9600      -999.2500      -999.2500       412.6993
    1090.11720         8.5000         8.5008      0.0018855      -999.2500      -999.2500        92.2849        92.1626       0.272646       0.267030         2.8470         1.7467         1.7299         1.8863         1.9454      -999.2500      -999.2500       413.1952
    1090.26960         8.5000         8.4962      0.0019847      -999.2500      -999.2500        92.7112        92.6796       0.275851       0.270203         2.8308         1.7226         1.7054         1.8700         1.9289      -999.2500      -999.2500       413.8756
    1090.42200         8.5000         8.4915      0.0020839      -999.2500      -999.2500        93.1376        93.1966       0.279055       0.273377         2.8146         1.6986         1.6809         1.8536         1.9123      -999.2500      -999.2500       414.5561
    1090.57440         8.5000         8.4874      0.0023513      -999.2500      -999.2500        95.0364        94.9502       0.281349       0.275672         2.8426         1.7664         1.7494         1.9246         1.9833      -999.2500      -999.2500       415.0919
    1090.72680         8.5000         8.4839      0.0027949      -999.2500      -999.2500        98.4789        98.0004       0.282688       0.277045         2.9168         1.9305         1.9156         2.0871         2.1460      -999.2500      -999.2500       415.4760
    1090.87920         8.5000         8.4804      0.0032385      -999.2500      -999.2500       101.9214       101.0506       0.284028       0.278418         2.9911         2.0946         2.0818         2.2496         2.3087      -999.2500      -999.2500       415.8602
    1091.03160         8.5000         8.4786      0.0037514      -999.2500      -999.2500       104.3237       103.2198       0.284614       0.279031         3.0388         2.2091         2.1978         2.3629         2.4222      -999.2500      -999.2500       416.0764
    1091.18400         8.5000         8.4831      0.0045289      -999.2500      -999.2500       102.7493       102.0213       0.282323       0.276741         2.9849         2.1340         2.1219         2.2878         2.3472      -999.2500      -999.2500       415.6502
    1091.33640         8.5000         8.4875      0.0053064      -999.2500      -999.2500       101.1750       100.8227       0.280033       0.274450         2.9310         2.0589         2.0459         2.2128         2.2723      -999.2500      -999.2500       415.2242
    1091.48880         8.5000         8.4920      0.0060839      -999.2500      -999.2500        99.6006        99.6241       0.277742       0.272159         2.8772         1.9838         1.9700         2.1378         2.1974      -999.2500      -999.2500       414.7980
    1091.64120         8.5000         8.4913      0.0056284      -999.2500      -999.2500       100.4119       100.3951       0.279093       0.273458         2.8835         1.9908         1.9770         2.1465         2.2061      -999.2500      -999.2500       414.8688
    1091.79360         8.5000         8.4902      0.0050752      -999.2500      -999.2500       101.4124       101.3222       0.280733       0.275042         2.8945         2.0043         1.9906         2.1619         2.2215      -999.2500      -999.2500       414.9791
    1091.94600         8.5000         8.4891      0.0045220      -999.2500      -999.2500       102.4129       102.2494       0.282373       0.276627         2.9056         2.0177         2.0043         2.1773         2.2368      -999.2500      -999.2500       415.0893
    1092.09840         8.5000         8.4889      0.0053612      -999.2500      -999.2500       103.4384       103.1977       0.282124       0.276362         2.8785         2.0084         1.9948         2.1712         2.2307      -999.2500      -999.2500       414.9240
    1092.25080         8.5000         8.4892      0.0069646      -999.2500      -999.2500       104.4777       104.1577       0.280839       0.275082         2.8306         1.9867         1.9728         2.1533         2.2128      -999.2500      -999.2500       414.6076
    1092.40320         8.5000         8.4896      0.0085680      -999.2500      -999.2500       105.5170       105.1177       0.279555       0.273803         2.7826         1.9649         1.9507         2.1354         2.1949      -999.2500      -999.2500       414.2911
    1092.55560         8.5000         8.4897      0.0093334      -999.2500      -999.2500       106.2354       105.7257       0.277416       0.271713         2.7638         1.9576         1.9433         2.1295         2.1890      -999.2500      -999.2500       414.0418
    1092.70800         8.5000         8.4896      0.0086400      -999.2500      -999.2500       106.3950       105.7209       0.273788       0.268214         2.7958         1.9755         1.9615         2.1446         2.2041      -999.2500      -999.2500       413.9093
    1092.86040         8.5000         8.4894      0.0079465      -999.2500      -999.2500       106.5547       105.7160       0.270161       0.264714         2.8277         1.9935         1.9797         2.1597         2.2192      -999.2500      -999.2500       413.7768
    1093.01280         8.5000         8.4893      0.0072953      -999.2500      -999.2500       106.5898       105.6238       0.266753       0.261424         2.8544         2.0062         1.9926         2.1699         2.2294      -999.2500      -999.2500       413.6776
    1093.16520         8.5000         8.4893      0.0071049      -999.2500      -999.2500       105.2669       104.5785       0.265725       0.260413         2.8232         1.9621         1.9479         2.1275         2.1870      -999.2500      -999.2500       413.9422
    1093.31760         8.5000         8.4892      0.0069145      -999.2500      -999.2500       103.9440       103.5333       0.264697       0.259402         2.7919         1.9180         1.9032         2.0852         2.1445      -999.2500      -999.2500       414.2068
    1093.47000         8.5000         8.4892      0.0067241      -999.2500      -999.2500       102.6211       102.4881       0.263669       0.258391         2.7607         1.8738         1.8585         2.0428         2.1020      -999.2500      -999.2500       414.4713
    1093.62240         8.5000         8.4895      0.0064647      -999.2500      -999.2500       102.7424       102.6293       0.263849       0.258557         2.7711         1.9474         1.9330         2.1294         2.1888      -999.2500      -999.2500       414.4958
