~Version Information Block
VERS .                 2.00:  CWLS LOG ASCII STANDARD - VERSION 2.00
WRAP .                   NO:  One line per depth step
~Well Information Block
#MNEM.UNIT        Data Type   Information
#---------- ----------------  -----------
STRT .M             5.63880:  START DEPTH
STOP .M          2149.90680:  STOP DEPTH
STEP .M             0.15240:  STEP
NULL .              -999.25:  NULL VALUE
COMP .                     :  COMPANY
WELL .            Ngatoro-4:  WELL
FLD  .                     :  FIELD
LOC  .                     :  LOCATION
CTRY .                     :  COUNTRY
STAT .                     :  STATE
CNTY .                     :  COUNTY
SRVC .     New Zealand Petroleum Co Ltd:  SERVICE COMPANY
DATE .                     :  DATE
API  .                     :  API NUMBER
UWI  .         100000159749:  UNIQUE WELL ID
LATI .           -39.193014:  LATITUDE
LONG .          174.1756345:  LONGITUDE
~Curve Information Block
#MNEM.UNIT         API CODE   Curve Description
#---------- ----------------  -----------------
DEPTH.M                    :  
BS   .IN                   :  Bit Size (Created in Geolog)
CALI .IN                   :  Caliper Log (CALI)
DRHO .G/C3                 :  Density Log Correction (DRHO)
DTC  .US/F                 :  Delta T (DT)
DTS  .US/F                 :  Delta T Shear Lower Dipole (DT1)
GR   .GAPI                 :  Gamma-Ray Log (GR)
GR_CORR.GAPI                 :  Gamma ray corrected
NEUT .V/V                  :  Neutron Log Porosity (NPHI)
NEUT_CORR.V/V                  :  Corrected NPHI (limestone units)
PEF  .B/E                  :  Photoelectric Factor (PEDF)
RESD .OHMM                 :  Laterolog Deep Resistivity (LLD)
RESD_CORR.OHMM                 :  Borehole corrected LLD
RESS .OHMM                 :  Shallow Laterolog (LLS)
RESS_CORR.OHMM                 :  Borehole corrected LLS
SP   .MV                   :  Spontaneous Potential Log (SP)
TEMP .DEGC                 :  Temperature (TEMP)
TENS .KGF                  :  Cable tension at surface (TENS)
~Parameter Information Block
#MNEM.UNIT            Value   Description
#---------- ----------------  -----------
CUR_INT_BOT.M                2150:  Current interpolated bottom
PROJECT.     New Zealand Log QC Project:  
SET  .     A0_FINAL_INTER_REF_D:  
ELEVATION_AMSL.M               297.7:  Elevation above mean sea level
ELEVATION_REF.                   KB:  Measurement reference
FORMATION_AT_TD.                 Moki:  Formation at TD
GL_ELEVATION_AMSL.M            292.8000:  Ground level elevation above mean sea level
LICENCE_NUMBER.             PPL38706:  Licence number
ONSHORE_OR_OFFSHORE.              Onshore:  Onshore/offshore
PR_NUMBER.               PR1914:  Petroleum report number
SPUD_DATE.           07/03/1993:  Spud date
STATUS_AT_COMPLETION.     Suspended as a potential oil producer:  Status at completion
TD_DATE.           21/03/1993:  Total depth date
TOTAL_DEPTH_DRILLED.M                2150:  Total depth drilled
~Other Information Block
# 
~A       DEPTH             BS           CALI           DRHO            DTC            DTS             GR        GR_CORR           NEUT      NEUT_CORR            PEF           RESD      RESD_CORR           RESS      RESS_CORR             SP           TEMP           TENS 
# ...
    1560.11880         8.5000         8.8101      0.0050284        56.4174        56.6016       111.7303       113.0088       0.221351       0.213468         3.1482         3.2564         3.2808         3.7033         3.7859      -999.2500        53.4848       485.8078
    1560.27120         8.5000         8.8104      0.0050428        56.4692        56.6913       109.8309       111.3647       0.219477       0.211663         3.1602         3.3065         3.3317         3.7498         3.8330      -999.2500        53.4883       485.8415
    1560.42360         8.5000         8.8107      0.0050573        56.5211        56.7810       107.9315       109.7205       0.217602       0.209859         3.1722         3.3567         3.3827         3.7964         3.8801      -999.2500        53.4917       485.8751
    1560.57600         8.5000         8.8111      0.0044451        56.5648        56.8583       107.8283       109.6933       0.217691       0.209932         3.1912         3.3901         3.4166         3.8229         3.9069      -999.2500        53.4949       485.9073
    1560.72840         8.5000         8.8115      0.0032028        56.6004        56.9231       109.5307       111.2915       0.219754       0.211893         3.2171         3.4065         3.4333         3.8294         3.9135      -999.2500        53.4978       485.9379
    1560.88080         8.5000         8.8120      0.0019606        56.6360        56.9879       111.2331       112.8897       0.221817       0.213853         3.2431         3.4230         3.4501         3.8358         3.9200      -999.2500        53.5007       485.9685
    1561.03320         8.5000         8.8140      0.0012367        56.6632        57.0474       112.7800       114.3341       0.223048       0.214997         3.2554         3.4233         3.4505         3.8271         3.9115      -999.2500        53.5034       486.2021
    1561.18560         8.5000         8.8217      0.0023734        56.6602        57.0878       113.7685       115.2259       0.221289       0.213208         3.2187         3.3658         3.3925         3.7641         3.8487      -999.2500        53.5056       487.1647
    1561.33800         8.5000         8.8294      0.0035102        56.6573        57.1282       114.7570       116.1177       0.219530       0.211419         3.1820         3.3083         3.3345         3.7012         3.7859      -999.2500        53.5078       488.1272
    1561.49040         8.5000         8.8371      0.0046470        56.6543        57.1686       115.7455       117.0096       0.217771       0.209630         3.1453         3.2508         3.2765         3.6382         3.7231      -999.2500        53.5101       489.0898
    1561.64280         8.5000         8.8381      0.0040932        56.6749        57.2420       114.9859       116.3353       0.219933       0.211672         3.1333         3.2634         3.2894         3.6447         3.7298      -999.2500        53.5134       488.4911
    1561.79520         8.5000         8.8386      0.0034257        56.6971        57.3176       114.1088       115.5557       0.222357       0.213971         3.1229         3.2808         3.3070         3.6558         3.7411      -999.2500        53.5167       487.7874
    1561.94760         8.5000         8.8391      0.0027582        56.7193        57.3932       113.2318       114.7761       0.224782       0.216271         3.1125         3.2981         3.3246         3.6669         3.7524      -999.2500        53.5201       487.0837
    1562.10000         8.5000         8.8383      0.0022391        56.7076        57.3982       111.8949       113.4684       0.226746       0.218166         3.1345         3.3389         3.3660         3.7017         3.7875      -999.2500        53.5235       486.8279
    1562.25240         8.5000         8.8367      0.0017978        56.6782        57.3662       110.3172       111.8839       0.228469       0.219850         3.1735         3.3919         3.4199         3.7490         3.8351      -999.2500        53.5269       486.8067
    1562.40480         8.5000         8.8350      0.0013564        56.6487        57.3341       108.7394       110.2995       0.230192       0.221534         3.2125         3.4450         3.4737         3.7963         3.8827      -999.2500        53.5303       486.7856
    1562.55720         8.5000         8.8313      0.0010744        56.6540        57.3078       107.2221       108.7830       0.231552       0.222908         3.2247         3.4929         3.5221         3.8387         3.9252      -999.2500        53.5336       487.1088
    1562.70960         8.5000         8.8241      0.0010577        56.7170        57.2908       105.8052       107.3796       0.232309       0.223769         3.1925         3.5320         3.5614         3.8733         3.9592      -999.2500        53.5369       488.0051
    1562.86200         8.5000         8.8169      0.0010410        56.7800        57.2739       104.3883       105.9762       0.233066       0.224629         3.1603         3.5712         3.6008         3.9078         3.9933      -999.2500        53.5401       488.9014
    1563.01440         8.5000         8.8102      0.0010869        56.8811        57.3379       103.2938       104.8768       0.233812       0.225468         3.1297         3.5974         3.6271         3.9299         4.0148      -999.2500        53.5435       489.6028
    1563.16680         8.5000         8.8086      0.0017319        57.3464        58.1776       105.2881       106.6906       0.234464       0.226113         3.1144         3.4997         3.5278         3.8322         3.9159      -999.2500        53.5478       488.4358
    1563.31920         8.5000         8.8070      0.0023768        57.8117        59.0174       107.2824       108.5044       0.235116       0.226758         3.0990         3.4020         3.4285         3.7345         3.8171      -999.2500        53.5521       487.2688
    1563.47160         8.5000         8.8054      0.0030218        58.2770        59.8571       109.2768       110.3182       0.235767       0.227403         3.0837         3.3043         3.3293         3.6368         3.7183      -999.2500        53.5564       486.1018
    1563.62400         8.5000         8.8064      0.0028668        58.2911        59.6893       109.7779       110.9636       0.236180       0.227779         3.1102         3.2906         3.3154         3.6218         3.7032      -999.2500        53.5603       486.0173
    1563.77640         8.5000         8.8080      0.0025285        58.2019        59.2907       109.9370       111.3414       0.236539       0.228095         3.1462         3.2961         3.3210         3.6257         3.7073      -999.2500        53.5641       486.1807
    1563.92880         8.5000         8.8095      0.0021902        58.1127        58.8921       110.0961       111.7193       0.236898       0.228410         3.1823         3.3016         3.3267         3.6295         3.7114      -999.2500        53.5679       486.3441
    1564.08120         8.5000         8.8114      0.0027376        57.9029        58.5518       110.3497       112.0126       0.236739       0.228224         3.1928         3.3116         3.3369         3.6375         3.7196      -999.2500        53.5713       486.5573
    1564.23360         8.5000         8.8136      0.0040616        57.5872        58.2626       110.6861       112.2318       0.236126       0.227597         3.1810         3.3255         3.3512         3.6491         3.7315      -999.2500        53.5743       486.8143
    1564.38600         8.5000         8.8158      0.0053856        57.2715        57.9734       111.0225       112.4511       0.235514       0.226971         3.1692         3.3395         3.3655         3.6606         3.7435      -999.2500        53.5773       487.0712
    1564.53840         8.5000         8.8171      0.0065423        57.0179        57.7243       111.4347       112.7821       0.234522       0.225996         3.1561         3.3676         3.3942         3.6876         3.7708      -999.2500        53.5805       487.3717
