~Version Information Block
VERS .                 2.00:  CWLS LOG ASCII STANDARD - VERSION 2.00
WRAP .                   NO:  One line per depth step
~Well Information Block
#MNEM.UNIT        Data Type   Information
#---------- ----------------  -----------
STRT .M             9.14400:  START DEPTH
STOP .M          1999.48800:  STOP DEPTH
STEP .M             0.15240:  STEP
NULL .              -999.25:  NULL VALUE
COMP .                     :  COMPANY
WELL .            Ngatoro-2:  WELL
FLD  .                     :  FIELD
LOC  .                     :  LOCATION
CTRY .                     :  COUNTRY
STAT .                     :  STATE
CNTY .                     :  COUNTY
SRVC .     New Zealand Petroleum Co Ltd:  SERVICE COMPANY
DATE .                     :  DATE
API  .                     :  API NUMBER
UWI  .         100000127958:  UNIQUE WELL ID
LATI .          -39.1949429:  LATITUDE
LONG .          174.1849215:  LONGITUDE
~Curve Information Block
#MNEM.UNIT         API CODE   Curve Description
#---------- ----------------  -----------------
DEPTH.M                    :  
BS   .IN                   :  Bit Size (Created in Geolog)
CALI .IN                   :  Caliper Log (CALI)
DENS .G/C3                 :  Compensated Formation Density Log (RHOB)
DRHO .G/C3                 :  Density Log Correction (DRHO)
DTC  .US/F                 :  Delta T (DT)
DTS  .US/F                 :  Delta T Shear Lower Dipole (DT1)
GR   .GAPI                 :  Gamma-Ray Raw (Reeves PSD) (GRCF)
GR_CORR.GAPI                 :  Gamma ray corrected
NEUT .V/V                  :  Neutron Log Porosity (NPHI)
NEUT_CORR.V/V                  :  Corrected NPHI (limestone units)
PEF  .B/E                  :  Photoelectric Factor (PEDF)
RESD .OHMM                 :  Laterolog Deep Resistivity (LLD)
RESD_CORR.OHMM                 :  Borehole corrected LLD
RESS .OHMM                 :  Shallow Laterolog (LLS)
RESS_CORR.OHMM                 :  Borehole corrected LLS
SP   .MV                   :  Spontaneous Potential Log (SP)
TEMP .DEGC                 :  Temperature (TEMP)
TENS .KGF                  :  Cable tension at surface (TENS)
~Parameter Information Block
#MNEM.UNIT            Value   Description
#---------- ----------------  -----------
CUR_INT_BOT.M                2000:  Current interpolated bottom
PROJECT.     New Zealand Log QC Project:  
SET  .     A0_FINAL_INTER_REF_D:  
ELEVATION_AMSL.M              294.94:  Elevation above mean sea level
ELEVATION_REF.                   KB:  Measurement reference
FORMATION_AT_TD.             Manganui:  Formation at TD
GL_ELEVATION_AMSL.M            286.3000:  Ground level elevation above mean sea level
LICENCE_NUMBER.             PPL38706:  Licence number
ONSHORE_OR_OFFSHORE.              Onshore:  Onshore/offshore
PR_NUMBER.               PR1920:  Petroleum report number
SPUD_DATE.           12/10/1991:  Spud date
STATUS_AT_COMPLETION.     Completed as an oil producer:  Status at completion
TD_DATE.           26/10/1991:  Total depth date
TOTAL_DEPTH_DRILLED.M                2000:  Total depth drilled
~Other Information Block
# 
~A       DEPTH             BS           CALI           DENS           DRHO            DTC            DTS             GR        GR_CORR           NEUT      NEUT_CORR            PEF           RESD      RESD_CORR           RESS      RESS_CORR             SP           TEMP           TENS 
# ...
    1149.40080         8.5000         8.5700         2.3739      0.0101679        91.6419      -999.2500       103.4287       103.2698       0.286456       0.278738         2.9742         2.2516         2.2530         2.3625         2.4129       121.8074        45.0547       614.4369
    1149.55320         8.5000         8.5713         2.3745      0.0102873        91.6664      -999.2500       102.4718       102.3221       0.272409       0.265050         2.9666         2.2558         2.2571         2.3674         2.4179       121.9543        45.0595       613.9423
    1149.70560         8.5000         8.5731         2.3738      0.0106612        91.8706      -999.2500       103.8648       103.7229       0.265099       0.257914         3.0079         2.2493         2.2508         2.3521         2.4027       122.1339        45.0596       614.6672
    1149.85800         8.5000         8.5749         2.3732      0.0110351        92.0748      -999.2500       105.2577       105.1236       0.257789       0.250778         3.0491         2.2429         2.2446         2.3368         2.3874       122.3135        45.0597       615.3923
    1150.01040         8.5000         8.5765         2.3725      0.0114136        92.2626      -999.2500       106.3208       106.1943       0.251815       0.244942         3.0870         2.2366         2.2385         2.3226         2.3734       122.4776        45.0601       616.1026
    1150.16280         8.5000         8.5767         2.3715      0.0118551        92.2264      -999.2500       102.8798       102.7581       0.264081       0.256859         3.0792         2.2325         2.2343         2.3246         2.3753       122.4296        45.0644       616.6130
    1150.31520         8.5000         8.5768         2.3704      0.0122967        92.1902      -999.2500        99.4389        99.3219       0.276347       0.268776         3.0714         2.2284         2.2301         2.3265         2.3772       122.3816        45.0686       617.1235
    1150.46760         8.5000         8.5769         2.3694      0.0127383        92.1540      -999.2500        95.9979        95.8857       0.288613       0.280694         3.0635         2.2243         2.2259         2.3284         2.3791       122.3336        45.0729       617.6339
    1150.62000         8.5000         8.5739         2.3701      0.0120284        91.8807      -999.2500        96.7900        96.6609       0.287018       0.279200         3.0582         2.2243         2.2261         2.3299         2.3804       122.2525        45.0750       617.7537
    1150.77240         8.5000         8.5700         2.3714      0.0110078        91.5435      -999.2500        98.7251        98.5731       0.281680       0.274085         3.0536         2.2254         2.2274         2.3312         2.3815       122.1625        45.0766       617.7681
    1150.92480         8.5000         8.5661         2.3726      0.0099871        91.2063      -999.2500       100.6602       100.4853       0.276341       0.268970         3.0489         2.2266         2.2287         2.3324         2.3826       122.0725        45.0782       617.7825
    1151.07720         8.5000         8.5721         2.3755      0.0097227        91.0241      -999.2500       103.0533       102.9106       0.273525       0.266121         3.0447         2.2390         2.2414         2.3479         2.3985       121.9452        45.0805       617.2100
    1151.22960         8.5000         8.5879         2.3799      0.0101949        90.9930      -999.2500       105.8924       105.8356       0.273166       0.265477         3.0409         2.2625         2.2653         2.3772         2.4288       121.7817        45.0835       616.0660
    1151.38200         8.5000         8.6036         2.3844      0.0106672        90.9618      -999.2500       108.7316       108.7607       0.272807       0.264834         3.0371         2.2861         2.2891         2.4066         2.4591       121.6182        45.0866       614.9219
    1151.53440         8.5000         8.6158         2.3875      0.0108212        90.9900      -999.2500       110.5938       110.6895       0.273533       0.265308         3.0418         2.3028         2.3062         2.4276         2.4809       121.4795        45.0899       614.0255
    1151.68680         8.5000         8.6162         2.3859      0.0098834        91.2215      -999.2500       109.1045       109.2010       0.277982       0.269615         3.0760         2.2963         2.2997         2.4203         2.4736       121.4256        45.0942       613.9786
    1151.83920         8.5000         8.6166         2.3843      0.0089456        91.4530      -999.2500       107.6153       107.7125       0.282431       0.273922         3.1102         2.2898         2.2933         2.4131         2.4663       121.3718        45.0985       613.9318
    1151.99160         8.5000         8.6170         2.3826      0.0080078        91.6846      -999.2500       106.1261       106.2240       0.286879       0.278229         3.1444         2.2834         2.2869         2.4058         2.4590       121.3180        45.1028       613.8849
    1152.14400         8.5000         8.6129         2.3819      0.0083503        91.6541      -999.2500       103.7026       103.7770       0.285844       0.277305         3.1189         2.2765         2.2800         2.3993         2.4523       121.6046        45.1054       613.7150
    1152.29640         8.5000         8.6085         2.3813      0.0087675        91.6083      -999.2500       101.2246       101.2741       0.284489       0.276076         3.0900         2.2696         2.2731         2.3928         2.4456       121.9110        45.1079       613.5377
    1152.44880         8.5000         8.6041         2.3807      0.0091847        91.5625      -999.2500        98.7465        98.7711       0.283134       0.274847         3.0611         2.2628         2.2662         2.3864         2.4389       122.2174        45.1104       613.3605
    1152.60120         8.5000         8.6072         2.3826      0.0106928        91.4917      -999.2500        99.5872        99.6290       0.288439       0.279931         3.0805         2.2633         2.2669         2.3947         2.4474       122.2647        45.1150       614.2504
    1152.75360         8.5000         8.6140         2.3858      0.0127529        91.4084      -999.2500       102.1070       102.1872       0.297114       0.288209         3.1243         2.2676         2.2716         2.4105         2.4636       122.1810        45.1207       615.6801
    1152.90600         8.5000         8.6209         2.3889      0.0148130        91.3251      -999.2500       104.6267       104.7454       0.305789       0.296488         3.1682         2.2720         2.2762         2.4263         2.4799       122.0973        45.1264       617.1099
    1153.05840         8.5000         8.6264         2.3912      0.0161457        91.3280      -999.2500       105.7444       105.8933       0.308813       0.299313         3.1907         2.2767         2.2812         2.4370         2.4909       122.1125        45.1295       617.8945
    1153.21080         8.5000         8.6299         2.3919      0.0163075        91.4697      -999.2500       104.6053       104.7710       0.302742       0.293359         3.1791         2.2822         2.2869         2.4395         2.4936       122.2870        45.1284       617.6407
    1153.36320         8.5000         8.6333         2.3926      0.0164694        91.6114      -999.2500       103.4663       103.6487       0.296671       0.287405         3.1674         2.2877         2.2925         2.4420         2.4964       122.4615        45.1272       617.3870
    1153.51560         8.5000         8.6384         2.3929      0.0166326        91.7628      -999.2500       102.3263       102.5337       0.292586       0.283338         3.1561         2.2928         2.2978         2.4438         2.4986       122.5963        45.1271       617.3372
    1153.66800         8.5000         8.6580         2.3890      0.0168083        91.9989      -999.2500       101.1782       101.4817       0.305916       0.295819         3.1473         2.2947         2.3003         2.4400         2.4960       122.3832        45.1359       619.0760
