~Version Information Block
VERS .                 2.00:  CWLS LOG ASCII STANDARD - VERSION 2.00
WRAP .                   NO:  One line per depth step
~Well Information Block
#MNEM.UNIT        Data Type   Information
#---------- ----------------  -----------
STRT .M           514.50240:  START DEPTH
STOP .M          1925.26920:  STOP DEPTH
STEP .M             0.15240:  STEP
NULL .              -999.25:  NULL VALUE
COMP .                     :  COMPANY
WELL .            Ngatoro-6:  WELL
FLD  .                     :  FIELD
LOC  .                     :  LOCATION
CTRY .                     :  COUNTRY
STAT .                     :  STATE
CNTY .                     :  COUNTY
SRVC .     New Zealand Petroleum Co Ltd:  SERVICE COMPANY
DATE .                     :  DATE
API  .                     :  API NUMBER
UWI  .         100000210185:  UNIQUE WELL ID
LATI .          -39.2039386:  LATITUDE
LONG .          174.1707675:  LONGITUDE
~Curve Information Block
#MNEM.UNIT         API CODE   Curve Description
#---------- ----------------  -----------------
DEPTH.M                    :  
BS   .IN                   :  Bit Size (Created in Geolog)
CALI .IN                   :  CALIPER (HCAL)
DENS .G/C3                 :  Bulk Density (RHOZ) and HR Bulk Density (RHO8)
DTC  .US/F                 :  Delta Time Compressional (DTCO)
DTS  .US/F                 :  Delta-T Shear (DTSM)
GR   .GAPI                 :  Gamma Ray (GR) and HR Gamma Ray (HGR)
NEUT .V/V                  :  Neutron Porosity (NPHI) and HR Neutron Porosity (HTNP)
NEUT_CORR.V/V                  :  Corrected NPHI (limestone units)
PEF  .B/E                  :  HRDD Std Resolution Formation Photoelectric Factor (PEFZ) and (PEF8)
RESD .OHMM                 :  HALS Deep Res. (HLLD) and HR HALS Deep Res. (HRLD)
RESS .OHMM                 :  HALS Shallow Res. (HLLS) and HR HALS Shallow Res. (HRLS)
SP   .MV                   :  Spontaneous Potential (SP)
~Parameter Information Block
#MNEM.UNIT            Value   Description
#---------- ----------------  -----------
CUR_INT_BOT.M                1930:  Current interpolated bottom
PROJECT.     New Zealand Log QC Project:  
SET  .     A0_FINAL_INTER_REF_D:  
ELEVATION_AMSL.M                 328:  Elevation above mean sea level
ELEVATION_REF.                   KB:  Measurement reference
FORMATION_AT_TD.      Mount Messenger:  Formation at TD
GL_ELEVATION_AMSL.M            322.5000:  Ground level elevation above mean sea level
LICENCE_NUMBER.             PPL38706:  Licence number
ONSHORE_OR_OFFSHORE.              Onshore:  Onshore/offshore
PR_NUMBER.               PR2214:  Petroleum report number
SPUD_DATE.           27/03/1996:  Spud date
STATUS_AT_COMPLETION.     Suspended with 7" casing cemented in place:  Status at completion
TD_DATE.           04/04/1996:  Total depth date
TOTAL_DEPTH_DRILLED.M                1930:  Total depth drilled
~Other Information Block
# 
~A       DEPTH             BS           CALI           DENS            DTC            DTS             GR           NEUT      NEUT_CORR            PEF           RESD           RESS             SP 
# ...
    1903.47600         8.5000         8.3121         2.4048        90.2341       181.2864        96.9908       0.241619       0.245433         3.1201         2.9677         3.1172       236.2515
    1903.62840         8.5000         8.3280         2.4064        90.7868       181.5412        96.6993       0.241633       0.245424         3.1048         2.9487         3.0882       236.8858
    1903.78080         8.5000         8.3438         2.4096        91.4009       181.7494        96.5073       0.241608       0.245373         3.0855         2.9233         3.0521       237.5686
    1903.93320         8.5000         8.3596         2.4127        92.0150       181.9575        96.3154       0.241584       0.245322         3.0662         2.8978         3.0159       238.2514
    1904.08560         8.5000         8.3651         2.4108        91.6733       180.0512        96.7619       0.239931       0.243325         3.0599         2.8797         2.9979       238.1331
    1904.23800         8.5000         8.3627         2.4050        90.5857       176.4947        97.7066       0.237007       0.239811         3.0638         2.8673         2.9938       237.3898
    1904.39040         8.5000         8.3603         2.3992        89.4981       172.9382        98.6513       0.234083       0.236296         3.0677         2.8548         2.9898       236.6464
    1904.54280         8.5000         8.3601         2.4036        88.4353       169.9706        99.5465       0.231864       0.233637         3.0920         2.9719         3.1143       235.9963
    1904.69520         8.5000         8.3655         2.4345        87.4359       168.5109       100.3148       0.231448       0.233169         3.1684         3.4203         3.5677       235.5852
    1904.84760         8.5000         8.3708         2.4654        86.4365       167.0513       101.0832       0.231032       0.232702         3.2448         3.8688         4.0211       235.1740
    1905.00000         8.5000         8.3762         2.4962        85.4371       165.5917       101.8516       0.230616       0.232234         3.3211         4.3173         4.4745      -999.2500
    1905.15240         8.5000         8.3880         2.4649        87.2273       170.4316       103.3802       0.235055       0.237081         3.2472         3.8379         4.0023      -999.2500
    1905.30480         8.5000         8.3999         2.4336        89.0174       175.2716       104.9089       0.239493       0.241928         3.1732         3.3586         3.5301      -999.2500
    1905.45720         8.5000         8.4117         2.4022        90.8076       180.1116       106.4376       0.243932       0.246776         3.0992         2.8792         3.0579      -999.2500
    1905.60960         8.5000         8.4329         2.4013        91.0936       181.6208       105.9927       0.245016       0.248064         3.1054         2.8340         3.0184      -999.2500
    1905.76200         8.5000         8.4578         2.4123        90.7920       181.8292       104.7771       0.244789       0.247962         3.1430         2.9584         3.1478      -999.2500
    1905.91440         8.5000         8.4826         2.4233        90.4905       182.0377       103.5615       0.244563       0.247861         3.1806         3.0827         3.2773      -999.2500
    1906.06680         8.5000         8.4980         2.4261        90.1780       181.8807       103.3382       0.244564       0.247826         3.1925         3.1307         3.3322      -999.2500
    1906.21920         8.5000         8.5014         2.4184        89.8514       181.2554       104.3865       0.244856       0.247877         3.1716         3.0810         3.2917      -999.2500
    1906.37160         8.5000         8.5047         2.4107        89.5248       180.6301       105.4347       0.245147       0.247927         3.1507         3.0313         3.2512      -999.2500
    1906.52400         8.5000         8.5056         2.4049        89.2076       180.1356       106.5010       0.244864       0.247441         3.1310         3.0244         3.2532      -999.2500
    1906.67640         8.5000         8.4938         2.4091        88.9408       180.3411       107.6633       0.241506       0.244084         3.1177         3.2467         3.4824      -999.2500
    1906.82880         8.5000         8.4820         2.4132        88.6740       180.5466       108.8257       0.238148       0.240726         3.1043         3.4690         3.7117      -999.2500
    1906.98120         8.5000         8.4702         2.4173        88.4072       180.7521       109.9880       0.234789       0.237369         3.0910         3.6912         3.9410      -999.2500
    1907.13360         8.5000         8.4579         2.4317        89.2732       180.3645       110.9665       0.235620       0.238347         3.1319         3.6538         3.9007      -999.2500
    1907.28600         8.5000         8.4455         2.4475        90.2987       179.8935       111.9190       0.237039       0.239935         3.1804         3.5799         3.8224      -999.2500
    1907.43840         8.5000         8.4332         2.4633        91.3241       179.4224       112.8716       0.238459       0.241523         3.2289         3.5060         3.7441      -999.2500
    1907.59080         8.5000         8.4254         2.4624        91.0196       178.5200       112.5250       0.237958       0.240975         3.2383         3.4435         3.6769      -999.2500
    1907.74320         8.5000         8.4206         2.4501        89.8128       177.3250       111.2970       0.236153       0.238978         3.2211         3.3888         3.6174      -999.2500
    1907.89560         8.5000         8.4158         2.4378        88.6060       176.1300       110.0690       0.234348       0.236982         3.2040         3.3340         3.5579      -999.2500
    1908.04800         8.5000         8.4113         2.4313        87.6496      -999.2500       109.0375       0.235498       0.237888         3.1932         3.3295         3.5492      -999.2500
    1908.20040         8.5000         8.4076         2.4377        87.2379      -999.2500       108.4334       0.243075       0.245111         3.1964         3.4343         3.6512      -999.2500
    1908.35280         8.5000         8.4039         2.4441        86.8262      -999.2500       107.8292       0.250652       0.252333         3.1997         3.5390         3.7532      -999.2500
    1908.50520         8.5000         8.4003         2.4500        86.4296      -999.2500       107.2668       0.257863       0.259219         3.2022         3.6361         3.8476      -999.2500
    1908.65760         8.5000         8.3974         2.4419        86.4602      -999.2500       107.8856       0.254715       0.256599         3.1852         3.5179         3.7250      -999.2500
    1908.81000         8.5000         8.3945         2.4338        86.4909      -999.2500       108.5044       0.251567       0.253979         3.1682         3.3997         3.6024      -999.2500
    1908.96240         8.5000         8.3916         2.4256        86.5216      -999.2500       109.1232       0.248419       0.251358         3.1511         3.2815         3.4798      -999.2500
    1909.11480         8.5000         8.3990         2.4202        86.7089      -999.2500       108.4784       0.247593       0.250621         3.1523         3.2846         3.4691      -999.2500
    1909.26720         8.5000         8.4098         2.4156        86.9476      -999.2500       107.4198       0.247528       0.250500         3.1595         3.3274         3.4950      -999.2500
    1909.41960         8.5000         8.4206         2.4110        87.1863      -999.2500       106.3612       0.247463       0.250380         3.1667         3.3703         3.5209      -999.2500
    1909.57200         8.5000         8.4269         2.4150        87.6036      -999.2500       106.4037       0.246042       0.248837         3.1747         3.3836         3.5187      -999.2500
    1909.72440         8.5000         8.4283         2.4286        88.2204      -999.2500       107.6759       0.243107       0.245706         3.1838         3.3640         3.4852      -999.2500
