~Version Information Block
VERS .                 2.00:  CWLS LOG ASCII STANDARD - VERSION 2.00
WRAP .                   NO:  One line per depth step
~Well Information Block
#MNEM.UNIT        Data Type   Information
#---------- ----------------  -----------
STRT .M            16.61160:  START DEPTH
STOP .M          1898.90400:  STOP DEPTH
STEP .M             0.15240:  STEP
NULL .              -999.25:  NULL VALUE
COMP .                     :  COMPANY
WELL .         Ngatoro-3ST1:  WELL
FLD  .                     :  FIELD
LOC  .                     :  LOCATION
CTRY .                     :  COUNTRY
STAT .                     :  STATE
CNTY .                     :  COUNTY
SRVC .     Greymouth Petroleum Ltd:  SERVICE COMPANY
DATE .                     :  DATE
API  .                     :  API NUMBER
UWI  .         100000787700:  UNIQUE WELL ID
LATI .          -39.1846084:  LATITUDE
LONG .          174.1883756:  LONGITUDE
~Curve Information Block
#MNEM.UNIT         API CODE   Curve Description
#---------- ----------------  -----------------
DEPTH.M                    :  
BS   .IN                   :  Bit Size (Created in Geolog)
CALI .IN                   :  HRCC Cal. Caliper (HCAL)
DENS .G/C3                 :  HRDD High Resolution Formation Density (RHO8)
DRHO .G/C3                 :  HRDD Density Correction (HDRA)
GR   .GAPI                 :  HiRes Gamma-Ray (EHGR)
NEUT .V/V                  :  HiRes Thermal Neutron Porosity (HTNP)
PEF  .B/E                  :  HRDD High Resolution Formation Photoelectric Factor (PEF8)
RESD .OHMM                 :  Array Induction Two Foot Resistivity A90 (AHT90)
RESM .OHMM                 :  Array Induction Two Foot Resistivity A30 (AHT30)
RESS .OHMM                 :  Array Induction Two Foot Resistivity A10 (AHT10)
SP   .MV                   :  SP Shifted (SP)
TEMP .DEGC                 :  HTC Temperature (HTEM)
TENS .KGF                  :  Cable Tension (TENS)
~Parameter Information Block
#MNEM.UNIT            Value   Description
#---------- ----------------  -----------
CUR_INT_BOT.M                1899:  Current interpolated bottom
PROJECT.     New Zealand Log QC Project:  
SET  .     A0_FINAL_INTER_REF_D:  
ELEVATION_AMSL.M              262.91:  Elevation above mean sea level
ELEVATION_REF.                   DF:  Measurement reference
FORMATION_AT_TD.             Manganui:  Formation at TD
GL_ELEVATION_AMSL.M            259.3000:  Ground level elevation above mean sea level
KICK_OFF_DATE.           26/09/2005:  Kick off date
KICK_OFF_DEPTH.M                 645:  Kick off depth
LICENCE_NUMBER.             PMP38148:  Licence number
ONSHORE_OR_OFFSHORE.              Onshore:  Onshore/offshore
PARENT_WELL.            Ngatoro-3:  Parent well
PR_NUMBER.               PR3237:  Petroleum report number
STATUS_AT_COMPLETION.     Completed ready for perforating:  Status at completion
TD_DATE.           05/10/2005:  Total depth date
TOTAL_DEPTH_DRILLED.M             1898.82:  Total depth drilled
~Other Information Block
# 
~A       DEPTH             BS           CALI           DENS           DRHO             GR           NEUT            PEF           RESD           RESM           RESS             SP           TEMP           TENS 
# ...
    1395.52680         6.0000         5.9234         2.3501      0.0009234        96.1285       0.342708         2.9795         2.8336         2.7565         3.0018       375.7745        52.2061      1108.1235
    1395.67920         6.0000         5.9307         2.3600      0.0016268        96.1856       0.329284         3.0346         2.9289         2.9375         3.2281       372.6769        52.2061      1111.1870
    1395.83160         6.0000         5.9381         2.3700      0.0023302        96.2427       0.315861         3.0897         3.0241         3.1185         3.4545       369.5793        52.2061      1114.2505
    1395.98400         6.0000         5.9454         2.3799      0.0030336        96.2998       0.302437         3.1449         3.1194         3.2995         3.6809       366.4818        52.2061      1117.3138
    1396.13640         6.0000         5.9610         2.4171      0.0014585        93.8428       0.287248         3.1833         3.2532         3.5616         3.9600       364.1947        52.2061      1110.3042
    1396.28880         6.0000         5.9777         2.4576     -0.0003840        91.0910       0.271851         3.2197         3.3915         3.8333         4.2453       362.0027        52.2061      1102.1129
    1396.44120         6.0000         5.9943         2.4980     -0.0022264        88.3391       0.256455         3.2561         3.5299         4.1050         4.5307       359.8108        52.2061      1093.9216
    1396.59360         6.0000         5.9868         2.4755     -0.0025302        88.0220       0.255647         3.1948         3.4029         3.9538         4.3673       356.8676        52.2061      1093.4304
    1396.74600         6.0000         5.9640         2.4134     -0.0018674        89.2342       0.264003         3.0720         3.1092         3.5368         3.9221       353.4526        52.2061      1097.7765
    1396.89840         6.0000         5.9413         2.3513     -0.0012046        90.4465       0.272360         2.9493         2.8156         3.1198         3.4769       350.0375        52.2061      1102.1226
    1397.05080         6.0000         5.9259         2.2997     -0.0011392        91.2192       0.283837         2.8472         2.6099         2.8068         3.1214       346.2080        52.2061      1104.2418
    1397.20320         6.0000         5.9253         2.2690     -0.0022687        91.1128       0.301555         2.7867         2.5800         2.7018         2.9452       341.5497        52.2061      1101.9077
    1397.35560         6.0000         5.9246         2.2383     -0.0033983        91.0064       0.319274         2.7262         2.5502         2.5969         2.7690       336.8914        52.2061      1099.5736
    1397.50800         6.0000         5.9241         2.2108     -0.0043510        91.0125       0.335708         2.6715         2.5208         2.4956         2.6010       332.8920        52.2061      1097.3468
    1397.66040         6.0000         5.9264         2.2406     -0.0021132        93.0499       0.328958         2.7217         2.4977         2.4627         2.5809       340.7859        52.2061      1097.0557
    1397.81280         6.0000         5.9287         2.2705      0.0001246        95.0873       0.322209         2.7720         2.4746         2.4297         2.5608       348.6797        52.2061      1096.7645
    1397.96520         6.0000         5.9310         2.3004      0.0023625        97.1246       0.315459         2.8222         2.4515         2.3967         2.5407       356.5736        52.2061      1096.4734
    1398.11760         6.0000         5.9404         2.3073      0.0059868        96.6212       0.310585         2.8469         2.4613         2.4186         2.5700       355.5934        52.2061      1099.4807
    1398.27000         6.0000         5.9517         2.3074      0.0100215        95.3658       0.306265         2.8640         2.4809         2.4566         2.6139       351.9872        52.2061      1103.4641
    1398.42240         6.0000         5.9632         2.3075      0.0140562        94.1104       0.301945         2.8810         2.5004         2.4947         2.6579       348.3811        52.2061      1107.4476
    1398.57480         6.0000         5.9646         2.3128      0.0170069        92.7098       0.303737         2.9073         2.5074         2.5261         2.6993       344.1469        52.2061      1103.0663
    1398.72720         6.0000         5.9557         2.3233      0.0188331        91.1585       0.311870         2.9432         2.5013         2.5507         2.7381       339.2611        52.2061      1090.0072
    1398.87960         6.0000         5.9467         2.3339      0.0206593        89.6072       0.320002         2.9790         2.4952         2.5753         2.7769       334.3754        52.2061      1076.9480
    1399.03200         6.0000         5.9474         2.3418      0.0210835        88.8786       0.326222         2.9984         2.4889         2.5936         2.8068       329.6671        52.2061      1068.9563
    1399.18440         6.0000         5.9842         2.3396      0.0162323        91.2451       0.325242         2.9561         2.4822         2.5884         2.8034       325.6263        52.2061      1080.0314
    1399.33680         6.0000         6.0210         2.3373      0.0113811        93.6117       0.324263         2.9137         2.4754         2.5832         2.7999       321.5854        52.2061      1091.1064
    1399.48920         6.0000         6.0579         2.3351      0.0065299        95.9782       0.323284         2.8713         2.4686         2.5780         2.7965       317.5446        52.2061      1102.1816
    1399.64160         6.0000         6.0373         2.3227      0.0129271        93.6649       0.318379         2.8766         2.4508         2.5542         2.7634       320.7707        52.2061      1105.0182
    1399.79400         6.0000         6.0123         2.3095      0.0201822        90.9946       0.313175         2.8855         2.4322         2.5288         2.7281       324.5509        52.2061      1107.2266
    1399.94640         6.0000         5.9874         2.2963      0.0274373        88.3243       0.307971         2.8945         2.4136         2.5035         2.6928       328.3312        52.2061      1109.4348
    1400.09880         6.0000         5.9706         2.3017      0.0341758        86.7436       0.307861         2.9106         2.4005         2.4856         2.6640       331.9308        52.2061      1108.9982
    1400.25120         6.0000         5.9583         2.3172      0.0406340        85.7540       0.310516         2.9306         2.3905         2.4718         2.6388       335.4324        52.2061      1107.1263
    1400.40360         6.0000         5.9460         2.3327      0.0470921        84.7644       0.313170         2.9506         2.3804         2.4580         2.6136       338.9340        52.2061      1105.2546
    1400.55600         6.0000         5.9482         2.3425      0.0512153        84.7840       0.312374         2.9902         2.3783         2.4547         2.5984       341.6591        52.2061      1106.4471
    1400.70840         6.0000         5.9753         2.3424      0.0513191        86.5411       0.305637         3.0635         2.3900         2.4695         2.6005       343.0478        52.2061      1112.9146
    1400.86080         6.0000         6.0024         2.3423      0.0514228        88.2982       0.298900         3.1367         2.4017         2.4842         2.6026       344.4365        52.2061      1119.3820
    1401.01320         6.0000         6.0282         2.3408      0.0510067        89.7302       0.293156         3.1976         2.4133         2.4960         2.6025       345.4196        52.2061      1124.8009
    1401.16560         6.0000         6.0403         2.3239      0.0451077        87.7337       0.297882         3.1275         2.4234         2.4760         2.5795       342.1270        52.2061      1119.1639
    1401.31800         6.0000         6.0523         2.3070      0.0392087        85.7371       0.302607         3.0574         2.4335         2.4560         2.5565       338.8343        52.2061      1113.5270
