~Version Information Block
VERS .                 2.00:  CWLS LOG ASCII STANDARD - VERSION 2.00
WRAP .                   NO:  One line per depth step
~Well Information Block
#MNEM.UNIT        Data Type   Information
#---------- ----------------  -----------
STRT .M           530.50440:  START DEPTH
STOP .M          1878.48240:  STOP DEPTH
STEP .M             0.15240:  STEP
NULL .              -999.25:  NULL VALUE
COMP .                     :  COMPANY
WELL .            Ngatoro-7:  WELL
FLD  .                     :  FIELD
LOC  .                     :  LOCATION
CTRY .                     :  COUNTRY
STAT .                     :  STATE
CNTY .                     :  COUNTY
SRVC .     New Zealand Petroleum Co Ltd:  SERVICE COMPANY
DATE .                     :  DATE
API  .                     :  API NUMBER
UWI  .         100000210191:  UNIQUE WELL ID
LATI .          -39.2039075:  LATITUDE
LONG .          174.1707218:  LONGITUDE
~Curve Information Block
#MNEM.UNIT         API CODE   Curve Description
#---------- ----------------  -----------------
DEPTH.M                    :  
BS   .IN                   :  Bit Size (Created in Geolog)
CALI .IN                   :  Caliper (HCAL)
DENS .G/C3                 :  Bulk Density (RHOZ) and HR Bulk Density (RHO8)
DTC  .US/F                 :  Delta Time (DTC)
GR   .GAPI                 :  Gamma Ray (GR) and HR Gamma Ray (HGR)
NEUT .V/V                  :  Neutron Porosity (NPHI) and HR Neutron Porosity (HTNP)
NEUT_CORR.V/V                  :  Corrected NPHI (limestone units)
PEF  .B/E                  :  HRDD Std Resolution Formation Photoelectric Factor (PEFZ) and (PEF8)
RESD .OHMM                 :  HALS Deep Res. (HLLD) and HR HALS Deep Res. (HRLD)
RESS .OHMM                 :  HALS Shallow Res. (HLLS) and HR HALS Shallow Res. (HRLS)
SP   .MV                   :  Spontaneous Potential (SP)
~Parameter Information Block
#MNEM.UNIT            Value   Description
#---------- ----------------  -----------
CUR_INT_BOT.M                1879:  Current interpolated bottom
PROJECT.     New Zealand Log QC Project:  
SET  .     A0_FINAL_INTER_REF_D:  
ELEVATION_AMSL.M                 327:  Elevation above mean sea level
ELEVATION_REF.                   KB:  Measurement reference
FORMATION_AT_TD.      Mount Messenger:  Formation at TD
GL_ELEVATION_AMSL.M            321.4000:  Ground level elevation above mean sea level
LICENCE_NUMBER.             PPL38706:  Licence number
ONSHORE_OR_OFFSHORE.              Onshore:  Onshore/offshore
PR_NUMBER.               PR2215:  Petroleum report number
SPUD_DATE.           09/04/1996:  Spud date
STATUS_AT_COMPLETION.     Suspended with 7" casing cemented in place:  Status at completion
TD_DATE.           18/04/1996:  Total depth date
TOTAL_DEPTH_DRILLED.M                1879:  Total depth drilled
~Other Information Block
# 
~A       DEPTH             BS           CALI           DENS            DTC             GR           NEUT      NEUT_CORR            PEF           RESD           RESS             SP 
# ...
    1428.90240         8.5000         8.6883         2.3797        90.2737        96.8710       0.297412       0.298178         3.2355         2.6708         3.0435       146.1605
    1429.05480         8.5000         8.6205         2.3831        89.6680        95.5666       0.302032       0.302971         3.2412         2.7095         3.0879       146.4994
    1429.20720         8.5000         8.5966         2.3953        90.4563        96.8370       0.307671       0.308116         3.2882         2.7928         3.1731       146.2287
    1429.35960         8.5000         8.5727         2.4074        91.2447        98.1074       0.313309       0.313262         3.3352         2.8760         3.2584       145.9580
    1429.51200         8.5000         8.5500         2.4179        91.5464        99.2018       0.317566       0.317061         3.3770         2.9461         3.3308       145.7036
    1429.66440         8.5000         8.5415         2.4085        86.1542        98.2374       0.305656       0.305105         3.3591         2.8620         3.2539       145.6404
    1429.81680         8.5000         8.5329         2.3991        80.7619        97.2729       0.293746       0.293149         3.3412         2.7778         3.1769       145.5771
    1429.96920         8.5000         8.5244         2.3897        75.3696        96.3085       0.281836       0.281193         3.3233         2.6937         3.0999       145.5139
    1430.12160         8.5000         8.5381         2.4127        73.1906        93.8135       0.264373       0.262928         3.3689         3.0656         3.4886       146.1777
    1430.27400         8.5000         8.5576         2.4439        71.8255        90.9307       0.245504       0.243065         3.4307         3.5531         3.9954       147.0256
    1430.42640         8.5000         8.5770         2.4750        70.4604        88.0480       0.226635       0.223202         3.4924         4.0405         4.5021       147.8735
    1430.57880         8.5000         8.5749         2.4922        73.4589        87.7236       0.222794       0.219177         3.5337         4.0639         4.5304       149.0037
    1430.73120         8.5000         8.5525         2.4963        80.5330        89.7889       0.232990       0.229943         3.5557         3.6538         4.1118       150.3976
    1430.88360         8.5000         8.5302         2.5003        87.6070        91.8541       0.243186       0.240710         3.5778         3.2437         3.6932       151.7914
    1431.03600         8.5000         8.5125         2.4955        93.4123        93.3427       0.253277       0.251395         3.5690         2.9004         3.3348       152.3739
    1431.18840         8.5000         8.5098         2.4619        95.1150        92.9668       0.263029       0.261819         3.4606         2.7733         3.1713       150.3330
    1431.34080         8.5000         8.5071         2.4283        96.8177        92.5908       0.272780       0.272242         3.3522         2.6462         3.0078       148.2921
    1431.49320         8.5000         8.5044         2.3947        98.5205        92.2148       0.282531       0.282666         3.2438         2.5190         2.8443       146.2512
    1431.64560         8.5000         8.5174         2.3797        98.1284        90.7981       0.279514       0.278922         3.2393         2.4091         2.7216       144.9262
    1431.79800         8.5000         8.5312         2.3654        97.6385        89.3327       0.275902       0.274517         3.2396         2.3000         2.6009       143.6346
    1431.95040         8.5000         8.5450         2.3512        97.1487        87.8674       0.272289       0.270113         3.2400         2.1909         2.4802       142.3430
    1432.10280         8.5000         8.5653         2.3511        96.8922        89.2290       0.271408       0.269020         3.2417         2.1922         2.4706       142.0883
    1432.25520         8.5000         8.5887         2.3579        96.7484        91.9545       0.271845       0.269526         3.2443         2.2467         2.5145       142.3337
    1432.40760         8.5000         8.6122         2.3647        96.6045        94.6801       0.272282       0.270031         3.2468         2.3013         2.5585       142.5792
    1432.56000         8.5000         8.6265         2.3701        96.4570        95.8434       0.273814       0.271852         3.2482         2.3444         2.5987       142.7017
    1432.71240         8.5000         8.6269         2.3736        96.3036        94.6009       0.277030       0.275698         3.2480         2.3699         2.6333       142.6348
    1432.86480         8.5000         8.6273         2.3770        96.1503        93.3584       0.280246       0.279545         3.2478         2.3954         2.6679       142.5680
    1433.01720         8.5000         8.6258         2.3796        96.0574        92.4485       0.283042       0.282886         3.2477         2.4137         2.6941       142.4493
    1433.16960         8.5000         8.6094         2.3755        96.4394        94.1533       0.282525       0.282264         3.2480         2.3755         2.6533       141.9231
    1433.32200         8.5000         8.5930         2.3714        96.8215        95.8581       0.282009       0.281641         3.2482         2.3374         2.6126       141.3969
    1433.47440         8.5000         8.5765         2.3673        97.2035        97.5629       0.281493       0.281019         3.2485         2.2992         2.5719       140.8706
    1433.62680         8.5000         8.5840         2.3716        97.2436        96.7515       0.279781       0.278964         3.2425         2.3502         2.6270       140.9206
    1433.77920         8.5000         8.5962         2.3776        97.2147        95.4320       0.277827       0.276620         3.2353         2.4191         2.7015       141.0870
    1433.93160         8.5000         8.6084         2.3836        97.1858        94.1125       0.275874       0.274277         3.2280         2.4881         2.7759       141.2534
    1434.08400         8.5000         8.6113         2.3849        97.3860        94.0346       0.275996       0.274382         3.2469         2.5840         2.8749       142.6791
    1434.23640         8.5000         8.6065         2.3824        97.7727        94.9675       0.277810       0.276480         3.2871         2.7019         2.9937       145.1304
    1434.38880         8.5000         8.6017         2.3799        98.1594        95.9005       0.279623       0.278579         3.3273         2.8199         3.1125       147.5817
    1434.54120         8.5000         8.5966         2.3774        98.4469        96.4535       0.283519       0.282698         3.3503         2.8676         3.1623       148.8004
    1434.69360         8.5000         8.5909         2.3749        98.4666        95.9807       0.293036       0.292272         3.3268         2.7257         3.0259       146.6919
    1434.84600         8.5000         8.5852         2.3724        98.4864        95.5080       0.302554       0.301846         3.3033         2.5839         2.8895       144.5834
    1434.99840         8.5000         8.5795         2.3699        98.5062        95.0352       0.312072       0.311420         3.2798         2.4421         2.7531       142.4750
    1435.15080         8.5000         8.5750         2.3712        98.3361        96.3912       0.307417       0.307399         3.2657         2.3912         2.7158       141.7981
    1435.30320         8.5000         8.5705         2.3727        98.1640        97.7666       0.302611       0.303233         3.2518         2.3413         2.6796       141.1364
    1435.45560         8.5000         8.5661         2.3741        97.9918        99.1420       0.297805       0.299068         3.2378         2.2914         2.6434       140.4748
    1435.60800         8.5000         8.5685         2.3713        97.4936        97.5532       0.295008       0.296404         3.2356         2.2485         2.6066       140.5558
