~Version Information Block
VERS .                 2.00:  CWLS LOG ASCII STANDARD - VERSION 2.00
WRAP .                   NO:  One line per depth step
~Well Information Block
#MNEM.UNIT        Data Type   Information
#---------- ----------------  -----------
STRT .M           422.60520:  START DEPTH
STOP .M          2060.90520:  STOP DEPTH
STEP .M             0.15240:  STEP
NULL .              -999.25:  NULL VALUE
COMP .                     :  COMPANY
WELL .           Ngatoro-11:  WELL
FLD  .                     :  FIELD
LOC  .                     :  LOCATION
CTRY .                     :  COUNTRY
STAT .                     :  STATE
CNTY .                     :  COUNTY
SRVC .     New Zealand Petroleum Co Ltd:  SERVICE COMPANY
DATE .                     :  DATE
API  .                     :  API NUMBER
UWI  .         100000290650:  UNIQUE WELL ID
LATI .          -39.1949222:  LATITUDE
LONG .          174.1848583:  LONGITUDE
~Curve Information Block
#MNEM.UNIT         API CODE   Curve Description
#---------- ----------------  -----------------
DEPTH.M                    :  
BS   .IN                   :  Bit Size (Created in Geolog)
CALI .IN                   :  Caliper Log (CALI)
DENS .G/C3                 :  Compensated Formation Density Log (RHOB)
DRHO .G/C3                 :  Density Log Correction (DRHO)
DTC  .US/F                 :  8-10 Ft Compensated Sonic (BPB) (DTC3)
GR   .GAPI                 :  Gamma-Ray Log (GR)
GR_CORR.GAPI                 :  Gamma ray corrected
NEUT .V/V                  :  Neutron Log Porosity (NPHI)
NEUT_CORR.V/V                  :  Corrected NPHI (limestone units)
PEF  .B/E                  :  Photoelectric Factor (PEDF)
RESD .OHMM                 :  Laterolog Deep Resistivity (LLD)
RESD_CORR.OHMM                 :  Borehole corrected LLD
RESS .OHMM                 :  Shallow Laterolog (LLS)
RESS_CORR.OHMM                 :  Borehole corrected LLS
SP   .MV                   :  Spontaneous Potential Log (SP)
TENS .KGF                  :  Cable tension at surface (TENS)
~Parameter Information Block
#MNEM.UNIT            Value   Description
#---------- ----------------  -----------
CUR_INT_BOT.M                2063:  Current interpolated bottom
PROJECT.     New Zealand Log QC Project:  
SET  .     A0_FINAL_INTER_REF_D:  
ELEVATION_AMSL.M              291.65:  Elevation above mean sea level
ELEVATION_REF.                   KB:  Measurement reference
FORMATION_AT_TD.      Mount Messenger:  Formation at TD
GL_ELEVATION_AMSL.M            286.3000:  Ground level elevation above mean sea level
LICENCE_NUMBER.             PMP38148:  Licence number
ONSHORE_OR_OFFSHORE.              Onshore:  Onshore/offshore
PR_NUMBER.               PR2438:  Petroleum report number
SPUD_DATE.           28/06/1998:  Spud date
STATUS_AT_COMPLETION.     Cased and suspended as a future oil producer:  Status at completion
TD_DATE.           15/07/1998:  Total depth date
TOTAL_DEPTH_DRILLED.M                2063:  Total depth drilled
~Other Information Block
# 
~A       DEPTH             BS           CALI           DENS           DRHO            DTC             GR        GR_CORR           NEUT      NEUT_CORR            PEF           RESD      RESD_CORR           RESS      RESS_CORR             SP           TENS 
# ...
    2022.19560         8.5000         8.4452      -999.2500    -999.250000      -999.2500       110.2095       109.8613    -999.250000    -999.250000      -999.2500         4.7253         4.7415         5.1480         5.1646      -999.2500      -999.2500
    2022.34800         8.5000         8.4841      -999.2500    -999.250000      -999.2500       110.8228       110.7027    -999.250000    -999.250000      -999.2500         4.7042         4.7234         5.1290         5.1531      -999.2500      -999.2500
    2022.50040         8.5000         8.5228      -999.2500    -999.250000      -999.2500       111.4347       111.5417    -999.250000    -999.250000      -999.2500         4.6828         4.7051         5.1098         5.1413      -999.2500      -999.2500
    2022.65280         8.5000         8.4944      -999.2500    -999.250000      -999.2500       111.5229       111.4600    -999.250000    -999.250000      -999.2500         4.5659         4.5856         4.9988         5.0262      -999.2500      -999.2500
    2022.80520         8.5000         8.4660      -999.2500    -999.250000      -999.2500       111.6111       111.3784    -999.250000    -999.250000      -999.2500         4.4490         4.4662         4.8879         4.9111      -999.2500      -999.2500
    2022.95760         8.5000         8.4376      -999.2500    -999.250000      -999.2500       111.6993       111.2967    -999.250000    -999.250000      -999.2500         4.3321         4.3468         4.7770         4.7961      -999.2500      -999.2500
    2023.11000         8.5000         8.4276      -999.2500    -999.250000      -999.2500       111.5144       111.0532    -999.250000    -999.250000      -999.2500         4.2392         4.2528         4.6933         4.7113      -999.2500      -999.2500
    2023.26240         8.5000         8.4247      -999.2500    -999.250000      -999.2500       111.2243       110.7473    -999.250000    -999.250000      -999.2500         4.1556         4.1686         4.6200         4.6383      -999.2500      -999.2500
    2023.41480         8.5000         8.4218      -999.2500    -999.250000      -999.2500       110.9342       110.4414    -999.250000    -999.250000      -999.2500         4.0719         4.0845         4.5468         4.5653      -999.2500      -999.2500
    2023.56720         8.5000         8.4197      -999.2500    -999.250000      -999.2500       110.5509       110.0475    -999.250000    -999.250000      -999.2500         4.0246         4.0368         4.5030         4.5215      -999.2500      -999.2500
    2023.71960         8.5000         8.4186      -999.2500    -999.250000      -999.2500       110.0495       109.5421    -999.250000    -999.250000      -999.2500         4.0233         4.0354         4.4964         4.5148      -999.2500      -999.2500
    2023.87200         8.5000         8.4175      -999.2500    -999.250000      -999.2500       109.5482       109.0366    -999.250000    -999.250000      -999.2500         4.0220         4.0340         4.4899         4.5082      -999.2500      -999.2500
    2024.02440         8.5000         8.4173      -999.2500    -999.250000      -999.2500       109.2742       108.7627    -999.250000    -999.250000      -999.2500         4.0450         4.0571         4.5092         4.5273      -999.2500      -999.2500
    2024.17680         8.5000         8.4217      -999.2500    -999.250000      -999.2500       110.1932       109.7036    -999.250000    -999.250000      -999.2500         4.1958         4.2087         4.6646         4.6819      -999.2500      -999.2500
    2024.32920         8.5000         8.4260      -999.2500    -999.250000      -999.2500       111.1122       110.6444    -999.250000    -999.250000      -999.2500         4.3466         4.3603         4.8199         4.8364      -999.2500      -999.2500
    2024.48160         8.5000         8.4303      -999.2500    -999.250000      -999.2500       112.0312       111.5852    -999.250000    -999.250000      -999.2500         4.4974         4.5119         4.9753         4.9910      -999.2500      -999.2500
    2024.63400         8.5000         8.4247      -999.2500    -999.250000      -999.2500       109.8778       109.4093    -999.250000    -999.250000      -999.2500         4.7592         4.7734         5.2244         5.2362      -999.2500      -999.2500
    2024.78640         8.5000         8.4178      -999.2500    -999.250000      -999.2500       107.3027       106.8055    -999.250000    -999.250000      -999.2500         5.0362         5.0501         5.4863         5.4938      -999.2500      -999.2500
    2024.93880         8.5000         8.4108      -999.2500    -999.250000      -999.2500       104.7275       104.2016    -999.250000    -999.250000      -999.2500         5.3132         5.3267         5.7482         5.7514      -999.2500      -999.2500
    2025.09120         8.5000         8.4082      -999.2500    -999.250000      -999.2500       104.3346       103.7955    -999.250000    -999.250000      -999.2500         5.2727         5.2859         5.6979         5.7012      -999.2500      -999.2500
    2025.24360         8.5000         8.4087      -999.2500    -999.250000      -999.2500       105.4062       104.8642    -999.250000    -999.250000      -999.2500         5.0190         5.0322         5.4379         5.4443      -999.2500      -999.2500
    2025.39600         8.5000         8.4091      -999.2500    -999.250000      -999.2500       106.4777       105.9329    -999.250000    -999.250000      -999.2500         4.7653         4.7784         5.1780         5.1874      -999.2500      -999.2500
    2025.54840         8.5000         8.4082      -999.2500    -999.250000      -999.2500       107.3333       106.7788    -999.250000    -999.250000      -999.2500         4.5814         4.5943         4.9885         5.0000      -999.2500      -999.2500
    2025.70080         8.5000         8.4044      -999.2500    -999.250000      -999.2500       107.7247       107.1461    -999.250000    -999.250000      -999.2500         4.5475         4.5601         4.9506         4.9618      -999.2500      -999.2500
    2025.85320         8.5000         8.4006      -999.2500    -999.250000      -999.2500       108.1160       107.5134    -999.250000    -999.250000      -999.2500         4.5136         4.5258         4.9126         4.9236      -999.2500      -999.2500
    2026.00560         8.5000         8.3970      -999.2500    -999.250000      -999.2500       108.4574       107.8319    -999.250000    -999.250000      -999.2500         4.4821         4.4940         4.8772         4.8879      -999.2500      -999.2500
    2026.15800         8.5000         8.3974      -999.2500    -999.250000      -999.2500       107.4888       106.8711    -999.250000    -999.250000      -999.2500         4.5142         4.5262         4.9071         4.9175      -999.2500      -999.2500
    2026.31040         8.5000         8.3977      -999.2500    -999.250000      -999.2500       106.5202       105.9104    -999.250000    -999.250000      -999.2500         4.5462         4.5583         4.9370         4.9471      -999.2500      -999.2500
    2026.46280         8.5000         8.3981      -999.2500    -999.250000      -999.2500       105.5516       104.9496    -999.250000    -999.250000      -999.2500         4.5783         4.5905         4.9669         4.9768      -999.2500      -999.2500
    2026.61520         8.5000         8.4028      -999.2500    -999.250000      -999.2500       103.9274       103.3597    -999.250000    -999.250000      -999.2500         4.6360         4.6486         5.0221         5.0323      -999.2500      -999.2500
    2026.76760         8.5000         8.4089      -999.2500    -999.250000      -999.2500       102.0916       101.5665    -999.250000    -999.250000      -999.2500         4.7020         4.7152         5.0856         5.0961      -999.2500      -999.2500
    2026.92000         8.5000         8.4150      -999.2500    -999.250000      -999.2500       100.2557        99.7734    -999.250000    -999.250000      -999.2500         4.7680         4.7818         5.1490         5.1600      -999.2500      -999.2500
