~Version Information Block
VERS .                 2.00:  CWLS LOG ASCII STANDARD - VERSION 2.00
WRAP .                   NO:  One line per depth step
~Well Information Block
#MNEM.UNIT        Data Type   Information
#---------- ----------------  -----------
STRT .M           514.50240:  START DEPTH
STOP .M          1925.26920:  STOP DEPTH
STEP .M             0.15240:  STEP
NULL .              -999.25:  NULL VALUE
COMP .                     :  COMPANY
WELL .            Ngatoro-6:  WELL
FLD  .                     :  FIELD
LOC  .                     :  LOCATION
CTRY .                     :  COUNTRY
STAT .                     :  STATE
CNTY .                     :  COUNTY
SRVC .     New Zealand Petroleum Co Ltd:  SERVICE COMPANY
DATE .                     :  DATE
API  .                     :  API NUMBER
UWI  .         100000210185:  UNIQUE WELL ID
LATI .          -39.2039386:  LATITUDE
LONG .          174.1707675:  LONGITUDE
~Curve Information Block
#MNEM.UNIT         API CODE   Curve Description
#---------- ----------------  -----------------
DEPTH.M                    :  
BS   .IN                   :  Bit Size (Created in Geolog)
CALI .IN                   :  CALIPER (HCAL)
DENS .G/C3                 :  Bulk Density (RHOZ) and HR Bulk Density (RHO8)
DTC  .US/F                 :  Delta Time Compressional (DTCO)
DTS  .US/F                 :  Delta-T Shear (DTSM)
GR   .GAPI                 :  Gamma Ray (GR) and HR Gamma Ray (HGR)
NEUT .V/V                  :  Neutron Porosity (NPHI) and HR Neutron Porosity (HTNP)
NEUT_CORR.V/V                  :  Corrected NPHI (limestone units)
PEF  .B/E                  :  HRDD Std Resolution Formation Photoelectric Factor (PEFZ) and (PEF8)
RESD .OHMM                 :  HALS Deep Res. (HLLD) and HR HALS Deep Res. (HRLD)
RESS .OHMM                 :  HALS Shallow Res. (HLLS) and HR HALS Shallow Res. (HRLS)
SP   .MV                   :  Spontaneous Potential (SP)
~Parameter Information Block
#MNEM.UNIT            Value   Description
#---------- ----------------  -----------
CUR_INT_BOT.M                1930:  Current interpolated bottom
PROJECT.     New Zealand Log QC Project:  
SET  .     A0_FINAL_INTER_REF_D:  
ELEVATION_AMSL.M                 328:  Elevation above mean sea level
ELEVATION_REF.                   KB:  Measurement reference
FORMATION_AT_TD.      Mount Messenger:  Formation at TD
GL_ELEVATION_AMSL.M            322.5000:  Ground level elevation above mean sea level
LICENCE_NUMBER.             PPL38706:  Licence number
ONSHORE_OR_OFFSHORE.              Onshore:  Onshore/offshore
PR_NUMBER.               PR2214:  Petroleum report number
SPUD_DATE.           27/03/1996:  Spud date
STATUS_AT_COMPLETION.     Suspended with 7" casing cemented in place:  Status at completion
TD_DATE.           04/04/1996:  Total depth date
TOTAL_DEPTH_DRILLED.M                1930:  Total depth drilled
~Other Information Block
# 
~A       DEPTH             BS           CALI           DENS            DTC            DTS             GR           NEUT      NEUT_CORR            PEF           RESD           RESS             SP 
# ...
    1724.25360         8.5000         8.2171         2.4214        88.7038       184.7012       102.9133       0.253531       0.254535         3.2519         3.5437         3.7119       251.6077
    1724.40600         8.5000         8.2215         2.4221        88.8717       184.4418       103.0136       0.253719       0.254953         3.2693         3.4834         3.6288       251.7732
    1724.55840         8.5000         8.2215         2.4177        89.1603       184.7565       103.5265       0.255382       0.256695         3.2614         3.4344         3.5611       251.9579
    1724.71080         8.5000         8.2142         2.4051        89.6433       185.9951       104.7033       0.259421       0.260567         3.2128         3.4034         3.5178       252.1732
    1724.86320         8.5000         8.2069         2.3926        90.1263       187.2337       105.8801       0.263460       0.264439         3.1641         3.3725         3.4746       252.3885
    1725.01560         8.5000         8.1991         2.3801        90.5976       188.0092       106.7200       0.267144       0.267995         3.1202         3.3460         3.4380       252.5689
    1725.16800         8.5000         8.1872         2.3686        90.9668       184.7229       104.6055       0.267717       0.268773         3.1180         3.3586         3.4592       252.4430
    1725.32040         8.5000         8.1753         2.3571        91.3361       181.4367       102.4909       0.268291       0.269551         3.1157         3.3713         3.4805       252.3171
    1725.47280         8.5000         8.1634         2.3456        91.7053       178.1504       100.3764       0.268864       0.270329         3.1135         3.3840         3.5017       252.1911
    1725.62520         8.5000         8.1745         2.3561        91.5034       177.7080       100.0953       0.266018       0.267358         3.1113         3.5028         3.6310       252.1734
    1725.77760         8.5000         8.1906         2.3712        91.1774       177.8834       100.2126       0.262429       0.263573         3.1090         3.6445         3.7838       252.1792
    1725.93000         8.5000         8.2066         2.3864        90.8514       178.0588       100.3298       0.258841       0.259787         3.1068         3.7863         3.9366       252.1849
    1726.08240         8.5000         8.2219         2.3947        90.3799       177.5194       100.4651       0.258614       0.259389         3.1221         3.7933         3.9548       252.1491
    1726.23480         8.5000         8.2364         2.3971        89.7847       176.3727       100.6157       0.261242       0.261868         3.1522         3.6860         3.8589       252.0779
    1726.38720         8.5000         8.2510         2.3994        89.1896       175.2260       100.7664       0.263871       0.264347         3.1822         3.5786         3.7629       252.0068
    1726.53960         8.5000         8.2600         2.4053        88.6380       174.6907       100.9041       0.266231       0.266670         3.2116         3.5335         3.7277       252.0170
    1726.69200         8.5000         8.2529         2.4213        88.2106       175.8970       101.0053       0.267826       0.268551         3.2390         3.6655         3.8654       252.2592
    1726.84440         8.5000         8.2457         2.4372        87.7832       177.1033       101.1065       0.269420       0.270432         3.2663         3.7976         4.0032       252.5013
    1726.99680         8.5000         8.2386         2.4532        87.3559       178.3095       101.2076       0.271015       0.272313         3.2937         3.9297         4.1410       252.7434
    1727.14920         8.5000         8.2327         2.4382        87.8864       178.8952       102.7966       0.267524       0.268678         3.2777         3.7457         3.9548       253.0676
    1727.30160         8.5000         8.2267         2.4226        88.4375       179.4676       104.4175       0.263925       0.264924         3.2607         3.5550         3.7618       253.3936
    1727.45400         8.5000         8.2207         2.4070        88.9885       180.0399       106.0383       0.260325       0.261171         3.2437         3.3642         3.5687       253.7196
    1727.60640         8.5000         8.2330         2.4047        89.5231       177.6009       106.9554       0.259585       0.260328         3.2245         3.2894         3.4955       254.0985
    1727.75880         8.5000         8.2531         2.4081        90.0505       173.8600       107.5681       0.260082       0.260743         3.2043         3.2647         3.4742       254.5003
    1727.91120         8.5000         8.2732         2.4115        90.5779       170.1190       108.1809       0.260579       0.261158         3.1842         3.2400         3.4528       254.9021
    1728.06360         8.5000         8.2736         2.4138        90.7742       167.9820       107.7935       0.261593       0.262156         3.1958         3.2329         3.4467       255.0432
    1728.21600         8.5000         8.2463         2.4148        90.5080       168.0843       106.0098       0.263329       0.263965         3.2516         3.2501         3.4618       254.8202
    1728.36840         8.5000         8.2190         2.4157        90.2419       168.1867       104.2261       0.265065       0.265775         3.3075         3.2674         3.4769       254.5973
    1728.52080         8.5000         8.1903         2.4153        89.9419       168.4811       102.6614       0.266699       0.267555         3.3492         3.2821         3.4863       254.4304
    1728.67320         8.5000         8.1530         2.4056        89.4277       169.9911       102.4829       0.267693       0.269155         3.3010         3.2799         3.4598       254.6184
    1728.82560         8.5000         8.1158         2.3960        88.9135       171.5011       102.3044       0.268686       0.270754         3.2529         3.2778         3.4333       254.8065
    1728.97800         8.5000         8.0785         2.3863        88.3993       173.0111       102.1258       0.269680       0.272353         3.2047         3.2757         3.4068       254.9945
    1729.13040         8.5000         8.0673         2.3778        89.2773       173.7707       101.0002       0.266945       0.269341         3.1809         3.3089         3.4305       255.4432
    1729.28280         8.5000         8.0604         2.3695        90.3901       174.4038        99.7147       0.263581       0.265552         3.1612         3.3480         3.4626       255.9359
    1729.43520         8.5000         8.0536         2.3611        91.5030       175.0368        98.4292       0.260216       0.261763         3.1415         3.3872         3.4947       256.4286
    1729.58760         8.5000         8.0677         2.3621        91.9065       176.1528        98.9623       0.261394       0.262979         3.1461         3.3676         3.4743       256.7294
    1729.74000         8.5000         8.0974         2.3699        91.7854       177.6261       100.8406       0.265932       0.267899         3.1687         3.3046         3.4150       256.8881
    1729.89240         8.5000         8.1270         2.3777        91.6643       179.0994       102.7190       0.270469       0.272818         3.1913         3.2416         3.3557       257.0468
    1730.04480         8.5000         8.1472         2.3838        91.5506       179.5588       104.4887       0.272006       0.274458         3.2094         3.2044         3.3233       257.3479
    1730.19720         8.5000         8.1448         2.3858        91.4546       177.5831       105.9978       0.266336       0.268223         3.2167         3.2291         3.3556       257.9909
    1730.34960         8.5000         8.1423         2.3878        91.3586       175.6074       107.5069       0.260666       0.261988         3.2240         3.2537         3.3880       258.6339
    1730.50200         8.5000         8.1400         2.3900        91.2625       173.6477       108.9729       0.255067       0.255829         3.2313         3.2784         3.4203       259.2753
