~Version Information Block
VERS .                 2.00:  CWLS LOG ASCII STANDARD - VERSION 2.00
WRAP .                   NO:  One line per depth step
~Well Information Block
#MNEM.UNIT        Data Type   Information
#---------- ----------------  -----------
STRT .M           530.50440:  START DEPTH
STOP .M          1878.48240:  STOP DEPTH
STEP .M             0.15240:  STEP
NULL .              -999.25:  NULL VALUE
COMP .                     :  COMPANY
WELL .            Ngatoro-7:  WELL
FLD  .                     :  FIELD
LOC  .                     :  LOCATION
CTRY .                     :  COUNTRY
STAT .                     :  STATE
CNTY .                     :  COUNTY
SRVC .     New Zealand Petroleum Co Ltd:  SERVICE COMPANY
DATE .                     :  DATE
API  .                     :  API NUMBER
UWI  .         100000210191:  UNIQUE WELL ID
LATI .          -39.2039075:  LATITUDE
LONG .          174.1707218:  LONGITUDE
~Curve Information Block
#MNEM.UNIT         API CODE   Curve Description
#---------- ----------------  -----------------
DEPTH.M                    :  
BS   .IN                   :  Bit Size (Created in Geolog)
CALI .IN                   :  Caliper (HCAL)
DENS .G/C3                 :  Bulk Density (RHOZ) and HR Bulk Density (RHO8)
DTC  .US/F                 :  Delta Time (DTC)
GR   .GAPI                 :  Gamma Ray (GR) and HR Gamma Ray (HGR)
NEUT .V/V                  :  Neutron Porosity (NPHI) and HR Neutron Porosity (HTNP)
NEUT_CORR.V/V                  :  Corrected NPHI (limestone units)
PEF  .B/E                  :  HRDD Std Resolution Formation Photoelectric Factor (PEFZ) and (PEF8)
RESD .OHMM                 :  HALS Deep Res. (HLLD) and HR HALS Deep Res. (HRLD)
RESS .OHMM                 :  HALS Shallow Res. (HLLS) and HR HALS Shallow Res. (HRLS)
SP   .MV                   :  Spontaneous Potential (SP)
~Parameter Information Block
#MNEM.UNIT            Value   Description
#---------- ----------------  -----------
CUR_INT_BOT.M                1879:  Current interpolated bottom
PROJECT.     New Zealand Log QC Project:  
SET  .     A0_FINAL_INTER_REF_D:  
ELEVATION_AMSL.M                 327:  Elevation above mean sea level
ELEVATION_REF.                   KB:  Measurement reference
FORMATION_AT_TD.      Mount Messenger:  Formation at TD
GL_ELEVATION_AMSL.M            321.4000:  Ground level elevation above mean sea level
LICENCE_NUMBER.             PPL38706:  Licence number
ONSHORE_OR_OFFSHORE.              Onshore:  Onshore/offshore
PR_NUMBER.               PR2215:  Petroleum report number
SPUD_DATE.           09/04/1996:  Spud date
STATUS_AT_COMPLETION.     Suspended with 7" casing cemented in place:  Status at completion
TD_DATE.           18/04/1996:  Total depth date
TOTAL_DEPTH_DRILLED.M                1879:  Total depth drilled
~Other Information Block
# 
~A       DEPTH             BS           CALI           DENS            DTC             GR           NEUT      NEUT_CORR            PEF           RESD           RESS             SP 
# ...
     907.69440         8.5000         8.7714         2.3334      -999.2500        90.5060       0.295616       0.292776         3.1518         5.3345         4.7512       145.0505
     907.84680         8.5000         8.7816         2.3282      -999.2500        91.3240       0.294706       0.291862         3.1619         5.3594         4.7769       144.8602
     907.99920         8.5000         8.7918         2.3231      -999.2500        92.1419       0.293797       0.290948         3.1720         5.3844         4.8027       144.6698
     908.15160         8.5000         8.7951         2.3222      -999.2500        90.3881       0.295001       0.292096         3.1648         5.2440         4.6846       145.0425
     908.30400         8.5000         8.7984         2.3213      -999.2500        88.6208       0.296216       0.293256         3.1575         5.1026         4.5657       145.4183
     908.45640         8.5000         8.8016         2.3204      -999.2500        86.8535       0.297431       0.294416         3.1502         4.9613         4.4469       145.7940
     908.60880         8.5000         8.7971         2.3174      -999.2500        86.5840       0.301990       0.298659         3.1504         4.9134         4.4036       146.1929
     908.76120         8.5000         8.7894         2.3135      -999.2500        86.9147       0.307890       0.304139         3.1536         4.9029         4.3906       146.6012
     908.91360         8.5000         8.7817         2.3097      -999.2500        87.2454       0.313789       0.309618         3.1568         4.8925         4.3776       147.0094
     909.06600         8.5000         8.7681         2.3088      -999.2500        87.4805       0.314756       0.310553         3.1629         4.9176         4.3957       147.4839
     909.21840         8.5000         8.7468         2.3119      -999.2500        87.5904       0.309264       0.305538         3.1727         4.9894         4.4545       148.0451
     909.37080         8.5000         8.7255         2.3150      -999.2500        87.7003       0.303772       0.300524         3.1825         5.0611         4.5132       148.6062
     909.52320         8.5000         8.7067         2.3178      -999.2500        87.8291       0.299787       0.296896         3.1883         5.1242         4.5629       149.1212
     909.67560         8.5000         8.7017         2.3183      -999.2500        88.0630       0.304194       0.300990         3.1726         5.1388         4.5620       149.3788
     909.82800         8.5000         8.6967         2.3189      -999.2500        88.2968       0.308602       0.305084         3.1568         5.1535         4.5612       149.6364
     909.98040         8.5000         8.6916         2.3195      -999.2500        88.5307       0.313009       0.309179         3.1410         5.1681         4.5603       149.8940
     910.13280         8.5000         8.7102         2.3196      -999.2500        87.2976       0.306207       0.302357         3.1361         5.1403         4.5337       150.0958
     910.28520         8.5000         8.7323         2.3196      -999.2500        85.8481       0.297750       0.293924         3.1329         5.1063         4.5033       150.2893
     910.43760         8.5000         8.7544         2.3196      -999.2500        84.3986       0.289294       0.285491         3.1296         5.0722         4.4728       150.4828
     910.59000         8.5000         8.7609         2.3181      -999.2500        84.4261       0.288536       0.284899         3.1351         5.0620         4.4645       150.7007
     910.74240         8.5000         8.7568         2.3156      -999.2500        85.4778       0.293118       0.289745         3.1465         5.0684         4.4714       150.9356
     910.89480         8.5000         8.7527         2.3131      -999.2500        86.5295       0.297699       0.294590         3.1580         5.0748         4.4783       151.1704
     911.04720         8.5000         8.7510         2.3118      -999.2500        86.9960       0.300093       0.297173         3.1638         5.0586         4.4669       151.3260
     911.19960         8.5000         8.7546         2.3129      -999.2500        86.1584       0.297610       0.294716         3.1568         4.9923         4.4147       151.3048
     911.35200         8.5000         8.7583         2.3140      -999.2500        85.3208       0.295128       0.292258         3.1498         4.9259         4.3625       151.2837
     911.50440         8.5000         8.7613         2.3153      -999.2500        84.4764       0.292621       0.289763         3.1435         4.8635         4.3134       151.2709
     911.65680         8.5000         8.7428         2.3188      -999.2500        83.4050       0.289304       0.285999         3.1619         4.9335         4.3694       151.5396
     911.80920         8.5000         8.7242         2.3224      -999.2500        82.3337       0.285987       0.282235         3.1803         5.0036         4.4255       151.8082
     911.96160         8.5000         8.7056         2.3259      -999.2500        81.2623       0.282670       0.278471         3.1987         5.0736         4.4816       152.0769
     912.11400         8.5000         8.6853         2.3278      -999.2500        82.2195       0.286168       0.282257         3.1831         5.0774         4.4838       152.4230
     912.26640         8.5000         8.6645         2.3291      -999.2500        83.8599       0.291962       0.288586         3.1561         5.0589         4.4677       152.7953
     912.41880         8.5000         8.6437         2.3304      -999.2500        85.5004       0.297755       0.294915         3.1291         5.0403         4.4517       153.1675
     912.57120         8.5000         8.6288         2.3315      -999.2500        86.8329       0.301103       0.298549         3.1212         5.0437         4.4543       153.5107
     912.72360         8.5000         8.6208         2.3325      -999.2500        87.8144       0.301660       0.299108         3.1350         5.0721         4.4779       153.8209
     912.87600         8.5000         8.6128         2.3334      -999.2500        88.7958       0.302217       0.299667         3.1489         5.1005         4.5016       154.1311
     913.02840         8.5000         8.6063         2.3334      -999.2500        89.4842       0.302727       0.300180         3.1620         5.1132         4.5130       154.3731
     913.18080         8.5000         8.6068         2.3293      -999.2500        88.8929       0.303034       0.300491         3.1721         5.0576         4.4712       154.3178
     913.33320         8.5000         8.6073         2.3251      -999.2500        88.3016       0.303341       0.300802         3.1821         5.0020         4.4294       154.2624
     913.48560         8.5000         8.6077         2.3210      -999.2500        87.7103       0.303648       0.301113         3.1921         4.9464         4.3876       154.2071
     913.63800         8.5000         8.6138         2.3206      -999.2500        87.5934       0.303637       0.301077         3.1809         4.9528         4.3948       154.1309
     913.79040         8.5000         8.6205         2.3206      -999.2500        87.5259       0.303593       0.301005         3.1674         4.9656         4.4072       154.0525
     913.94280         8.5000         8.6272         2.3206      -999.2500        87.4584       0.303549       0.300933         3.1540         4.9784         4.4195       153.9741
     914.09520         8.5000         8.6345         2.3219      -999.2500        87.9689       0.300660       0.297934         3.1352         5.0082         4.4436       153.7394
     914.24760         8.5000         8.6422         2.3240      -999.2500        88.8268       0.296063       0.293175         3.1132         5.0484         4.4746       153.4107
     914.40000         8.5000         8.6498         2.3260      -999.2500        89.6846       0.291465       0.288416         3.0912         5.0885         4.5057       153.0820
