~Version Information Block
VERS .                 2.00:  CWLS LOG ASCII STANDARD - VERSION 2.00
WRAP .                   NO:  One line per depth step
~Well Information Block
#MNEM.UNIT        Data Type   Information
#---------- ----------------  -----------
STRT .M             5.63880:  START DEPTH
STOP .M          2149.90680:  STOP DEPTH
STEP .M             0.15240:  STEP
NULL .              -999.25:  NULL VALUE
COMP .                     :  COMPANY
WELL .            Ngatoro-4:  WELL
FLD  .                     :  FIELD
LOC  .                     :  LOCATION
CTRY .                     :  COUNTRY
STAT .                     :  STATE
CNTY .                     :  COUNTY
SRVC .     New Zealand Petroleum Co Ltd:  SERVICE COMPANY
DATE .                     :  DATE
API  .                     :  API NUMBER
UWI  .         100000159749:  UNIQUE WELL ID
LATI .           -39.193014:  LATITUDE
LONG .          174.1756345:  LONGITUDE
~Curve Information Block
#MNEM.UNIT         API CODE   Curve Description
#---------- ----------------  -----------------
DEPTH.M                    :  
BS   .IN                   :  Bit Size (Created in Geolog)
CALI .IN                   :  Caliper Log (CALI)
DRHO .G/C3                 :  Density Log Correction (DRHO)
DTC  .US/F                 :  Delta T (DT)
DTS  .US/F                 :  Delta T Shear Lower Dipole (DT1)
GR   .GAPI                 :  Gamma-Ray Log (GR)
GR_CORR.GAPI                 :  Gamma ray corrected
NEUT .V/V                  :  Neutron Log Porosity (NPHI)
NEUT_CORR.V/V                  :  Corrected NPHI (limestone units)
PEF  .B/E                  :  Photoelectric Factor (PEDF)
RESD .OHMM                 :  Laterolog Deep Resistivity (LLD)
RESD_CORR.OHMM                 :  Borehole corrected LLD
RESS .OHMM                 :  Shallow Laterolog (LLS)
RESS_CORR.OHMM                 :  Borehole corrected LLS
SP   .MV                   :  Spontaneous Potential Log (SP)
TEMP .DEGC                 :  Temperature (TEMP)
TENS .KGF                  :  Cable tension at surface (TENS)
~Parameter Information Block
#MNEM.UNIT            Value   Description
#---------- ----------------  -----------
CUR_INT_BOT.M                2150:  Current interpolated bottom
PROJECT.     New Zealand Log QC Project:  
SET  .     A0_FINAL_INTER_REF_D:  
ELEVATION_AMSL.M               297.7:  Elevation above mean sea level
ELEVATION_REF.                   KB:  Measurement reference
FORMATION_AT_TD.                 Moki:  Formation at TD
GL_ELEVATION_AMSL.M            292.8000:  Ground level elevation above mean sea level
LICENCE_NUMBER.             PPL38706:  Licence number
ONSHORE_OR_OFFSHORE.              Onshore:  Onshore/offshore
PR_NUMBER.               PR1914:  Petroleum report number
SPUD_DATE.           07/03/1993:  Spud date
STATUS_AT_COMPLETION.     Suspended as a potential oil producer:  Status at completion
TD_DATE.           21/03/1993:  Total depth date
TOTAL_DEPTH_DRILLED.M                2150:  Total depth drilled
~Other Information Block
# 
~A       DEPTH             BS           CALI           DRHO            DTC            DTS             GR        GR_CORR           NEUT      NEUT_CORR            PEF           RESD      RESD_CORR           RESS      RESS_CORR             SP           TEMP           TENS 
# ...
     901.75080         8.5000         8.5413      0.0193768      -999.2500      -999.2500        96.3633        96.1655       0.259206       0.252359         2.7814         2.9718         2.9703         2.8735         2.9416      -999.2500      -999.2500       382.8484
     901.90320         8.5000         8.5358      0.0110383      -999.2500      -999.2500        91.2417        91.5045       0.219170       0.213740         2.8108         2.9580         2.9561         2.8762         2.9440      -999.2500      -999.2500       382.8557
     902.05560         8.5000         8.5342      0.0084807      -999.2500      -999.2500        89.0440        89.5409       0.198820       0.194055         2.8731         3.0941         3.0938         3.0061         3.0738      -999.2500      -999.2500       382.9025
     902.20800         8.5000         8.5389      0.0159878      -999.2500      -999.2500        91.9369        92.2734       0.212742       0.207337         2.9926         3.4912         3.4960         3.3573         3.4255      -999.2500      -999.2500       383.0179
     902.36040         8.5000         8.5437      0.0234948      -999.2500      -999.2500        94.8298        95.0060       0.226663       0.220618         3.1120         3.8882         3.8982         3.7085         3.7772      -999.2500      -999.2500       383.1333
     902.51280         8.5000         8.5473      0.0299819      -999.2500      -999.2500        97.7948        97.7989       0.241018       0.234361         3.2136         4.2326         4.2471         4.0121         4.0811      -999.2500      -999.2500       383.2652
     902.66520         8.5000         8.5383      0.0253457      -999.2500      -999.2500       101.5449       101.2484       0.260101       0.253142         3.1200         4.0025         4.0138         3.7964         3.8646      -999.2500      -999.2500       383.5768
     902.81760         8.5000         8.5294      0.0207095      -999.2500      -999.2500       105.2951       104.6979       0.279183       0.271923         3.0265         3.7725         3.7805         3.5807         3.6481      -999.2500      -999.2500       383.8883
     902.97000         8.5000         8.5204      0.0160734      -999.2500      -999.2500       109.0452       108.1475       0.298265       0.290703         2.9329         3.5424         3.5472         3.3649         3.4317      -999.2500      -999.2500       384.1999
     903.12240         8.5000         8.5184      0.0156813      -999.2500      -999.2500       107.1325       106.6821       0.294589       0.287223         2.8869         3.4422         3.4456         3.2749         3.3415      -999.2500      -999.2500       384.0050
     903.27480         8.5000         8.5182      0.0163294      -999.2500      -999.2500       103.8320       104.0122       0.285336       0.278287         2.8526         3.3739         3.3764         3.2157         3.2823      -999.2500      -999.2500       383.6860
     903.42720         8.5000         8.5179      0.0169775      -999.2500      -999.2500       100.5314       101.3422       0.276082       0.269351         2.8183         3.3055         3.3072         3.1565         3.2231      -999.2500      -999.2500       383.3670
     903.57960         8.5000         8.5162      0.0160179      -999.2500      -999.2500       100.8355       101.4962       0.275805       0.269108         2.8304         3.3335         3.3354         3.1825         3.2490      -999.2500      -999.2500       383.3262
     903.73200         8.5000         8.5131      0.0135880      -999.2500      -999.2500       104.4366       104.2330       0.283738       0.276816         2.8849         3.4496         3.4528         3.2866         3.3527      -999.2500      -999.2500       383.5399
     903.88440         8.5000         8.5101      0.0111580      -999.2500      -999.2500       108.0376       106.9698       0.291671       0.284525         2.9394         3.5657         3.5701         3.3907         3.4564      -999.2500      -999.2500       383.7536
     904.03680         8.5000         8.5085      0.0095299      -999.2500      -999.2500       110.2849       108.7059       0.299055       0.291686         2.9743         3.6524         3.6578         3.4674         3.5330      -999.2500      -999.2500       383.9006
     904.18920         8.5000         8.5115      0.0104205      -999.2500      -999.2500       108.2797       107.2985       0.304718       0.297126         2.9480         3.6466         3.6521         3.4583         3.5242      -999.2500      -999.2500       383.8382
     904.34160         8.5000         8.5144      0.0113111      -999.2500      -999.2500       106.2746       105.8910       0.310380       0.302566         2.9217         3.6409         3.6465         3.4492         3.5153      -999.2500      -999.2500       383.7758
     904.49400         8.5000         8.5174      0.0122017      -999.2500      -999.2500       104.2695       104.4836       0.316043       0.308006         2.8954         3.6351         3.6408         3.4401         3.5065      -999.2500      -999.2500       383.7134
     904.64640         8.5000         8.5203      0.0115136      -999.2500      -999.2500       104.4401       104.4991       0.308274       0.300414         2.9032         3.6313         3.6371         3.4267         3.4933      -999.2500      -999.2500       383.5657
     904.79880         8.5000         8.5232      0.0107608      -999.2500      -999.2500       104.6999       104.5730       0.299955       0.292287         2.9123         3.6275         3.6335         3.4130         3.4799      -999.2500      -999.2500       383.4145
     904.95120         8.5000         8.5262      0.0100080      -999.2500      -999.2500       104.9598       104.6469       0.291635       0.284161         2.9215         3.6238         3.6299         3.3994         3.4665      -999.2500      -999.2500       383.2633
     905.10360         8.5000         8.5282      0.0100451      -999.2500      -999.2500       105.1174       104.9460       0.284583       0.277280         2.9230         3.6073         3.6133         3.3782         3.4455      -999.2500      -999.2500       383.1828
     905.25600         8.5000         8.5299      0.0104543      -999.2500      -999.2500       105.2270       105.3512       0.278128       0.270987         2.9208         3.5848         3.5907         3.3534         3.4209      -999.2500      -999.2500       383.1355
     905.40840         8.5000         8.5316      0.0108635      -999.2500      -999.2500       105.3366       105.7563       0.271674       0.264693         2.9187         3.5623         3.5680         3.3287         3.3963      -999.2500      -999.2500       383.0882
     905.56080         8.5000         8.5350      0.0110970      -999.2500      -999.2500       106.2822       106.6584       0.269272       0.262289         2.9285         3.5619         3.5677         3.3259         3.3938      -999.2500      -999.2500       383.1856
     905.71320         8.5000         8.5409      0.0110657      -999.2500      -999.2500       108.4871       108.3091       0.272978       0.265746         2.9565         3.5946         3.6012         3.3561         3.4246      -999.2500      -999.2500       383.5009
     905.86560         8.5000         8.5468      0.0110344      -999.2500      -999.2500       110.6920       109.9598       0.276683       0.269202         2.9845         3.6273         3.6347         3.3864         3.4553      -999.2500      -999.2500       383.8162
     906.01800         8.5000         8.5515      0.0110381      -999.2500      -999.2500       112.3296       111.1536       0.280476       0.272769         3.0053         3.6517         3.6597         3.4093         3.4786      -999.2500      -999.2500       384.0928
     906.17040         8.5000         8.5476      0.0113035      -999.2500      -999.2500       109.7313       108.9362       0.284921       0.277160         2.9727         3.6139         3.6211         3.3766         3.4456      -999.2500      -999.2500       384.0798
