~Version Information Block
VERS .                 2.00:  CWLS LOG ASCII STANDARD - VERSION 2.00
WRAP .                   NO:  One line per depth step
~Well Information Block
#MNEM.UNIT        Data Type   Information
#---------- ----------------  -----------
STRT .M           530.50440:  START DEPTH
STOP .M          1878.48240:  STOP DEPTH
STEP .M             0.15240:  STEP
NULL .              -999.25:  NULL VALUE
COMP .                     :  COMPANY
WELL .            Ngatoro-7:  WELL
FLD  .                     :  FIELD
LOC  .                     :  LOCATION
CTRY .                     :  COUNTRY
STAT .                     :  STATE
CNTY .                     :  COUNTY
SRVC .     New Zealand Petroleum Co Ltd:  SERVICE COMPANY
DATE .                     :  DATE
API  .                     :  API NUMBER
UWI  .         100000210191:  UNIQUE WELL ID
LATI .          -39.2039075:  LATITUDE
LONG .          174.1707218:  LONGITUDE
~Curve Information Block
#MNEM.UNIT         API CODE   Curve Description
#---------- ----------------  -----------------
DEPTH.M                    :  
BS   .IN                   :  Bit Size (Created in Geolog)
CALI .IN                   :  Caliper (HCAL)
DENS .G/C3                 :  Bulk Density (RHOZ) and HR Bulk Density (RHO8)
DTC  .US/F                 :  Delta Time (DTC)
GR   .GAPI                 :  Gamma Ray (GR) and HR Gamma Ray (HGR)
NEUT .V/V                  :  Neutron Porosity (NPHI) and HR Neutron Porosity (HTNP)
NEUT_CORR.V/V                  :  Corrected NPHI (limestone units)
PEF  .B/E                  :  HRDD Std Resolution Formation Photoelectric Factor (PEFZ) and (PEF8)
RESD .OHMM                 :  HALS Deep Res. (HLLD) and HR HALS Deep Res. (HRLD)
RESS .OHMM                 :  HALS Shallow Res. (HLLS) and HR HALS Shallow Res. (HRLS)
SP   .MV                   :  Spontaneous Potential (SP)
~Parameter Information Block
#MNEM.UNIT            Value   Description
#---------- ----------------  -----------
CUR_INT_BOT.M                1879:  Current interpolated bottom
PROJECT.     New Zealand Log QC Project:  
SET  .     A0_FINAL_INTER_REF_D:  
ELEVATION_AMSL.M                 327:  Elevation above mean sea level
ELEVATION_REF.                   KB:  Measurement reference
FORMATION_AT_TD.      Mount Messenger:  Formation at TD
GL_ELEVATION_AMSL.M            321.4000:  Ground level elevation above mean sea level
LICENCE_NUMBER.             PPL38706:  Licence number
ONSHORE_OR_OFFSHORE.              Onshore:  Onshore/offshore
PR_NUMBER.               PR2215:  Petroleum report number
SPUD_DATE.           09/04/1996:  Spud date
STATUS_AT_COMPLETION.     Suspended with 7" casing cemented in place:  Status at completion
TD_DATE.           18/04/1996:  Total depth date
TOTAL_DEPTH_DRILLED.M                1879:  Total depth drilled
~Other Information Block
# 
~A       DEPTH             BS           CALI           DENS            DTC             GR           NEUT      NEUT_CORR            PEF           RESD           RESS             SP 
# ...
     647.09040         8.5000         8.7125         2.2458      -999.2500        86.5248       0.288810       0.283723         3.0707        16.2256        11.0069       152.4606
     647.24280         8.5000         8.7156         2.2439      -999.2500        86.8809       0.284154       0.278419         3.0580        16.8751        11.3763       152.8383
     647.39520         8.5000         8.7187         2.2420      -999.2500        87.2370       0.279498       0.273115         3.0452        17.5246        11.7457       153.2160
     647.54760         8.5000         8.7395         2.2393      -999.2500        87.4586       0.280267       0.273616         3.0340        17.8300        11.9137       153.4684
     647.70000         8.5000         8.7991         2.2348      -999.2500        87.3844       0.292985       0.286898         3.0263        17.3778        11.6382       153.4450
     647.85240         8.5000         8.8587         2.2303      -999.2500        87.3102       0.305702       0.300179         3.0185        16.9256        11.3626       153.4216
     648.00480         8.5000         8.9166         2.2261      -999.2500        87.2556       0.318269       0.313296         3.0113        16.4830        11.0926       153.3893
     648.15720         8.5000         8.9206         2.2289      -999.2500        87.8011       0.326219       0.321365         3.0236        16.3363        10.9905       153.0819
     648.30960         8.5000         8.9246         2.2317      -999.2500        88.3466       0.334169       0.329434         3.0358        16.1895        10.8884       152.7745
     648.46200         8.5000         8.9286         2.2345      -999.2500        88.8921       0.342120       0.337503         3.0480        16.0428        10.7863       152.4671
     648.61440         8.5000         8.9454         2.2368      -999.2500        89.8236       0.343513       0.339054         3.0589        16.0355        10.7919       152.1863
     648.76680         8.5000         8.9665         2.2389      -999.2500        90.8833       0.342727       0.338440         3.0693        16.0744        10.8332       151.9144
     648.91920         8.5000         8.9876         2.2410      -999.2500        91.9430       0.341942       0.337825         3.0797        16.1134        10.8746       151.6424
     649.07160         8.5000         9.0118         2.2438      -999.2500        91.7317       0.341799       0.337641         3.0859        16.2127        10.9434       151.2867
     649.22400         8.5000         9.0396         2.2474      -999.2500        90.0859       0.342381       0.337940         3.0871        16.3800        11.0432       150.8365
     649.37640         8.5000         9.0675         2.2510      -999.2500        88.4401       0.342962       0.338240         3.0884        16.5474        11.1430       150.3862
     649.52880         8.5000         9.0934         2.2531      -999.2500        86.8934       0.343573       0.338603         3.0863        16.5917        11.1659       150.0295
     649.68120         8.5000         9.1109         2.2488      -999.2500        85.7717       0.344308       0.339239         3.0700        16.1080        10.8584       150.0742
     649.83360         8.5000         9.1285         2.2445      -999.2500        84.6499       0.345043       0.339875         3.0536        15.6243        10.5509       150.1189
     649.98600         8.5000         9.1460         2.2401      -999.2500        83.5282       0.345778       0.340511         3.0373        15.1406        10.2434       150.1636
     650.13840         8.5000         9.1730         2.2474      -999.2500        82.5573       0.343160       0.338081         3.0796        15.2377        10.2802       150.1094
     650.29080         8.5000         9.2009         2.2559      -999.2500        81.6016       0.340203       0.335340         3.1279        15.3935        10.3518       150.0453
     650.44320         8.5000         9.2288         2.2643      -999.2500        80.6459       0.337247       0.332599         3.1761        15.5493        10.4234       149.9811
     650.59560         8.5000         9.2517         2.2867      -999.2500        80.5378       0.329101       0.324197         3.2390        17.0873        11.2263       150.0456
     650.74800         8.5000         9.2715         2.3173      -999.2500        80.9332       0.317873       0.312431         3.3106        19.4465        12.4636       150.1865
     650.90040         8.5000         9.2914         2.3478      -999.2500        81.3286       0.306646       0.300665         3.3822        21.8057        13.7010       150.3273
     651.05280         8.5000         9.2874         2.3617      -999.2500        81.6171       0.300839       0.294437         3.4155        22.5394        14.0683       150.4594
     651.20520         8.5000         9.2383         2.3440      -999.2500        81.7040       0.305257       0.298658         3.3767        20.2069        12.7946       150.5749
     651.35760         8.5000         9.1891         2.3264      -999.2500        81.7909       0.309676       0.302879         3.3379        17.8743        11.5210       150.6904
     651.51000         8.5000         9.1410         2.3083      -999.2500        81.8940       0.314151       0.307241         3.2980        15.6731        10.3202       150.8168
     651.66240         8.5000         9.1071         2.2842      -999.2500        82.2276       0.319423       0.313618         3.2413        15.3416        10.1587       151.0997
     651.81480         8.5000         9.0733         2.2601      -999.2500        82.5612       0.324695       0.319996         3.1847        15.0101         9.9972       151.3825
     651.96720         8.5000         9.0394         2.2360      -999.2500        82.8949       0.329967       0.326373         3.1281        14.6786         9.8357       151.6653
     652.11960         8.5000         8.9877         2.2264      -999.2500        83.7735       0.338753       0.335330         3.0948        14.7058         9.8449       151.5617
     652.27200         8.5000         8.9311         2.2209      -999.2500        84.8016       0.348501       0.344995         3.0680        14.8315         9.9009       151.3520
     652.42440         8.5000         8.8745         2.2153      -999.2500        85.8296       0.358250       0.354659         3.0412        14.9572         9.9569       151.1423
     652.57680         8.5000         8.8220         2.2104      -999.2500        87.0382       0.359192       0.355662         3.0257        15.1051        10.0046       150.7333
     652.72920         8.5000         8.7737         2.2062      -999.2500        88.4244       0.351466       0.348140         3.0213        15.2749        10.0442       150.1282
     652.88160         8.5000         8.7253         2.2020      -999.2500        89.8107       0.343739       0.340617         3.0169        15.4447        10.0838       149.5230
     653.03400         8.5000         8.6780         2.2001      -999.2500        90.5604       0.335725       0.332646         3.0136        15.6780        10.1682       148.9982
     653.18640         8.5000         8.6347         2.2064      -999.2500        89.0936       0.326709       0.323110         3.0142        16.1323        10.4091       148.7530
     653.33880         8.5000         8.5914         2.2127      -999.2500        87.6269       0.317693       0.313574         3.0148        16.5867        10.6500       148.5078
     653.49120         8.5000         8.5480         2.2190      -999.2500        86.1601       0.308677       0.304038         3.0154        17.0410        10.8908       148.2626
     653.64360         8.5000         8.5368         2.2167      -999.2500        85.5367       0.312997       0.308598         3.0170        16.9447        10.8721       149.1270
     653.79600         8.5000         8.5274         2.2138      -999.2500        84.9649       0.318134       0.314021         3.0187        16.8147        10.8374       150.0593
