~Version Information Block
VERS .                 2.00:  CWLS LOG ASCII STANDARD - VERSION 2.00
WRAP .                   NO:  One line per depth step
~Well Information Block
#MNEM.UNIT        Data Type   Information
#---------- ----------------  -----------
STRT .M             5.63880:  START DEPTH
STOP .M          2149.90680:  STOP DEPTH
STEP .M             0.15240:  STEP
NULL .              -999.25:  NULL VALUE
COMP .                     :  COMPANY
WELL .            Ngatoro-4:  WELL
FLD  .                     :  FIELD
LOC  .                     :  LOCATION
CTRY .                     :  COUNTRY
STAT .                     :  STATE
CNTY .                     :  COUNTY
SRVC .     New Zealand Petroleum Co Ltd:  SERVICE COMPANY
DATE .                     :  DATE
API  .                     :  API NUMBER
UWI  .         100000159749:  UNIQUE WELL ID
LATI .           -39.193014:  LATITUDE
LONG .          174.1756345:  LONGITUDE
~Curve Information Block
#MNEM.UNIT         API CODE   Curve Description
#---------- ----------------  -----------------
DEPTH.M                    :  
BS   .IN                   :  Bit Size (Created in Geolog)
CALI .IN                   :  Caliper Log (CALI)
DRHO .G/C3                 :  Density Log Correction (DRHO)
DTC  .US/F                 :  Delta T (DT)
DTS  .US/F                 :  Delta T Shear Lower Dipole (DT1)
GR   .GAPI                 :  Gamma-Ray Log (GR)
GR_CORR.GAPI                 :  Gamma ray corrected
NEUT .V/V                  :  Neutron Log Porosity (NPHI)
NEUT_CORR.V/V                  :  Corrected NPHI (limestone units)
PEF  .B/E                  :  Photoelectric Factor (PEDF)
RESD .OHMM                 :  Laterolog Deep Resistivity (LLD)
RESD_CORR.OHMM                 :  Borehole corrected LLD
RESS .OHMM                 :  Shallow Laterolog (LLS)
RESS_CORR.OHMM                 :  Borehole corrected LLS
SP   .MV                   :  Spontaneous Potential Log (SP)
TEMP .DEGC                 :  Temperature (TEMP)
TENS .KGF                  :  Cable tension at surface (TENS)
~Parameter Information Block
#MNEM.UNIT            Value   Description
#---------- ----------------  -----------
CUR_INT_BOT.M                2150:  Current interpolated bottom
PROJECT.     New Zealand Log QC Project:  
SET  .     A0_FINAL_INTER_REF_D:  
ELEVATION_AMSL.M               297.7:  Elevation above mean sea level
ELEVATION_REF.                   KB:  Measurement reference
FORMATION_AT_TD.                 Moki:  Formation at TD
GL_ELEVATION_AMSL.M            292.8000:  Ground level elevation above mean sea level
LICENCE_NUMBER.             PPL38706:  Licence number
ONSHORE_OR_OFFSHORE.              Onshore:  Onshore/offshore
PR_NUMBER.               PR1914:  Petroleum report number
SPUD_DATE.           07/03/1993:  Spud date
STATUS_AT_COMPLETION.     Suspended as a potential oil producer:  Status at completion
TD_DATE.           21/03/1993:  Total depth date
TOTAL_DEPTH_DRILLED.M                2150:  Total depth drilled
~Other Information Block
# 
~A       DEPTH             BS           CALI           DRHO            DTC            DTS             GR        GR_CORR           NEUT      NEUT_CORR            PEF           RESD      RESD_CORR           RESS      RESS_CORR             SP           TEMP           TENS 
# ...
    2122.47480         8.5000         8.5486      0.0024502      -999.2500      -999.2500      -999.2500      -999.2500       0.178376       0.177566         3.2291         6.5937         6.6210         7.1756         7.2030        15.4487      -999.2500       599.3434
    2122.62720         8.5000         8.5544      0.0041797      -999.2500      -999.2500      -999.2500      -999.2500       0.178577       0.177677         3.2273         6.5411         6.5691         7.1223         7.1516        15.4174      -999.2500       600.3055
    2122.77960         8.5000         8.5607      0.0063349      -999.2500      -999.2500      -999.2500      -999.2500       0.178461       0.177474         3.2213         6.4747         6.5034         7.0533         7.0848        15.3762      -999.2500       601.4373
    2122.93200         8.5000         8.5671      0.0084901      -999.2500      -999.2500      -999.2500      -999.2500       0.178345       0.177271         3.2153         6.4083         6.4377         6.9844         7.0180        15.3350      -999.2500       602.5690
    2123.08440         8.5000         8.5728      0.0086636      -999.2500      -999.2500      -999.2500      -999.2500       0.177764       0.176622         3.2404         6.3503         6.3804         6.9260         6.9615        15.2926      -999.2500       602.4011
    2123.23680         8.5000         8.5782      0.0072406      -999.2500      -999.2500      -999.2500      -999.2500       0.176808       0.175613         3.2905         6.2992         6.3298         6.8761         6.9133        15.2492      -999.2500       601.1861
    2123.38920         8.5000         8.5836      0.0058175      -999.2500      -999.2500      -999.2500      -999.2500       0.175852       0.174605         3.3405         6.2480         6.2792         6.8263         6.8651        15.2058      -999.2500       599.9710
    2123.54160         8.5000         8.5873      0.0044326      -999.2500      -999.2500      -999.2500      -999.2500    -999.250000    -999.250000         3.3674         6.2128         6.2444         6.7945         6.8345        15.1738      -999.2500       598.9894
    2123.69400         8.5000         8.5865      0.0031492      -999.2500      -999.2500      -999.2500      -999.2500    -999.250000    -999.250000         3.3325         6.2204         6.2519         6.8110         6.8507        15.1724      -999.2500       598.6293
    2123.84640         8.5000         8.5858      0.0018658      -999.2500      -999.2500      -999.2500      -999.2500    -999.250000    -999.250000         3.2976         6.2280         6.2594         6.8276         6.8670        15.1709      -999.2500       598.2693
    2123.99880         8.5000         8.5850      0.0005825      -999.2500      -999.2500      -999.2500      -999.2500    -999.250000    -999.250000         3.2628         6.2356         6.2669         6.8441         6.8832        15.1695      -999.2500       597.9092
    2124.15120         8.5000         8.5697      0.0007218      -999.2500      -999.2500      -999.2500      -999.2500    -999.250000    -999.250000         3.2801         6.2300         6.2598         6.8361         6.8713        15.0300      -999.2500       599.9973
    2124.30360         8.5000         8.5542      0.0008724      -999.2500      -999.2500      -999.2500      -999.2500    -999.250000    -999.250000         3.2979         6.2244         6.2526         6.8280         6.8591        14.8894      -999.2500       602.1048
    2124.45600         8.5000         8.5388      0.0010230      -999.2500      -999.2500      -999.2500      -999.2500    -999.250000    -999.250000         3.3156         6.2187         6.2453         6.8198         6.8469        14.7488      -999.2500       604.2123
    2124.60840         8.5000         8.5343      0.0012003      -999.2500      -999.2500      -999.2500      -999.2500    -999.250000    -999.250000         3.3647         6.2374         6.2635         6.8359         6.8617        14.7593      -999.2500       603.8141
    2124.76080         8.5000         8.5343      0.0013886      -999.2500      -999.2500      -999.2500      -999.2500    -999.250000    -999.250000         3.4265         6.2658         6.2919         6.8619         6.8875        14.8311      -999.2500       602.3988
    2124.91320         8.5000         8.5343      0.0015768      -999.2500      -999.2500      -999.2500      -999.2500    -999.250000    -999.250000         3.4883         6.2943         6.3204         6.8879         6.9133        14.9029      -999.2500       600.9835
    2125.06560         8.5000         8.5342      0.0016546      -999.2500      -999.2500      -999.2500      -999.2500    -999.250000    -999.250000         3.5181         6.2963         6.3224         6.8829         6.9084        15.0146      -999.2500       600.6954
    2125.21800         8.5000         8.5341      0.0015865      -999.2500      -999.2500      -999.2500      -999.2500    -999.250000    -999.250000         3.5054         6.2632         6.2893         6.8371         6.8629        15.1793      -999.2500       601.8987
    2125.37040         8.5000         8.5340      0.0015183      -999.2500      -999.2500      -999.2500      -999.2500    -999.250000    -999.250000         3.4927         6.2301         6.2562         6.7913         6.8174        15.3439      -999.2500       603.1020
    2125.52280         8.5000         8.5339      0.0014214      -999.2500      -999.2500      -999.2500      -999.2500    -999.250000    -999.250000         3.4817         6.2074         6.2335         6.7551         6.7814        15.5050      -999.2500       603.8903
    2125.67520         8.5000         8.5340      0.0011609      -999.2500      -999.2500      -999.2500      -999.2500    -999.250000    -999.250000         3.4807         6.2434         6.2695         6.7733         6.7995        15.6459      -999.2500       602.3195
    2125.82760         8.5000         8.5341      0.0009005      -999.2500      -999.2500      -999.2500      -999.2500    -999.250000    -999.250000         3.4796         6.2794         6.3055         6.7916         6.8176        15.7867      -999.2500       600.7486
    2125.98000         8.5000         8.5341      0.0006400      -999.2500      -999.2500      -999.2500      -999.2500    -999.250000    -999.250000         3.4786         6.3154         6.3414         6.8098         6.8357        15.9276      -999.2500       599.1777
    2126.13240         8.5000         8.5341      0.0009838      -999.2500      -999.2500      -999.2500      -999.2500    -999.250000    -999.250000         3.5142      -999.2500      -999.2500         6.8831      -999.2500        15.8483      -999.2500       599.0711
    2126.28480         8.5000         8.5342      0.0014189      -999.2500      -999.2500      -999.2500      -999.2500    -999.250000    -999.250000         3.5553      -999.2500      -999.2500         6.9648      -999.2500        15.7358      -999.2500       599.1857
    2126.43720         8.5000         8.5342      0.0018540      -999.2500      -999.2500      -999.2500      -999.2500    -999.250000    -999.250000         3.5964      -999.2500      -999.2500         7.0465      -999.2500        15.6232      -999.2500       599.3002
    2126.58960         8.5000         8.5342   -999.2500000      -999.2500      -999.2500      -999.2500      -999.2500    -999.250000    -999.250000      -999.2500      -999.2500      -999.2500         7.0458      -999.2500        15.5439      -999.2500       599.2422
    2126.74200         8.5000         8.5341   -999.2500000      -999.2500      -999.2500      -999.2500      -999.2500    -999.250000    -999.250000      -999.2500      -999.2500      -999.2500         6.9874      -999.2500        15.4879      -999.2500       599.0632
    2126.89440         8.5000         8.5340   -999.2500000      -999.2500      -999.2500      -999.2500      -999.2500    -999.250000    -999.250000      -999.2500      -999.2500      -999.2500         6.9289      -999.2500        15.4319      -999.2500       598.8842
