~Version Information Block
VERS .                 2.00:  CWLS LOG ASCII STANDARD - VERSION 2.00
WRAP .                   NO:  One line per depth step
~Well Information Block
#MNEM.UNIT        Data Type   Information
#---------- ----------------  -----------
STRT .M           535.07640:  START DEPTH
STOP .M          2419.95960:  STOP DEPTH
STEP .M             0.15240:  STEP
NULL .              -999.25:  NULL VALUE
COMP .                     :  COMPANY
WELL .            Ngatoro-3:  WELL
FLD  .                     :  FIELD
LOC  .                     :  LOCATION
CTRY .                     :  COUNTRY
STAT .                     :  STATE
CNTY .                     :  COUNTY
SRVC .     New Zealand Petroleum Co Ltd:  SERVICE COMPANY
DATE .                     :  DATE
API  .                     :  API NUMBER
UWI  .         100000158215:  UNIQUE WELL ID
LATI .          -39.1846093:  LATITUDE
LONG .          174.1883769:  LONGITUDE
~Curve Information Block
#MNEM.UNIT         API CODE   Curve Description
#---------- ----------------  -----------------
DEPTH.M                    :  
BS   .IN                   :  Bit Size (Created in Geolog)
CALI .IN                   :  Caliper Log (CALI)
DENS .G/C3                 :  Compensated Formation Density Log (RHOB)
DRHO .G/C3                 :  Density Log Correction (DRHO)
DTC  .US/F                 :  Delta T (DT)
GR   .GAPI                 :  Gamma-Ray Log (GR)
GR_CORR.GAPI                 :  Gamma ray corrected
NEUT .V/V                  :  Neutron Log Porosity (NPHI)
NEUT_CORR.V/V                  :  Corrected NPHI (limestone units)
PEF  .B/E                  :  Photoelectric Factor (PEDF)
RESD .OHMM                 :  Laterolog Deep Resistivity (LLD)
RESD_CORR.OHMM                 :  Borehole corrected LLD
RESS .OHMM                 :  Shallow Laterolog (LLS)
RESS_CORR.OHMM                 :  Borehole corrected LLS
SP   .MV                   :  Spontaneous Potential Log (SP)
TEMP .DEGC                 :  Temperature (TEMP)
TENS .KGF                  :  Cable tension at surface (TENS)
~Parameter Information Block
#MNEM.UNIT            Value   Description
#---------- ----------------  -----------
CUR_INT_BOT.M                2420:  Current interpolated bottom
PROJECT.     New Zealand Log QC Project:  
SET  .     A0_FINAL_INTER_REF_D:  
ELEVATION_AMSL.M              267.94:  Elevation above mean sea level
ELEVATION_REF.                   KB:  Measurement reference
FORMATION_AT_TD.             Manganui:  Formation at TD
GL_ELEVATION_AMSL.M            263.2000:  Ground level elevation above mean sea level
LICENCE_NUMBER.             PPL38706:  Licence number
ONSHORE_OR_OFFSHORE.              Onshore:  Onshore/offshore
PR_NUMBER.               PR1863:  Petroleum report number
SPUD_DATE.           14/01/1993:  Spud date
STATUS_AT_COMPLETION.     Suspended as a potential oil producer:  Status at completion
TD_DATE.           08/02/1993:  Total depth date
TOTAL_DEPTH_DRILLED.M                2420:  Total depth drilled
~Other Information Block
# 
~A       DEPTH             BS           CALI           DENS           DRHO            DTC             GR        GR_CORR           NEUT      NEUT_CORR            PEF           RESD      RESD_CORR           RESS      RESS_CORR             SP           TEMP           TENS 
# ...
    1536.34440         8.5000         8.6496         2.4816      0.0206298        78.4391       109.4484       109.9165       0.210351       0.205407         3.3669         4.0601         4.0869         4.6712         4.7301        71.0567        57.6591      1196.6285
    1536.49680         8.5000         8.6610         2.5089      0.0229010        76.1951       107.8327       108.3597       0.196730       0.191998         3.4903         4.5421         4.5743         5.1962         5.2572        71.0146        57.6659      1203.9048
    1536.64920         8.5000         8.6537         2.5006      0.0216449        78.2580       108.6726       109.1610       0.205432       0.200565         3.3862         4.2414         4.2704         4.8850         4.9447        71.1496        57.6660      1197.0138
    1536.80160         8.5000         8.6460         2.4916      0.0203130        80.4132       109.5652       110.0128       0.214612       0.209603         3.2773         3.9239         3.9495         4.5560         4.6142        71.2883        57.6660      1189.8188
    1536.95400         8.5000         8.6384         2.4826      0.0189812        82.5685       110.4578       110.8646       0.223792       0.218641         3.1683         3.6063         3.6287         4.2269         4.2837        71.4270        57.6660      1182.6239
    1537.10640         8.5000         8.6274         2.4688      0.0194355        83.8989       110.2507       110.5953       0.234876       0.229606         3.1117         3.3740         3.3934         3.9645         4.0197        71.3056        57.6660      1179.9027
    1537.25880         8.5000         8.6151         2.4530      0.0206619        84.8727       109.5682       109.8413       0.246782       0.241405         3.0777         3.1786         3.1952         3.7309         3.7844        71.0718        57.6660      1179.1155
    1537.41120         8.5000         8.6028         2.4372      0.0218884        85.8466       108.8857       109.0873       0.258689       0.253203         3.0437         2.9831         2.9969         3.4973         3.5491        70.8380        57.6660      1178.3282
    1537.56360         8.5000         8.5999         2.4276      0.0223535        86.3823       108.3509       108.5353       0.265407       0.259784         3.0259         2.8828         2.8953         3.3759         3.4272        70.7461        57.6660      1178.0353
    1537.71600         8.5000         8.6103         2.4267      0.0217557        86.3064       108.0225       108.2653       0.264882       0.259080         3.0308         2.9154         2.9288         3.4113         3.4638        70.8523        57.6660      1178.4325
    1537.86840         8.5000         8.6207         2.4257      0.0211579        86.2304       107.6942       107.9953       0.264356       0.258377         3.0357         2.9479         2.9622         3.4467         3.5003        70.9585        57.6660      1178.8296
    1538.02080         8.5000         8.6319         2.4256      0.0201455        86.1503       107.3148       107.6787       0.263621       0.257454         3.0434         2.9823         2.9975         3.4832         3.5380        71.0732        57.6660      1179.3441
    1538.17320         8.5000         8.6490         2.4308      0.0165101        86.0436       106.6131       107.0680       0.261563       0.255143         3.0690         3.0281         3.0448         3.5260         3.5828        71.2419        57.6660      1180.6012
    1538.32560         8.5000         8.6660         2.4360      0.0128748        85.9368       105.9114       106.4572       0.259504       0.252831         3.0946         3.0740         3.0921         3.5688         3.6276        71.4106        57.6660      1181.8583
    1538.47800         8.5000         8.6830         2.4412      0.0092394        85.8301       105.2097       105.8464       0.257446       0.250520         3.1202         3.1199         3.1394         3.6116         3.6725        71.5793        57.6660      1183.1152
    1538.63040         8.5000         8.6792         2.4381      0.0091291        86.1041       108.3490       108.9799       0.256143       0.249323         3.1006         3.0909         3.1099         3.5683         3.6285        71.5338        57.6660      1181.9330
    1538.78280         8.5000         8.6718         2.4336      0.0096136        86.4423       112.1363       112.7451       0.254966       0.248315         3.0735         3.0494         3.0674         3.5104         3.5697        71.4521        57.6660      1180.3391
    1538.93520         8.5000         8.6644         2.4291      0.0100980        86.7805       115.9236       116.5103       0.253790       0.247306         3.0463         3.0078         3.0250         3.4525         3.5108        71.3704        57.6660      1178.7454
    1539.08760         8.5000         8.6617         2.4259      0.0101826        86.9428       115.7732       116.3444       0.259763       0.253155         3.0629         2.9898         3.0066         3.4232         3.4811        71.5702        57.6660      1178.8280
    1539.24000         8.5000         8.6624         2.4236      0.0099715        86.9749       112.7100       113.2707       0.271024       0.264076         3.1118         2.9891         3.0059         3.4150         3.4729        71.9782        57.6660      1180.1508
    1539.39240         8.5000         8.6632         2.4214      0.0097603        87.0071       109.6469       110.1970       0.282285       0.274997         3.1607         2.9884         3.0052         3.4067         3.4647        72.3861        57.6660      1181.4736
    1539.54480         8.5000         8.6649         2.4206      0.0094629        87.0466       107.9899       108.5421       0.289140       0.281620         3.1920         2.9905         3.0075         3.4021         3.4602        72.6556        57.6660      1182.4592
    1539.69720         8.5000         8.6689         2.4234      0.0089584        87.1039       109.7104       110.2951       0.285409       0.277921         3.1807         2.9993         3.0166         3.4061         3.4646        72.5924        57.6660      1182.6348
    1539.84960         8.5000         8.6730         2.4262      0.0084538        87.1612       111.4309       112.0480       0.281679       0.274222         3.1695         3.0081         3.0257         3.4100         3.4690        72.5292        57.6660      1182.8103
    1540.00200         8.5000         8.6770         2.4290      0.0079856        87.2170       113.1199       113.7692       0.277961       0.270535         3.1589         3.0170         3.0349         3.4141         3.4735        72.4653        57.6660      1182.9668
    1540.15440         8.5000         8.6776         2.4326      0.0102560        87.1609       112.4485       113.0974       0.275126       0.267774         3.1973         3.0289         3.0469         3.4245         3.4840        72.3423        57.6660      1181.6964
    1540.30680         8.5000         8.6783         2.4362      0.0125264        87.1048       111.7771       112.4257       0.272291       0.265012         3.2358         3.0407         3.0590         3.4348         3.4944        72.2193        57.6660      1180.4260
    1540.45920         8.5000         8.6790         2.4399      0.0147968        87.0487       111.1057       111.7540       0.269456       0.262250         3.2742         3.0526         3.0710         3.4452         3.5049        72.0963        57.6660      1179.1556
    1540.61160         8.5000         8.6772         2.4395      0.0143433        86.8940       112.7842       113.4311       0.269164       0.262002         3.2543         3.0669         3.0854         3.4550         3.5145        71.7667        57.6660      1179.0372
    1540.76400         8.5000         8.6745         2.4377      0.0128940        86.7033       115.3218       115.9670       0.269802       0.262672         3.2131         3.0821         3.1007         3.4645         3.5238        71.3615        57.6660      1179.3400
