~Version Information Block
VERS .                 2.00:  CWLS LOG ASCII STANDARD - VERSION 2.00
WRAP .                   NO:  One line per depth step
~Well Information Block
#MNEM.UNIT        Data Type   Information
#---------- ----------------  -----------
STRT .M           530.50440:  START DEPTH
STOP .M          1878.48240:  STOP DEPTH
STEP .M             0.15240:  STEP
NULL .              -999.25:  NULL VALUE
COMP .                     :  COMPANY
WELL .            Ngatoro-7:  WELL
FLD  .                     :  FIELD
LOC  .                     :  LOCATION
CTRY .                     :  COUNTRY
STAT .                     :  STATE
CNTY .                     :  COUNTY
SRVC .     New Zealand Petroleum Co Ltd:  SERVICE COMPANY
DATE .                     :  DATE
API  .                     :  API NUMBER
UWI  .         100000210191:  UNIQUE WELL ID
LATI .          -39.2039075:  LATITUDE
LONG .          174.1707218:  LONGITUDE
~Curve Information Block
#MNEM.UNIT         API CODE   Curve Description
#---------- ----------------  -----------------
DEPTH.M                    :  
BS   .IN                   :  Bit Size (Created in Geolog)
CALI .IN                   :  Caliper (HCAL)
DENS .G/C3                 :  Bulk Density (RHOZ) and HR Bulk Density (RHO8)
DTC  .US/F                 :  Delta Time (DTC)
GR   .GAPI                 :  Gamma Ray (GR) and HR Gamma Ray (HGR)
NEUT .V/V                  :  Neutron Porosity (NPHI) and HR Neutron Porosity (HTNP)
NEUT_CORR.V/V                  :  Corrected NPHI (limestone units)
PEF  .B/E                  :  HRDD Std Resolution Formation Photoelectric Factor (PEFZ) and (PEF8)
RESD .OHMM                 :  HALS Deep Res. (HLLD) and HR HALS Deep Res. (HRLD)
RESS .OHMM                 :  HALS Shallow Res. (HLLS) and HR HALS Shallow Res. (HRLS)
SP   .MV                   :  Spontaneous Potential (SP)
~Parameter Information Block
#MNEM.UNIT            Value   Description
#---------- ----------------  -----------
CUR_INT_BOT.M                1879:  Current interpolated bottom
PROJECT.     New Zealand Log QC Project:  
SET  .     A0_FINAL_INTER_REF_D:  
ELEVATION_AMSL.M                 327:  Elevation above mean sea level
ELEVATION_REF.                   KB:  Measurement reference
FORMATION_AT_TD.      Mount Messenger:  Formation at TD
GL_ELEVATION_AMSL.M            321.4000:  Ground level elevation above mean sea level
LICENCE_NUMBER.             PPL38706:  Licence number
ONSHORE_OR_OFFSHORE.              Onshore:  Onshore/offshore
PR_NUMBER.               PR2215:  Petroleum report number
SPUD_DATE.           09/04/1996:  Spud date
STATUS_AT_COMPLETION.     Suspended with 7" casing cemented in place:  Status at completion
TD_DATE.           18/04/1996:  Total depth date
TOTAL_DEPTH_DRILLED.M                1879:  Total depth drilled
~Other Information Block
# 
~A       DEPTH             BS           CALI           DENS            DTC             GR           NEUT      NEUT_CORR            PEF           RESD           RESS             SP 
# ...
     989.99040         8.5000         8.7255         2.3121      -999.2500        96.1763       0.336035       0.335413         3.2363         4.0289         3.8574       139.8740
     990.14280         8.5000         8.7312         2.3170      -999.2500        95.9369       0.335454       0.334817         3.2432         4.0203         3.8621       139.7765
     990.29520         8.5000         8.7366         2.3220      -999.2500        95.6912       0.334598       0.333913         3.2505         4.0115         3.8668       139.6945
     990.44760         8.5000         8.7421         2.3271      -999.2500        95.4454       0.333743       0.333009         3.2579         4.0027         3.8716       139.6125
     990.60000         8.5000         8.7453         2.3268      -999.2500        95.1753       0.324955       0.323767         3.2589         3.9825         3.8675       139.7377
     990.75240         8.5000         8.7473         2.3238      -999.2500        94.8924       0.312012       0.310156         3.2566         3.9562         3.8588       139.9716
     990.90480         8.5000         8.7493         2.3208      -999.2500        94.6095       0.299068       0.296546         3.2544         3.9300         3.8501       140.2054
     991.05720         8.5000         8.7540         2.3203      -999.2500        94.0113       0.290987       0.288075         3.2508         3.9147         3.8466       140.5687
     991.20960         8.5000         8.7631         2.3239      -999.2500        92.8883       0.291000       0.288161         3.2449         3.9175         3.8518       141.1472
     991.36200         8.5000         8.7721         2.3275      -999.2500        91.7654       0.291012       0.288246         3.2391         3.9203         3.8570       141.7258
     991.51440         8.5000         8.7800         2.3328      -999.2500        90.5055       0.290398       0.287612         3.2377         3.9782         3.9148       142.2819
     991.66680         8.5000         8.7767         2.3542      -999.2500        87.9327       0.283775       0.280086         3.2785         4.5640         4.4764       142.6223
     991.81920         8.5000         8.7734         2.3756      -999.2500        85.3599       0.277151       0.272559         3.3194         5.1499         5.0380       142.9627
     991.97160         8.5000         8.7701         2.3970      -999.2500        82.7871       0.270528       0.265033         3.3603         5.7357         5.5996       143.3030
     992.12400         8.5000         8.7489         2.3899      -999.2500        83.7483       0.276257       0.271495         3.3599         5.5093         5.3798       143.2464
     992.27640         8.5000         8.7235         2.3763      -999.2500        85.5189       0.284814       0.281161         3.3500         5.0969         4.9811       143.0988
     992.42880         8.5000         8.6982         2.3627      -999.2500        87.2896       0.293372       0.290826         3.3401         4.6845         4.5824       142.9512
     992.58120         8.5000         8.6963         2.3501      -999.2500        88.9564       0.297894       0.295807         3.3195         4.4218         4.3259       142.6907
     992.73360         8.5000         8.7150         2.3383      -999.2500        90.5323       0.298878       0.296680         3.2895         4.2903         4.1943       142.3312
     992.88600         8.5000         8.7337         2.3265      -999.2500        92.1082       0.299863       0.297553         3.2595         4.1588         4.0627       141.9717
     993.03840         8.5000         8.7446         2.3182      -999.2500        93.1446       0.300396       0.298024         3.2288         4.0539         3.9564       141.6252
     993.19080         8.5000         8.7324         2.3201      -999.2500        92.5793       0.299593       0.297305         3.1961         4.0278         3.9258       141.3172
     993.34320         8.5000         8.7202         2.3220      -999.2500        92.0140       0.298790       0.296586         3.1634         4.0017         3.8951       141.0092
     993.49560         8.5000         8.7080         2.3239      -999.2500        91.4486       0.297987       0.295867         3.1307         3.9756         3.8644       140.7012
     993.64800         8.5000         8.7138         2.3238      -999.2500        92.1631       0.294475       0.292091         3.1475         3.9926         3.8584       140.3242
     993.80040         8.5000         8.7201         2.3236      -999.2500        92.9156       0.290882       0.288224         3.1657         4.0108         3.8531       139.9452
     993.95280         8.5000         8.7265         2.3235      -999.2500        93.6681       0.287288       0.284357         3.1840         4.0290         3.8478       139.5662
     994.10520         8.5000         8.7162         2.3217      -999.2500        94.3112       0.290543       0.287618         3.1898         4.0368         3.8368       139.4659
     994.25760         8.5000         8.6983         2.3193      -999.2500        94.9051       0.296870       0.294077         3.1901         4.0400         3.8232       139.4907
     994.41000         8.5000         8.6805         2.3169      -999.2500        95.4991       0.303196       0.300536         3.1904         4.0431         3.8096       139.5155
     994.56240         8.5000         8.6722         2.3140      -999.2500        95.6949       0.309693       0.307260         3.1821         4.0291         3.7861       139.7402
     994.71480         8.5000         8.6775         2.3106      -999.2500        95.3164       0.316433       0.314365         3.1614         3.9901         3.7482       140.2532
     994.86720         8.5000         8.6829         2.3071      -999.2500        94.9378       0.323174       0.321470         3.1407         3.9512         3.7103       140.7662
     995.01960         8.5000         8.6868         2.3042      -999.2500        94.6212       0.327870       0.326460         3.1259         3.9196         3.6797       141.2553
     995.17200         8.5000         8.6804         2.3042      -999.2500        94.7241       0.318715       0.317110         3.1514         3.9378         3.6986       141.5824
     995.32440         8.5000         8.6741         2.3043      -999.2500        94.8269       0.309559       0.307761         3.1769         3.9560         3.7176       141.9095
     995.47680         8.5000         8.6677         2.3044      -999.2500        94.9298       0.300404       0.298411         3.2024         3.9743         3.7365       142.2366
     995.62920         8.5000         8.6757         2.3068      -999.2500        95.3745       0.302980       0.300615         3.2031         3.9820         3.7405       142.5709
     995.78160         8.5000         8.6863         2.3097      -999.2500        95.8806       0.307663       0.304893         3.1994         3.9879         3.7418       142.9064
     995.93400         8.5000         8.6969         2.3126      -999.2500        96.3867       0.312345       0.309171         3.1957         3.9938         3.7431       143.2420
     996.08640         8.5000         8.6903         2.3137      -999.2500        97.0237       0.314300       0.310960         3.1845         3.9946         3.7420       143.2566
     996.23880         8.5000         8.6706         2.3134      -999.2500        97.7609       0.314170       0.310847         3.1675         3.9915         3.7389       143.0262
     996.39120         8.5000         8.6508         2.3131      -999.2500        98.4980       0.314041       0.310735         3.1506         3.9884         3.7359       142.7957
     996.54360         8.5000         8.6287         2.3125      -999.2500        99.0749       0.317391       0.314156         3.1413         3.9754         3.7258       142.5260
     996.69600         8.5000         8.6008         2.3111      -999.2500        99.2519       0.329424       0.326394         3.1511         3.9378         3.6982       142.1583
