~Version Information Block
VERS .                 2.00:  CWLS LOG ASCII STANDARD - VERSION 2.00
WRAP .                   NO:  One line per depth step
~Well Information Block
#MNEM.UNIT        Data Type   Information
#---------- ----------------  -----------
STRT .M           535.07640:  START DEPTH
STOP .M          2419.95960:  STOP DEPTH
STEP .M             0.15240:  STEP
NULL .              -999.25:  NULL VALUE
COMP .                     :  COMPANY
WELL .            Ngatoro-3:  WELL
FLD  .                     :  FIELD
LOC  .                     :  LOCATION
CTRY .                     :  COUNTRY
STAT .                     :  STATE
CNTY .                     :  COUNTY
SRVC .     New Zealand Petroleum Co Ltd:  SERVICE COMPANY
DATE .                     :  DATE
API  .                     :  API NUMBER
UWI  .         100000158215:  UNIQUE WELL ID
LATI .          -39.1846093:  LATITUDE
LONG .          174.1883769:  LONGITUDE
~Curve Information Block
#MNEM.UNIT         API CODE   Curve Description
#---------- ----------------  -----------------
DEPTH.M                    :  
BS   .IN                   :  Bit Size (Created in Geolog)
CALI .IN                   :  Caliper Log (CALI)
DENS .G/C3                 :  Compensated Formation Density Log (RHOB)
DRHO .G/C3                 :  Density Log Correction (DRHO)
DTC  .US/F                 :  Delta T (DT)
GR   .GAPI                 :  Gamma-Ray Log (GR)
GR_CORR.GAPI                 :  Gamma ray corrected
NEUT .V/V                  :  Neutron Log Porosity (NPHI)
NEUT_CORR.V/V                  :  Corrected NPHI (limestone units)
PEF  .B/E                  :  Photoelectric Factor (PEDF)
RESD .OHMM                 :  Laterolog Deep Resistivity (LLD)
RESD_CORR.OHMM                 :  Borehole corrected LLD
RESS .OHMM                 :  Shallow Laterolog (LLS)
RESS_CORR.OHMM                 :  Borehole corrected LLS
SP   .MV                   :  Spontaneous Potential Log (SP)
TEMP .DEGC                 :  Temperature (TEMP)
TENS .KGF                  :  Cable tension at surface (TENS)
~Parameter Information Block
#MNEM.UNIT            Value   Description
#---------- ----------------  -----------
CUR_INT_BOT.M                2420:  Current interpolated bottom
PROJECT.     New Zealand Log QC Project:  
SET  .     A0_FINAL_INTER_REF_D:  
ELEVATION_AMSL.M              267.94:  Elevation above mean sea level
ELEVATION_REF.                   KB:  Measurement reference
FORMATION_AT_TD.             Manganui:  Formation at TD
GL_ELEVATION_AMSL.M            263.2000:  Ground level elevation above mean sea level
LICENCE_NUMBER.             PPL38706:  Licence number
ONSHORE_OR_OFFSHORE.              Onshore:  Onshore/offshore
PR_NUMBER.               PR1863:  Petroleum report number
SPUD_DATE.           14/01/1993:  Spud date
STATUS_AT_COMPLETION.     Suspended as a potential oil producer:  Status at completion
TD_DATE.           08/02/1993:  Total depth date
TOTAL_DEPTH_DRILLED.M                2420:  Total depth drilled
~Other Information Block
# 
~A       DEPTH             BS           CALI           DENS           DRHO            DTC             GR        GR_CORR           NEUT      NEUT_CORR            PEF           RESD      RESD_CORR           RESS      RESS_CORR             SP           TEMP           TENS 
# ...
    2277.00840         8.5000         9.2110         2.5537      0.0244698        74.5812       113.4482       117.2020       0.195631       0.185827         3.0824         9.4804         9.5598        10.6036        10.8716        56.6669        71.6499      1518.5613
    2277.16080         8.5000         9.2127         2.5602      0.0257233        75.3068       116.0721       119.9267       0.207733       0.197248         3.1381         9.0688         9.1499        10.1634        10.4240        56.7509        71.6566      1520.6903
    2277.31320         8.5000         9.2144         2.5666      0.0269767        76.0323       118.6961       122.6514       0.219835       0.208668         3.1939         8.6571         8.7401         9.7232         9.9765        56.8348        71.6634      1522.8192
    2277.46560         8.5000         9.2161         2.5731      0.0282301        76.7579       121.3200       125.3760       0.231937       0.220089         3.2497         8.2454         8.3303         9.2830         9.5289        56.9188        71.6701      1524.9481
    2277.61800         8.5000         9.2381         2.5679      0.0298175        76.4250       121.1373       125.3162       0.228901       0.216908         3.1694         8.3004         8.3878         9.3390         9.5948        57.0329        71.6691      1526.9905
    2277.77040         8.5000         9.2660         2.5592      0.0315023        75.7834       120.1363       124.4447       0.221453       0.209471         3.0494         8.4914         8.5816         9.5396         9.8103        57.1557        71.6659      1529.0074
    2277.92280         8.5000         9.2939         2.5505      0.0331871        75.1418       119.1353       123.5732       0.214004       0.202034         2.9294         8.6824         8.7753         9.7403        10.0258        57.2786        71.6627      1531.0245
    2278.07520         8.5000         9.3133         2.5411      0.0343271        74.9564       118.6370       123.1722       0.207116       0.195265         2.8646         8.8626         8.9572         9.9143        10.2112        58.0653        71.6644      1535.4003
    2278.22760         8.5000         9.3240         2.5309      0.0349080        75.2392       118.6546       123.2542       0.200802       0.189182         2.8564         9.0315         9.1269        10.0610        10.3656        59.5335        71.6712      1542.1976
    2278.38000         8.5000         9.3347         2.5208      0.0354888        75.5221       118.6722       123.3363       0.194489       0.183098         2.8482         9.2005         9.2965        10.2077        10.5200        61.0017        71.6781      1548.9949
    2278.53240         8.5000         9.3418         2.5125      0.0359551        75.8046       119.0768       123.7992       0.190949       0.179672         2.8519         9.3126         9.4091        10.2898        10.6069        61.8851        71.6851      1552.7327
    2278.68480         8.5000         9.3358         2.5109      0.0359971        76.0860       120.9145       125.6725       0.197684       0.186087         2.8994         9.2142         9.3103        10.1325        10.4435        60.6021        71.6928      1545.1389
    2278.83720         8.5000         9.3297         2.5093      0.0360392        76.3674       122.7521       127.5459       0.204419       0.192501         2.9468         9.1158         9.2115         9.9752        10.2801        59.3192        71.7006      1537.5452
    2278.98960         8.5000         9.3237         2.5077      0.0360812        76.6489       124.5898       129.4192       0.211154       0.198916         2.9942         9.0174         9.1127         9.8179        10.1167        58.0363        71.7083      1529.9514
    2279.14200         8.5000         9.3164         2.5006      0.0352056        76.8792       121.4831       126.1507       0.216656       0.204203         3.0129         8.6857         8.7808         9.4347         9.7221        58.5386        71.7095      1523.1722
    2279.29440         8.5000         9.3089         2.4930      0.0342628        77.1058       118.0143       122.5057       0.222069       0.209407         3.0294         8.3370         8.4318         9.0349         9.3104        59.1716        71.7101      1516.4526
    2279.44680         8.5000         9.3015         2.4854      0.0333200        77.3324       114.5455       118.8607       0.227481       0.214611         3.0459         7.9883         8.0828         8.6351         8.8988        59.8046        71.7108      1509.7330
    2279.59920         8.5000         9.2770         2.4810      0.0336333        77.2775       109.4618       113.4677       0.225176       0.212783         3.0202         7.7000         7.7921         8.3302         8.5790        59.6524        71.7190      1511.5029
    2279.75160         8.5000         9.2433         2.4783      0.0346204        77.0715       103.5121       107.1373       0.218734       0.207184         2.9719         7.4442         7.5327         8.0762         8.3085        59.0791        71.7312      1517.8257
    2279.90400         8.5000         9.2097         2.4756      0.0356075        76.8656        97.5624       100.8068       0.212291       0.201585         2.9236         7.1884         7.2732         7.8221         8.0380        58.5058        71.7434      1524.1484
    2280.05640         8.5000         9.1604         2.4701      0.0367822        76.6770        93.2670        96.1275       0.208811       0.199026         2.8572         7.0342         7.1139         7.6685         7.8655        57.9141        71.7486      1528.3583
    2280.20880         8.5000         9.0845         2.4598      0.0382764        76.5181        91.7875        94.2586       0.210373       0.201643         2.7596         7.0532         7.1250         7.6861         7.8596        57.2908        71.7420      1528.9713
    2280.36120         8.5000         9.0087         2.4495      0.0397706        76.3591        90.3081        92.3897       0.211936       0.204260         2.6621         7.0721         7.1362         7.7037         7.8538        56.6675        71.7354      1529.5844
    2280.51360         8.5000         8.9398         2.4418      0.0407874        76.2338        89.0422        90.7715       0.213938       0.207195         2.5878         7.0921         7.1490         7.7206         7.8495        56.1097        71.7304      1530.4205
    2280.66600         8.5000         8.9419         2.4601      0.0369323        76.4524        89.9567        91.7118       0.220428       0.213384         2.7497         7.1225         7.1797         7.7312         7.8609        56.2198        71.7414      1533.5333
    2280.81840         8.5000         8.9439         2.4783      0.0330771        76.6709        90.8711        92.6521       0.226918       0.219573         2.9116         7.1529         7.2104         7.7417         7.8723        56.3299        71.7524      1536.6462
    2280.97080         8.5000         8.9460         2.4966      0.0292219        76.8895        91.7856        93.5924       0.233408       0.225761         3.0734         7.1834         7.2410         7.7522         7.8836        56.4401        71.7634      1539.7590
    2281.12320         8.5000         8.9059         2.4987      0.0324945        76.6096        89.0573        90.6486       0.227098       0.220282         3.0535         7.0442         7.0980         7.6154         7.7341        56.0717        71.7683      1540.1654
    2281.27560         8.5000         8.8558         2.4969      0.0374564        76.2115        85.4656        86.7842       0.217753       0.212037         2.9906         6.8648         6.9138         7.4435         7.5463        55.5899        71.7718      1539.9303
    2281.42800         8.5000         8.8056         2.4951      0.0424183        75.8135        81.8739        82.9198       0.208408       0.203792         2.9276         6.6854         6.7296         7.2717         7.3586        55.1081        71.7753      1539.6952
