~Version Information Block
VERS .                 2.00:  CWLS LOG ASCII STANDARD - VERSION 2.00
WRAP .                   NO:  One line per depth step
~Well Information Block
#MNEM.UNIT        Data Type   Information
#---------- ----------------  -----------
STRT .M           527.15160:  START DEPTH
STOP .M          2099.31000:  STOP DEPTH
STEP .M             0.15240:  STEP
NULL .              -999.25:  NULL VALUE
COMP .                     :  COMPANY
WELL .            Ngatoro-8:  WELL
FLD  .                     :  FIELD
LOC  .                     :  LOCATION
CTRY .                     :  COUNTRY
STAT .                     :  STATE
CNTY .                     :  COUNTY
SRVC .     New Zealand Petroleum Co Ltd:  SERVICE COMPANY
DATE .                     :  DATE
API  .                     :  API NUMBER
UWI  .         100000210422:  UNIQUE WELL ID
LATI .          -39.2038856:  LATITUDE
LONG .          174.1703227:  LONGITUDE
~Curve Information Block
#MNEM.UNIT         API CODE   Curve Description
#---------- ----------------  -----------------
DEPTH.M                    :  
BS   .IN                   :  Bit Size (Created in Geolog)
CALI .IN                   :  Caliper (HCAL)
DENS .G/C3                 :  Bulk Density (RHOZ) and HR Bulk Density (RHO8)
DTC  .US/F                 :  Delta Time (DT)
GR   .GAPI                 :  Gamma Ray (GR) and HR Gamma Ray (HGR)
NEUT .V/V                  :  Neutron Porosity (NPHI) and HR Neutron Porosity (HTNP)
NEUT_CORR.V/V                  :  Corrected NPHI (limestone units)
PEF  .B/E                  :  Photoelectric Factor (PEF) and (PEFZ)
RESD .OHMM                 :  HALS Deep Res. (HLLD) and HR HALS Deep Res. (HRLD)
RESS .OHMM                 :  HALS Shallow Res. (HLLS) and HR HALS Shallow Res. (HRLS)
SP   .MV                   :  Spontaneous Potential (SP)
~Parameter Information Block
#MNEM.UNIT            Value   Description
#---------- ----------------  -----------
CUR_INT_BOT.M                2100:  Current interpolated bottom
PROJECT.     New Zealand Log QC Project:  
SET  .     A0_FINAL_INTER_REF_D:  
ELEVATION_AMSL.M                 328:  Elevation above mean sea level
ELEVATION_REF.                   KB:  Measurement reference
FORMATION_AT_TD.             Manganui:  Formation at TD
GL_ELEVATION_AMSL.M            322.5000:  Ground level elevation above mean sea level
LICENCE_NUMBER.             PPL38706:  Licence number
ONSHORE_OR_OFFSHORE.              Onshore:  Onshore/offshore
PR_NUMBER.               PR2216:  Petroleum report number
SPUD_DATE.           22/04/1996:  Spud date
STATUS_AT_COMPLETION.     Suspended with 7" casing cemented to TD:  Status at completion
TD_DATE.           29/04/1996:  Total depth date
TOTAL_DEPTH_DRILLED.M                2100:  Total depth drilled
~Other Information Block
# 
~A       DEPTH             BS           CALI           DENS            DTC             GR           NEUT      NEUT_CORR            PEF           RESD           RESS             SP 
# ...
    1370.68560         8.5000         8.9103         2.4342        95.6428       113.2639       0.290077       0.284599         3.4141         2.9989         3.1241        59.2490
    1370.83800         8.5000         8.9071         2.4330        95.7889       113.5093       0.285287       0.279724         3.4059         2.9644         3.0889        59.5664
    1370.99040         8.5000         8.9039         2.4318        95.9350       113.7547       0.280496       0.274849         3.3977         2.9298         3.0537        59.8838
    1371.14280         8.5000         8.9100         2.4326        95.0291       111.7628       0.274351       0.268516         3.4076         3.0038         3.1312        59.9645
    1371.29520         8.5000         8.9166         2.4335        94.0524       109.6205       0.268115       0.262086         3.4188         3.0851         3.2163        60.0292
    1371.44760         8.5000         8.9233         2.4344        93.0758       107.4782       0.261878       0.255655         3.4299         3.1663         3.3013        60.0939
    1371.60000         8.5000         8.9263         2.4346        93.1771       107.6003       0.265853       0.259726         3.4430         3.1587         3.2938        60.1480
    1371.75240         8.5000         8.9275         2.4345        93.8433       108.9090       0.275178       0.269301         3.4571         3.1044         3.2377        60.1965
    1371.90480         8.5000         8.9286         2.4343        94.5095       110.2176       0.284503       0.278875         3.4712         3.0500         3.1816        60.2450
    1372.05720         8.5000         8.9255         2.4341        94.9412       110.7505       0.290664       0.285208         3.4693         3.0235         3.1538        60.1812
    1372.20960         8.5000         8.9155         2.4336        94.9826       109.9922       0.291559       0.286145         3.4410         3.0432         3.1729        59.9304
    1372.36200         8.5000         8.9055         2.4331        95.0241       109.2339       0.292454       0.287083         3.4126         3.0629         3.1919        59.6797
    1372.51440         8.5000         8.8961         2.4328        95.0049       108.5569       0.292284       0.286924         3.3885         3.0852         3.2143        59.4270
    1372.66680         8.5000         8.8927         2.4349        94.4052       108.6580       0.281898       0.276265         3.4045         3.1327         3.2681        59.1557
    1372.81920         8.5000         8.8894         2.4369        93.8055       108.7592       0.271512       0.265606         3.4205         3.1802         3.3218        58.8845
    1372.97160         8.5000         8.8860         2.4389        93.2058       108.8604       0.261126       0.254947         3.4365         3.2277         3.3756        58.6132
    1373.12400         8.5000         8.8900         2.4397        93.0288       110.5674       0.260330       0.254115         3.4383         3.2521         3.4038        58.5195
    1373.27640         8.5000         8.8958         2.4402        92.9487       112.6423       0.261731       0.255534         3.4369         3.2712         3.4261        58.4664
    1373.42880         8.5000         8.9015         2.4407        92.8686       114.7171       0.263132       0.256953         3.4354         3.2903         3.4484        58.4133
    1373.58120         8.5000         8.9041         2.4424        93.1195       115.5912       0.265859       0.259748         3.4438         3.2498         3.4089        58.5572
    1373.73360         8.5000         8.9040         2.4451        93.6606       115.4126       0.269747       0.263749         3.4609         3.1570         3.3153        58.8738
    1373.88600         8.5000         8.9039         2.4478        94.2017       115.2339       0.273635       0.267751         3.4780         3.0642         3.2217        59.1904
    1374.03840         8.5000         8.9040         2.4492        94.6773       115.1560       0.277266       0.271490         3.4875         3.0073         3.1660        59.4881
    1374.19080         8.5000         8.9046         2.4470        94.9584       115.3776       0.280134       0.274449         3.4746         3.0572         3.2229        59.7297
    1374.34320         8.5000         8.9052         2.4447        95.2395       115.5991       0.283002       0.277409         3.4617         3.1070         3.2798        59.9712
    1374.49560         8.5000         8.9058         2.4425        95.5206       115.8207       0.285869       0.280368         3.4488         3.1568         3.3367        60.2127
    1374.64800         8.5000         8.9104         2.4408        95.5999       116.1067       0.292770       0.287219         3.4288         3.1829         3.3677        60.3059
    1374.80040         8.5000         8.9152         2.4391        95.6731       116.3947       0.299791       0.294185         3.4086         3.2082         3.3979        60.3947
    1374.95280         8.5000         8.9200         2.4374        95.7464       116.6826       0.306812       0.301151         3.3884         3.2336         3.4281        60.4834
    1375.10520         8.5000         8.9238         2.4382        95.7185       116.8793       0.303169       0.297504         3.3874         3.2340         3.4280        60.5297
    1375.25760         8.5000         8.9271         2.4400        95.6453       117.0350       0.294742       0.289096         3.3950         3.2231         3.4143        60.5568
    1375.41000         8.5000         8.9305         2.4418        95.5722       117.1907       0.286315       0.280687         3.4026         3.2122         3.4005        60.5840
    1375.56240         8.5000         8.9320         2.4424        95.5299       117.9537       0.282678       0.277089         3.4247         3.1889         3.3747        60.5052
    1375.71480         8.5000         8.9310         2.4412        95.5320       119.5928       0.285951       0.280429         3.4678         3.1476         3.3315        60.2736
    1375.86720         8.5000         8.9300         2.4400        95.5342       121.2318       0.289223       0.283769         3.5108         3.1064         3.2883        60.0419
    1376.01960         8.5000         8.9296         2.4389        95.5636       122.4018       0.292028       0.286629         3.5512         3.0689         3.2492        59.8031
    1376.17200         8.5000         8.9328         2.4388        95.7774       120.3938       0.291662       0.286234         3.5733         3.0570         3.2380        59.5158
    1376.32440         8.5000         8.9360         2.4387        95.9912       118.3858       0.291296       0.285839         3.5953         3.0450         3.2267        59.2286
    1376.47680         8.5000         8.9392         2.4385        96.2050       116.3778       0.290930       0.285444         3.6174         3.0331         3.2155        58.9413
    1376.62920         8.5000         8.9378         2.4397        96.0558       116.2904       0.285383       0.279675         3.5892         3.0448         3.2266        59.0360
    1376.78160         8.5000         8.9356         2.4412        95.8414       116.5477       0.278904       0.272941         3.5520         3.0608         3.2416        59.1992
    1376.93400         8.5000         8.9334         2.4426        95.6270       116.8051       0.272426       0.266206         3.5148         3.0767         3.2567        59.3625
    1377.08640         8.5000         8.9337         2.4443        95.2360       116.6041       0.269950       0.263631         3.4872         3.1072         3.2869        59.5425
    1377.23880         8.5000         8.9359         2.4462        94.7102       116.0528       0.270533       0.264232         3.4668         3.1487         3.3287        59.7352
    1377.39120         8.5000         8.9381         2.4481        94.1844       115.5015       0.271116       0.264834         3.4465         3.1903         3.3705        59.9280
