~Version Information Block
VERS .                 2.00:  CWLS LOG ASCII STANDARD - VERSION 2.00
WRAP .                   NO:  One line per depth step
~Well Information Block
#MNEM.UNIT        Data Type   Information
#---------- ----------------  -----------
STRT .M            16.61160:  START DEPTH
STOP .M          1898.90400:  STOP DEPTH
STEP .M             0.15240:  STEP
NULL .              -999.25:  NULL VALUE
COMP .                     :  COMPANY
WELL .         Ngatoro-3ST1:  WELL
FLD  .                     :  FIELD
LOC  .                     :  LOCATION
CTRY .                     :  COUNTRY
STAT .                     :  STATE
CNTY .                     :  COUNTY
SRVC .     Greymouth Petroleum Ltd:  SERVICE COMPANY
DATE .                     :  DATE
API  .                     :  API NUMBER
UWI  .         100000787700:  UNIQUE WELL ID
LATI .          -39.1846084:  LATITUDE
LONG .          174.1883756:  LONGITUDE
~Curve Information Block
#MNEM.UNIT         API CODE   Curve Description
#---------- ----------------  -----------------
DEPTH.M                    :  
BS   .IN                   :  Bit Size (Created in Geolog)
CALI .IN                   :  HRCC Cal. Caliper (HCAL)
DENS .G/C3                 :  HRDD High Resolution Formation Density (RHO8)
DRHO .G/C3                 :  HRDD Density Correction (HDRA)
GR   .GAPI                 :  HiRes Gamma-Ray (EHGR)
NEUT .V/V                  :  HiRes Thermal Neutron Porosity (HTNP)
PEF  .B/E                  :  HRDD High Resolution Formation Photoelectric Factor (PEF8)
RESD .OHMM                 :  Array Induction Two Foot Resistivity A90 (AHT90)
RESM .OHMM                 :  Array Induction Two Foot Resistivity A30 (AHT30)
RESS .OHMM                 :  Array Induction Two Foot Resistivity A10 (AHT10)
SP   .MV                   :  SP Shifted (SP)
TEMP .DEGC                 :  HTC Temperature (HTEM)
TENS .KGF                  :  Cable Tension (TENS)
~Parameter Information Block
#MNEM.UNIT            Value   Description
#---------- ----------------  -----------
CUR_INT_BOT.M                1899:  Current interpolated bottom
PROJECT.     New Zealand Log QC Project:  
SET  .     A0_FINAL_INTER_REF_D:  
ELEVATION_AMSL.M              262.91:  Elevation above mean sea level
ELEVATION_REF.                   DF:  Measurement reference
FORMATION_AT_TD.             Manganui:  Formation at TD
GL_ELEVATION_AMSL.M            259.3000:  Ground level elevation above mean sea level
KICK_OFF_DATE.           26/09/2005:  Kick off date
KICK_OFF_DEPTH.M                 645:  Kick off depth
LICENCE_NUMBER.             PMP38148:  Licence number
ONSHORE_OR_OFFSHORE.              Onshore:  Onshore/offshore
PARENT_WELL.            Ngatoro-3:  Parent well
PR_NUMBER.               PR3237:  Petroleum report number
STATUS_AT_COMPLETION.     Completed ready for perforating:  Status at completion
TD_DATE.           05/10/2005:  Total depth date
TOTAL_DEPTH_DRILLED.M             1898.82:  Total depth drilled
~Other Information Block
# 
~A       DEPTH             BS           CALI           DENS           DRHO             GR           NEUT            PEF           RESD           RESM           RESS             SP           TEMP           TENS 
# ...
    1728.36840         6.0000         6.0067         2.3896      0.0048547       100.3759       0.298674         3.0418         2.8313         2.7744         2.7117       174.9152        55.3416      1309.7408
    1728.52080         6.0000         5.9880         2.3851      0.0035342        99.8479       0.300254         3.0408         2.8269         2.7722         2.7134       167.2887        55.3710      1300.9852
    1728.67320         6.0000         5.9903         2.3890      0.0027023        99.7786       0.296071         3.0157         2.8288         2.7752         2.7182       157.5348        55.3698      1296.9202
    1728.82560         6.0000         5.9926         2.3929      0.0018704        99.7092       0.291888         2.9906         2.8308         2.7782         2.7229       147.7809        55.3687      1292.8552
    1728.97800         6.0000         5.9949         2.3968      0.0010386        99.6398       0.287705         2.9656         2.8328         2.7813         2.7276       138.0269        55.3676      1288.7902
    1729.13040         6.0000         5.9944         2.3962      0.0013050       100.7624       0.289374         2.9811         2.8312         2.7824         2.7296       142.0154        55.3464      1296.8984
    1729.28280         6.0000         5.9933         2.3948      0.0017567       102.0862       0.292031         3.0034         2.8291         2.7833         2.7311       148.3223        55.3220      1307.0605
    1729.43520         6.0000         5.9923         2.3935      0.0022083       103.4099       0.294688         3.0258         2.8270         2.7841         2.7326       154.6292        55.2975      1317.2227
    1729.58760         6.0000         5.9824         2.3958      0.0028413       104.1854       0.297535         3.0311         2.8285         2.7873         2.7366       153.1790        55.2947      1321.7804
    1729.74000         6.0000         5.9660         2.4010      0.0036084       104.5556       0.300522         3.0238         2.8327         2.7924         2.7426       145.9907        55.3081      1322.1925
    1729.89240         6.0000         5.9496         2.4061      0.0043754       104.9257       0.303509         3.0166         2.8369         2.7974         2.7485       138.8024        55.3214      1322.6046
    1730.04480         6.0000         5.9358         2.4092      0.0044925       104.6183       0.303390         3.0148         2.8408         2.8017         2.7537       134.6420        55.3285      1325.6819
    1730.19720         6.0000         5.9281         2.4075      0.0030483       102.6836       0.295810         3.0262         2.8441         2.8041         2.7571       137.7540        55.3203      1335.1606
    1730.34960         6.0000         5.9204         2.4059      0.0016040       100.7490       0.288230         3.0375         2.8474         2.8065         2.7605       140.8660        55.3120      1344.6394
    1730.50200         6.0000         5.9131         2.4042      0.0001914        98.8880       0.280826         3.0483         2.8506         2.8088         2.7638       144.0663        55.3043      1353.8369
    1730.65440         6.0000         5.9319         2.4062      0.0011499       102.5694       0.286596         3.0104         2.8510         2.8116         2.7673       153.9031        55.3336      1341.8875
    1730.80680         6.0000         5.9507         2.4082      0.0021085       106.2507       0.292366         2.9725         2.8514         2.8143         2.7707       163.7399        55.3628      1329.9379
    1730.95920         6.0000         5.9696         2.4102      0.0030671       109.9320       0.298137         2.9346         2.8518         2.8170         2.7742       173.5768        55.3921      1317.9883
    1731.11160         6.0000         5.9792         2.4105      0.0051019       108.6758       0.296638         2.9635         2.8493         2.8156         2.7730       173.2881        55.3999      1312.0070
    1731.26400         6.0000         5.9855         2.4103      0.0075300       105.6145       0.292482         3.0168         2.8458         2.8126         2.7701       169.2976        55.3999      1308.2076
    1731.41640         6.0000         5.9918         2.4100      0.0099582       102.5532       0.288325         3.0701         2.8423         2.8096         2.7672       165.3072        55.3999      1304.4082
    1731.56880         6.0000         5.9948         2.4092      0.0104005       100.4924       0.286528         3.0954         2.8419         2.8099         2.7656       163.1850        55.3999      1306.5837
    1731.72120         6.0000         5.9937         2.4076      0.0084297        99.6473       0.287597         3.0868         2.8453         2.8140         2.7655       163.3331        55.3999      1316.0193
    1731.87360         6.0000         5.9927         2.4061      0.0064590        98.8023       0.288666         3.0782         2.8487         2.8182         2.7655       163.4812        55.3999      1325.4550
    1732.02600         6.0000         5.9899         2.4046      0.0047087        97.9295       0.290118         3.0673         2.8520         2.8211         2.7643       162.8374        55.3999      1333.7377
    1732.17840         6.0000         5.9791         2.4037      0.0040295        96.9218       0.293435         3.0452         2.8547         2.8184         2.7574       158.3438        55.3999      1336.4163
    1732.33080         6.0000         5.9682         2.4027      0.0033504        95.9142       0.296752         3.0231         2.8574         2.8156         2.7506       153.8502        55.3999      1339.0948
    1732.48320         6.0000         5.9574         2.4017      0.0026713        94.9065       0.300069         3.0010         2.8600         2.8128         2.7438       149.3566        55.3999      1341.7733
    1732.63560         6.0000         5.9506         2.3962      0.0018952        97.7990       0.305037         3.0445         2.8578         2.7985         2.7250       144.2553        55.3999      1338.7195
    1732.78800         6.0000         5.9444         2.3901      0.0011071       101.1746       0.310210         3.0962         2.8550         2.7826         2.7048       139.0788        55.3999      1334.9553
    1732.94040         6.0000         5.9381         2.3839      0.0003189       104.5503       0.315383         3.1479         2.8522         2.7668         2.6845       133.9022        55.3999      1331.1912
    1733.09280         6.0000         5.9358         2.3808      0.0005432       105.0625       0.312468         3.1552         2.8517         2.7559         2.6696       133.7249        55.3999      1332.6840
    1733.24520         6.0000         5.9360         2.3796      0.0014176       103.7357       0.304358         3.1341         2.8527         2.7482         2.6581       136.7583        55.3999      1337.5530
    1733.39760         6.0000         5.9362         2.3784      0.0022921       102.4089       0.296248         3.1131         2.8537         2.7405         2.6466       139.7917        55.3999      1342.4220
    1733.55000         6.0000         5.9451         2.3803      0.0030096       101.6245       0.292887         3.1006         2.8521         2.7327         2.6363       142.9847        55.3999      1351.1572
    1733.70240         6.0000         5.9719         2.3886      0.0034059       101.9511       0.299250         3.1060         2.8452         2.7249         2.6284       146.5045        55.3999      1367.8101
    1733.85480         6.0000         5.9986         2.3968      0.0038022       102.2777       0.305614         3.1114         2.8382         2.7171         2.6205       150.0244        55.3999      1384.4630
    1734.00720         6.0000         6.0240         2.4049      0.0043331       102.6999       0.311725         3.1167         2.8311         2.7094         2.6128       153.5474        55.3999      1399.3031
    1734.15960         6.0000         6.0228         2.4097      0.0075800       105.0497       0.312733         3.1229         2.8219         2.7029         2.6089       157.1351        55.3999      1377.5846
