~Version Information Block
VERS .                 2.00:  CWLS LOG ASCII STANDARD - VERSION 2.00
WRAP .                   NO:  One line per depth step
~Well Information Block
#MNEM.UNIT        Data Type   Information
#---------- ----------------  -----------
STRT .M           422.60520:  START DEPTH
STOP .M          2060.90520:  STOP DEPTH
STEP .M             0.15240:  STEP
NULL .              -999.25:  NULL VALUE
COMP .                     :  COMPANY
WELL .           Ngatoro-11:  WELL
FLD  .                     :  FIELD
LOC  .                     :  LOCATION
CTRY .                     :  COUNTRY
STAT .                     :  STATE
CNTY .                     :  COUNTY
SRVC .     New Zealand Petroleum Co Ltd:  SERVICE COMPANY
DATE .                     :  DATE
API  .                     :  API NUMBER
UWI  .         100000290650:  UNIQUE WELL ID
LATI .          -39.1949222:  LATITUDE
LONG .          174.1848583:  LONGITUDE
~Curve Information Block
#MNEM.UNIT         API CODE   Curve Description
#---------- ----------------  -----------------
DEPTH.M                    :  
BS   .IN                   :  Bit Size (Created in Geolog)
CALI .IN                   :  Caliper Log (CALI)
DENS .G/C3                 :  Compensated Formation Density Log (RHOB)
DRHO .G/C3                 :  Density Log Correction (DRHO)
DTC  .US/F                 :  8-10 Ft Compensated Sonic (BPB) (DTC3)
GR   .GAPI                 :  Gamma-Ray Log (GR)
GR_CORR.GAPI                 :  Gamma ray corrected
NEUT .V/V                  :  Neutron Log Porosity (NPHI)
NEUT_CORR.V/V                  :  Corrected NPHI (limestone units)
PEF  .B/E                  :  Photoelectric Factor (PEDF)
RESD .OHMM                 :  Laterolog Deep Resistivity (LLD)
RESD_CORR.OHMM                 :  Borehole corrected LLD
RESS .OHMM                 :  Shallow Laterolog (LLS)
RESS_CORR.OHMM                 :  Borehole corrected LLS
SP   .MV                   :  Spontaneous Potential Log (SP)
TENS .KGF                  :  Cable tension at surface (TENS)
~Parameter Information Block
#MNEM.UNIT            Value   Description
#---------- ----------------  -----------
CUR_INT_BOT.M                2063:  Current interpolated bottom
PROJECT.     New Zealand Log QC Project:  
SET  .     A0_FINAL_INTER_REF_D:  
ELEVATION_AMSL.M              291.65:  Elevation above mean sea level
ELEVATION_REF.                   KB:  Measurement reference
FORMATION_AT_TD.      Mount Messenger:  Formation at TD
GL_ELEVATION_AMSL.M            286.3000:  Ground level elevation above mean sea level
LICENCE_NUMBER.             PMP38148:  Licence number
ONSHORE_OR_OFFSHORE.              Onshore:  Onshore/offshore
PR_NUMBER.               PR2438:  Petroleum report number
SPUD_DATE.           28/06/1998:  Spud date
STATUS_AT_COMPLETION.     Cased and suspended as a future oil producer:  Status at completion
TD_DATE.           15/07/1998:  Total depth date
TOTAL_DEPTH_DRILLED.M                2063:  Total depth drilled
~Other Information Block
# 
~A       DEPTH             BS           CALI           DENS           DRHO            DTC             GR        GR_CORR           NEUT      NEUT_CORR            PEF           RESD      RESD_CORR           RESS      RESS_CORR             SP           TENS 
# ...
    1700.32680         8.5000         8.5549         2.3234       0.013626        94.1832        95.1839        95.4386       0.267889       0.264097         2.7517         2.0664         2.0656         2.3423         2.3906       230.4801      1940.7092
    1700.47920         8.5000         8.5550         2.3008       0.013288        96.8191        95.9514        96.2083       0.283582       0.279458         2.7183         1.8646         1.8610         2.1500         2.1982       230.4936      1942.7632
    1700.63160         8.5000         8.5558         2.3035       0.011882        96.8620        97.9155        98.1820       0.288485       0.284241         2.7272         1.8524         1.8487         2.1353         2.1835       230.4052      1937.6770
    1700.78400         8.5000         8.5567         2.3101       0.010307        96.4951       100.0687       100.3461       0.291683       0.287354         2.7428         1.8701         1.8667         2.1486         2.1970       230.3008      1931.4624
    1700.93640         8.5000         8.5576         2.3168       0.008733        96.1283       102.2219       102.5102       0.294881       0.290466         2.7584         1.8879         1.8848         2.1620         2.2104       230.1963      1925.2478
    1701.08880         8.5000         8.5580         2.3174       0.008359        95.9649       101.4283       101.7163       0.294424       0.290011         2.7479         1.8791         1.8759         2.1438         2.1922       230.0926      1915.7150
    1701.24120         8.5000         8.5580         2.3138       0.008845        95.9473        98.5240        98.8037       0.291349       0.287001         2.7186         1.8512         1.8476         2.1031         2.1514       229.9893      1903.8055
    1701.39360         8.5000         8.5580         2.3101       0.009331        95.9297        95.6198        95.8912       0.288274       0.283992         2.6894         1.8234         1.8194         2.0623         2.1105       229.8861      1891.8962
    1701.54600         8.5000         8.5579         2.3050       0.009702        95.7479        94.0261        94.2927       0.285049       0.280837         2.6661         1.8060         1.8018         2.0326         2.0808       229.8438      1883.5663
    1701.69840         8.5000         8.5577         2.2966       0.009810        95.1866        95.4638        95.7333       0.281479       0.277347         2.6566         1.8130         1.8088         2.0284         2.0766       229.9422      1883.5156
    1701.85080         8.5000         8.5575         2.2882       0.009917        94.6253        96.9014        97.1740       0.277908       0.273857         2.6472         1.8199         1.8158         2.0243         2.0724       230.0407      1883.4650
    1702.00320         8.5000         8.5573         2.2805       0.010013        94.0561        98.3686        98.6442       0.274562       0.270586         2.6388         1.8287         1.8248         2.0218         2.0699       230.1373      1883.3749
    1702.15560         8.5000         8.5565         2.3002       0.009583        93.1204       101.2132       101.4920       0.281680       0.277572         2.6826         1.9247         1.9221         2.0979         2.1461       230.1438      1881.4442
    1702.30800         8.5000         8.5556         2.3200       0.009153        92.1848       104.0577       104.3398       0.288798       0.284558         2.7264         2.0207         2.0194         2.1740         2.2222       230.1503      1879.5137
    1702.46040         8.5000         8.5548         2.3397       0.008723        91.2492       106.9023       107.1876       0.295917       0.291544         2.7703         2.1166         2.1167         2.2501         2.2984       230.1568      1877.5831
    1702.61280         8.5000         8.5541         2.3474       0.009569        90.9817       105.8929       106.1717       0.293385       0.289080         2.7968         2.1374         2.1378         2.2616         2.3100       230.2344      1876.7604
    1702.76520         8.5000         8.5534         2.3508       0.010863        90.9489       103.5306       103.7995       0.287466       0.283299         2.8173         2.1319         2.1321         2.2506         2.2989       230.3369      1876.3265
    1702.91760         8.5000         8.5528         2.3542       0.012156        90.9160       101.1683       101.4273       0.281547       0.277517         2.8377         2.1263         2.1264         2.2395         2.2877       230.4393      1875.8927
    1703.07000         8.5000         8.5534         2.3484       0.013197        91.5014        99.6349        99.8928       0.276209       0.272281         2.8197         2.0946         2.0942         2.2068         2.2550       230.5667      1873.0920
    1703.22240         8.5000         8.5553         2.3319       0.013940        92.8146        99.0775        99.3444       0.271554       0.267686         2.7565         2.0319         2.0308         2.1487         2.1969       230.7233      1867.5056
    1703.37480         8.5000         8.5573         2.3153       0.014683        94.1278        98.5201        98.7959       0.266899       0.263092         2.6932         1.9693         1.9674         2.0906         2.1388       230.8799      1861.9191
    1703.52720         8.5000         8.5587         2.3031       0.015237        95.0774        98.4262        98.7094       0.264632       0.260845         2.6438         1.9115         1.9088         2.0386         2.0868       230.9810      1858.8934
    1703.67960         8.5000         8.5577         2.3108       0.014925        94.3533       100.4659       100.7492       0.273354       0.269403         2.6582         1.8757         1.8725         2.0148         2.0628       230.8265      1867.6553
    1703.83200         8.5000         8.5566         2.3185       0.014613        93.6292       102.5057       102.7890       0.282075       0.277962         2.6726         1.8399         1.8361         1.9909         2.0389       230.6721      1876.4172
    1703.98440         8.5000         8.5555         2.3261       0.014300        92.9052       104.5455       104.8287       0.290796       0.286521         2.6870         1.8041         1.7998         1.9670         2.0149       230.5177      1885.1792
    1704.13680         8.5000         8.5553         2.3150       0.014244        93.1438       105.3073       105.5915       0.298894       0.294455         2.6896         1.7973         1.7929         1.9645         2.0124       230.5636      1880.7605
    1704.28920         8.5000         8.5552         2.3017       0.014216        93.4922       105.9234       106.2086       0.306921       0.302317         2.6908         1.7938         1.7893         1.9645         2.0124       230.6323      1874.8387
    1704.44160         8.5000         8.5551         2.2884       0.014188        93.8407       106.5395       106.8257       0.314948       0.310180         2.6920         1.7903         1.7858         1.9645         2.0123       230.7010      1868.9170
    1704.59400         8.5000         8.5549         2.2845       0.012705        93.8920       105.4719       105.7539       0.313078       0.308355         2.7108         1.7740         1.7692         1.9482         1.9960       230.6207      1870.2126
    1704.74640         8.5000         8.5545         2.2866       0.010317        93.7589       103.3583       103.6329       0.305060       0.300510         2.7405         1.7497         1.7445         1.9219         1.9696       230.4479      1875.9922
    1704.89880         8.5000         8.5542         2.2887       0.007930        93.6257       101.2447       101.5119       0.297041       0.292666         2.7703         1.7253         1.7198         1.8955         1.9431       230.2750      1881.7716
    1705.05120         8.5000         8.5544         2.3025       0.008126        91.8775        99.8182       100.0828       0.285780       0.281638         2.8013         1.7911         1.7865         1.9558         2.0035       230.1270      1887.7538
