~Version Information Block
VERS .                 2.00:  CWLS LOG ASCII STANDARD - VERSION 2.00
WRAP .                   NO:  One line per depth step
~Well Information Block
#MNEM.UNIT        Data Type   Information
#---------- ----------------  -----------
STRT .M            16.61160:  START DEPTH
STOP .M          1898.90400:  STOP DEPTH
STEP .M             0.15240:  STEP
NULL .              -999.25:  NULL VALUE
COMP .                     :  COMPANY
WELL .         Ngatoro-3ST1:  WELL
FLD  .                     :  FIELD
LOC  .                     :  LOCATION
CTRY .                     :  COUNTRY
STAT .                     :  STATE
CNTY .                     :  COUNTY
SRVC .     Greymouth Petroleum Ltd:  SERVICE COMPANY
DATE .                     :  DATE
API  .                     :  API NUMBER
UWI  .         100000787700:  UNIQUE WELL ID
LATI .          -39.1846084:  LATITUDE
LONG .          174.1883756:  LONGITUDE
~Curve Information Block
#MNEM.UNIT         API CODE   Curve Description
#---------- ----------------  -----------------
DEPTH.M                    :  
BS   .IN                   :  Bit Size (Created in Geolog)
CALI .IN                   :  HRCC Cal. Caliper (HCAL)
DENS .G/C3                 :  HRDD High Resolution Formation Density (RHO8)
DRHO .G/C3                 :  HRDD Density Correction (HDRA)
GR   .GAPI                 :  HiRes Gamma-Ray (EHGR)
NEUT .V/V                  :  HiRes Thermal Neutron Porosity (HTNP)
PEF  .B/E                  :  HRDD High Resolution Formation Photoelectric Factor (PEF8)
RESD .OHMM                 :  Array Induction Two Foot Resistivity A90 (AHT90)
RESM .OHMM                 :  Array Induction Two Foot Resistivity A30 (AHT30)
RESS .OHMM                 :  Array Induction Two Foot Resistivity A10 (AHT10)
SP   .MV                   :  SP Shifted (SP)
TEMP .DEGC                 :  HTC Temperature (HTEM)
TENS .KGF                  :  Cable Tension (TENS)
~Parameter Information Block
#MNEM.UNIT            Value   Description
#---------- ----------------  -----------
CUR_INT_BOT.M                1899:  Current interpolated bottom
PROJECT.     New Zealand Log QC Project:  
SET  .     A0_FINAL_INTER_REF_D:  
ELEVATION_AMSL.M              262.91:  Elevation above mean sea level
ELEVATION_REF.                   DF:  Measurement reference
FORMATION_AT_TD.             Manganui:  Formation at TD
GL_ELEVATION_AMSL.M            259.3000:  Ground level elevation above mean sea level
KICK_OFF_DATE.           26/09/2005:  Kick off date
KICK_OFF_DEPTH.M                 645:  Kick off depth
LICENCE_NUMBER.             PMP38148:  Licence number
ONSHORE_OR_OFFSHORE.              Onshore:  Onshore/offshore
PARENT_WELL.            Ngatoro-3:  Parent well
PR_NUMBER.               PR3237:  Petroleum report number
STATUS_AT_COMPLETION.     Completed ready for perforating:  Status at completion
TD_DATE.           05/10/2005:  Total depth date
TOTAL_DEPTH_DRILLED.M             1898.82:  Total depth drilled
~Other Information Block
# 
~A       DEPTH             BS           CALI           DENS           DRHO             GR           NEUT            PEF           RESD           RESM           RESS             SP           TEMP           TENS 
# ...
    1811.57880         6.0000         6.0249         2.4024      0.0076221        95.5039       0.262777         2.8815         2.8566         3.0767         3.4753        88.6482        55.5996      1356.5284
    1811.73120         6.0000         6.0302         2.4130      0.0090352        93.8546       0.256600         2.9432         2.9382         3.2815         3.7143        93.5020        55.5996      1370.2349
    1811.88360         6.0000         6.0356         2.4237      0.0104483        92.2052       0.250424         3.0049         3.0197         3.4862         3.9532        98.3558        55.5996      1383.9413
    1812.03600         6.0000         6.0326         2.4480      0.0145395        91.0490       0.243539         3.0668         3.0744         3.6360         4.1103       102.9798        55.5996      1395.1243
    1812.18840         6.0000         6.0029         2.5161      0.0272895        91.4875       0.234360         3.1294         3.0421         3.6082         4.0024       106.8608        55.5996      1398.1487
    1812.34080         6.0000         5.9732         2.5843      0.0400396        91.9260       0.225182         3.1919         3.0097         3.5804         3.8946       110.7419        55.5996      1401.1730
    1812.49320         6.0000         5.9434         2.6524      0.0527896        92.3644       0.216003         3.2545         2.9774         3.5527         3.7867       114.6229        55.5996      1404.1974
    1812.64560         6.0000         5.9611         2.5965      0.0444600        93.2535       0.224371         3.2229         2.9296         3.3566         3.5962       125.0098        55.5996      1391.5044
    1812.79800         6.0000         5.9810         2.5347      0.0351459        94.1636       0.233557         3.1870         2.8810         3.1528         3.4017       135.7005        55.5996      1378.0774
    1812.95040         6.0000         6.0008         2.4730      0.0258318        95.0737       0.242744         3.1510         2.8324         2.9489         3.2073       146.3913        55.5996      1364.6504
    1813.10280         6.0000         6.0112         2.4394      0.0221108        95.1719       0.254461         3.1168         2.8189         2.8623         3.0951       148.3118        55.5996      1370.1648
    1813.25520         6.0000         6.0169         2.4193      0.0210884        94.8783       0.267398         3.0834         2.8224         2.8323         3.0225       146.0007        55.5996      1384.8182
    1813.40760         6.0000         6.0227         2.3992      0.0200659        94.5847       0.280336         3.0500         2.8259         2.8024         2.9499       143.6895        55.5996      1399.4717
    1813.56000         6.0000         6.0279         2.3898      0.0175543        94.4475       0.288986         3.0153         2.8421         2.7940         2.9085       140.6582        55.5996      1404.3732
    1813.71240         6.0000         6.0321         2.3966      0.0127494        94.5510       0.291034         2.9785         2.8779         2.8189         2.9149       136.5177        55.5996      1394.2567
    1813.86480         6.0000         6.0363         2.4035      0.0079445        94.6545       0.293082         2.9418         2.9136         2.8438         2.9213       132.3772        55.5996      1384.1401
    1814.01720         6.0000         6.0372         2.4089      0.0038091        94.4141       0.294635         2.9112         2.9437         2.8641         2.9243       128.6303        55.5996      1375.1083
    1814.16960         6.0000         6.0111         2.4028      0.0049367        91.4713       0.292299         2.9283         2.9291         2.8490         2.9006       127.9776        55.5996      1374.6016
    1814.32200         6.0000         5.9851         2.3967      0.0060642        88.5285       0.289963         2.9455         2.9145         2.8338         2.8769       127.3250        55.5996      1374.0950
    1814.47440         6.0000         5.9590         2.3906      0.0071917        85.5856       0.287628         2.9626         2.8999         2.8187         2.8533       126.6723        55.5996      1373.5883
    1814.62680         6.0000         5.9487         2.3875      0.0061572        86.4245       0.289667         2.9511         2.8975         2.8228         2.8621       126.1110        55.5996      1378.9064
    1814.77920         6.0000         5.9416         2.3851      0.0046862        88.0270       0.292590         2.9338         2.8975         2.8307         2.8775       125.5682        55.5996      1385.4005
    1814.93160         6.0000         5.9344         2.3826      0.0032152        89.6294       0.295512         2.9164         2.8975         2.8387         2.8929       125.0255        55.5996      1391.8945
    1815.08400         6.0000         5.9319         2.3887      0.0018854        90.1439       0.291228         2.9549         2.9251         2.8742         2.9305       124.0403        55.5996      1395.5258
    1815.23640         6.0000         5.9330         2.4017      0.0006708        89.7724       0.281074         3.0388         2.9752         2.9322         2.9860       122.6949        55.5996      1396.8259
    1815.38880         6.0000         5.9342         2.4148     -0.0005439        89.4010       0.270921         3.1228         3.0253         2.9902         3.0416       121.3495        55.5996      1398.1260
    1815.54120         6.0000         5.9332         2.4225     -0.0009008        89.8234       0.265115         3.1640         3.0452         3.0177         3.0674       122.1503        55.5996      1396.1847
    1815.69360         6.0000         5.9265         2.4158      0.0010573        92.3885       0.271044         3.0898         2.9837         2.9630         3.0129       128.7434        55.5996      1385.4951
    1815.84600         6.0000         5.9198         2.4091      0.0030155        94.9537       0.276972         3.0157         2.9222         2.9084         2.9584       135.3366        55.5996      1374.8054
    1815.99840         6.0000         5.9132         2.4024      0.0049736        97.5188       0.282901         2.9415         2.8607         2.8537         2.9039       141.9298        55.5996      1364.1157
    1816.15080         6.0000         5.9474         2.4076      0.0113955        98.5015       0.281093         2.9915         2.8341         2.8225         2.8766       143.3023        55.5996      1367.0195
    1816.30320         6.0000         5.9820         2.4130      0.0178647        99.4674       0.279203         3.0427         2.8079         2.7915         2.8496       144.6195        55.5996      1370.0675
    1816.45560         6.0000         6.0167         2.4184      0.0243339       100.4333       0.277313         3.0940         2.7816         2.7605         2.8226       145.9367        55.5996      1373.1156
    1816.60800         6.0000         6.0157         2.4220      0.0278639        99.4755       0.281703         3.1146         2.7789         2.7551         2.8189       141.0724        55.5996      1389.1305
    1816.76040         6.0000         6.0000         2.4248      0.0301854        97.7269       0.288675         3.1225         2.7858         2.7603         2.8248       133.6669        55.5996      1410.4763
    1816.91280         6.0000         5.9843         2.4277      0.0325069        95.9783       0.295646         3.1304         2.7927         2.7654         2.8307       126.2614        55.5996      1431.8221
    1817.06520         6.0000         5.9700         2.4241      0.0311290        95.4221       0.297563         3.1220         2.7944         2.7670         2.8340       125.0881        55.5996      1435.5527
    1817.21760         6.0000         5.9575         2.4121      0.0248035        96.4606       0.292720         3.0919         2.7893         2.7640         2.8339       132.2501        55.5996      1415.7245
    1817.37000         6.0000         5.9450         2.4000      0.0184781        97.4992       0.287877         3.0617         2.7842         2.7609         2.8337       139.4120        55.5996      1395.8961
