~Version Information Block
VERS .                 2.00:  CWLS LOG ASCII STANDARD - VERSION 2.00
WRAP .                   NO:  One line per depth step
~Well Information Block
#MNEM.UNIT        Data Type   Information
#---------- ----------------  -----------
STRT .M           387.55320:  START DEPTH
STOP .M          1999.48800:  STOP DEPTH
STEP .M             0.15240:  STEP
NULL .              -999.25:  NULL VALUE
COMP .                     :  COMPANY
WELL .           Ngatoro-13:  WELL
FLD  .                     :  FIELD
LOC  .                     :  LOCATION
CTRY .                     :  COUNTRY
STAT .                     :  STATE
CNTY .                     :  COUNTY
SRVC .     Greymouth Petroleum Ltd:  SERVICE COMPANY
DATE .                     :  DATE
API  .                     :  API NUMBER
UWI  .         100000787699:  UNIQUE WELL ID
LATI .            -39.21139:  LATITUDE
LONG .            174.18349:  LONGITUDE
~Curve Information Block
#MNEM.UNIT         API CODE   Curve Description
#---------- ----------------  -----------------
DEPTH.M                    :  
BS   .IN                   :  Bit Size (Created in Geolog)
CALI .IN                   :  HRCC Cal. Caliper (HCAL)
DENS .G/C3                 :  HRDD Standard Resolution Formation Density (RHOZ) and (RHO8)
DRHO .G/C3                 :  HRDD Density Correction (HDRA)
DTC  .US/F                 :  Delta-T Compressional (DTCO)
DTS  .US/F                 :  Delta-T Shear (DTSM)
GR   .GAPI                 :  Gamma-Ray (GR) and HiRes Gamma-Ray (EHGR)
NEUT .V/V                  :  Enhanced Thermal Neutron Porosity(NPOR) and (HNPO)
PEF  .B/E                  :  HRDD Std Resolution Formation Photoelectric Factor (PEFZ) and (PEF8)
RESD .OHMM                 :  HALS Laterolog Deep R (HLLD) and HALS HiRes Deep Res (HRLD)
RESS .OHMM                 :  HALS Shallow Res. (HLLS) and HR HALS Shallow Res. (HRLS)
SP   .MV                   :  SP Shifted (SP)
TENS .KGF                  :  Cable Tension (TENS)
~Parameter Information Block
#MNEM.UNIT            Value   Description
#---------- ----------------  -----------
CUR_INT_BOT.M                2032:  Current interpolated bottom
PROJECT.     New Zealand Log QC Project:  
SET  .     A0_FINAL_INTER_REF_D:  
ELEVATION_AMSL.M              323.75:  Elevation above mean sea level
ELEVATION_REF.                   DF:  Measurement reference
FORMATION_AT_TD.                 Moki:  Formation at TD
GL_ELEVATION_AMSL.M            323.3000:  Ground level elevation above mean sea level
LICENCE_NUMBER.             PMP38148:  Licence number
ONSHORE_OR_OFFSHORE.              Onshore:  Onshore/offshore
PR_NUMBER.               PR3545:  Petroleum report number
SPUD_DATE.           28/10/2006:  Spud date
STATUS_AT_COMPLETION.     Completed ready for perforating:  Status at completion
TD_DATE.           10/11/2006:  Total depth date
TOTAL_DEPTH_DRILLED.M                2032:  Total depth drilled
~Other Information Block
# 
~A       DEPTH             BS           CALI           DENS           DRHO            DTC            DTS             GR           NEUT            PEF           RESD           RESS             SP           TENS 
# ...
    1154.27760         8.5000         8.5967         2.3699         0.0220       106.1062       203.1967       107.6548       0.336133         3.2031         2.5615         2.6828       202.5354      1103.8552
    1154.43000         8.5000         8.4488         2.3720         0.0282       106.6629       204.3151       106.0095       0.337685         3.1952         2.5850         2.7068       202.5051      1109.2549
    1154.58240         8.5000         8.3721         2.3731         0.0313       106.9737       204.6551       104.7495       0.341349         3.1831         2.5767         2.7038       202.3257      1109.8185
    1154.73480         8.5000         8.3561         2.3734         0.0319       107.0758       204.3337       103.8169       0.346807         3.1676         2.5414         2.6779       202.0197      1106.2739
    1154.88720         8.5000         8.3400         2.3738         0.0324       107.1778       204.0124       102.8842       0.352264         3.1520         2.5061         2.6519       201.7136      1102.7292
    1155.03960         8.5000         8.3313         2.3721         0.0322       107.0425       203.3510       103.0059       0.354179         3.1437         2.4799         2.6344       201.4713      1098.6332
    1155.19200         8.5000         8.3431         2.3646         0.0298       106.2310       201.7210       106.1308       0.346001         3.1562         2.4799         2.6410       201.4104      1092.9663
    1155.34440         8.5000         8.3550         2.3572         0.0274       105.4195       200.0909       109.2556       0.337824         3.1686         2.4798         2.6475       201.3495      1087.2996
    1155.49680         8.5000         8.3669         2.3497         0.0251       104.6080       198.4608       112.3805       0.329646         3.1810         2.4797         2.6541       201.2886      1081.6327
    1155.64920         8.5000         8.3911         2.3690         0.0209       103.2900       195.9456       109.8540       0.326574         3.1841         2.5225         2.7037       201.3880      1081.0968
    1155.80160         8.5000         8.4156         2.3889         0.0167       101.9612       193.4115       107.2063       0.323612         3.1871         2.5663         2.7543       201.4909      1080.6711
    1155.95400         8.5000         8.4400         2.4088         0.0125       100.6323       190.8773       104.5586       0.320650         3.1901         2.6100         2.8048       201.5938      1080.2454
    1156.10640         8.5000         8.5453         2.4060         0.0092       102.5115       191.9129       102.6449       0.310453         3.1931         2.8045         3.0067       201.8014      1086.7444
    1156.25880         8.5000         8.6856         2.3933         0.0061       105.7775       194.4918       101.0484       0.297128         3.1962         3.0642         3.2741       202.0544      1096.2373
    1156.41120         8.5000         8.8259         2.3806         0.0031       109.0436       197.0708        99.4520       0.283804         3.1993         3.3240         3.5415       202.3075      1105.7302
    1156.56360         8.5000         8.8726         2.3683         0.0027       110.7835       199.3944        99.7032       0.280625         3.1932         3.3513         3.5646       202.3929      1108.7604
    1156.71600         8.5000         8.7886         2.3567         0.0059       110.3927       201.3616       102.5342       0.291611         3.1745         3.0541         3.2465       202.2444      1102.7670
    1156.86840         8.5000         8.7047         2.3451         0.0092       110.0019       203.3288       105.3652       0.302597         3.1558         2.7569         2.9285       202.0959      1096.7734
    1157.02080         8.5000         8.6223         2.3357         0.0128       109.5646       205.1723       107.4092       0.312981         3.1436         2.5005         2.6537       201.9495      1091.8688
    1157.17320         8.5000         8.5503         2.3409         0.0186       108.8331       206.2338       104.4737       0.319556         3.1731         2.5023         2.6522       201.8163      1093.8529
    1157.32560         8.5000         8.4783         2.3462         0.0244       108.1016       207.2952       101.5383       0.326130         3.2027         2.5041         2.6508       201.6831      1095.8372
    1157.47800         8.5000         8.4062         2.3514         0.0303       107.3701       208.3567        98.6029       0.332704         3.2322         2.5059         2.6494       201.5498      1097.8213
    1157.63040         8.5000         8.3816         2.3500         0.0302       107.5048       208.4826       100.2453       0.325469         3.2388         2.4777         2.6052       201.6023      1099.6903
    1157.78280         8.5000         8.3649         2.3475         0.0291       107.7857       208.4507       102.6600       0.315905         3.2416         2.4444         2.5538       201.6861      1101.5400
    1157.93520         8.5000         8.3483         2.3449         0.0280       108.0665       208.4188       105.0748       0.306340         3.2445         2.4111         2.5025       201.7699      1103.3896
    1158.08760         8.5000         8.3667         2.3395         0.0246       108.2121       208.7814       106.6024       0.306960         3.2435         2.3961         2.4767       201.8883      1101.7205
    1158.24000         8.5000         8.4111         2.3318         0.0194       108.2575       209.4357       107.4737       0.315112         3.2398         2.3945         2.4698       202.0325      1097.4481
    1158.39240         8.5000         8.4554         2.3242         0.0142       108.3029       210.0901       108.3451       0.323265         3.2361         2.3930         2.4629       202.1766      1093.1758
    1158.54480         8.5000         8.5216         2.3188         0.0099       108.2538       210.4381       108.6262       0.328646         3.2229         2.3965         2.4620       202.2954      1091.8232
    1158.69720         8.5000         8.6403         2.3188         0.0079       107.9774       210.0504       107.4897       0.327368         3.1868         2.4123         2.4755       202.3533      1097.4830
    1158.84960         8.5000         8.7589         2.3188         0.0059       107.7011       209.6627       106.3532       0.326091         3.1507         2.4280         2.4891       202.4113      1103.1429
    1159.00200         8.5000         8.8745         2.3189         0.0040       107.4309       209.2699       105.2354       0.324862         3.1152         2.4435         2.5023       202.4628      1108.7382
    1159.15440         8.5000         8.7626         2.3256         0.0114       107.6273       208.4959       105.5269       0.327301         3.1265         2.4384         2.4976       202.0302      1109.4696
    1159.30680         8.5000         8.6506         2.3322         0.0189       107.8237       207.7218       105.8184       0.329740         3.1378         2.4333         2.4928       201.5976      1110.2010
    1159.45920         8.5000         8.5387         2.3389         0.0263       108.0201       206.9478       106.1098       0.332180         3.1491         2.4283         2.4881       201.1651      1110.9326
    1159.61160         8.5000         8.5192         2.3510         0.0289       107.4750       205.6279       106.5871       0.331234         3.1647         2.4465         2.5059       200.9024      1112.7336
    1159.76400         8.5000         8.5336         2.3651         0.0298       106.6587       204.1085       107.1324       0.329051         3.1820         2.4731         2.5320       200.7019      1114.9259
    1159.91640         8.5000         8.5479         2.3792         0.0307       105.8425       202.5891       107.6776       0.326867         3.1992         2.4998         2.5581       200.5014      1117.1180
    1160.06880         8.5000         8.5826         2.3866         0.0307       105.5869       202.2522       108.1167       0.325647         3.2156         2.5497         2.6102       200.5183      1119.2349
