~Version Information Block
VERS .                 2.00:  CWLS LOG ASCII STANDARD - VERSION 2.00
WRAP .                   NO:  One line per depth step
~Well Information Block
#MNEM.UNIT        Data Type   Information
#---------- ----------------  -----------
STRT .M             9.14400:  START DEPTH
STOP .M          1999.48800:  STOP DEPTH
STEP .M             0.15240:  STEP
NULL .              -999.25:  NULL VALUE
COMP .                     :  COMPANY
WELL .            Ngatoro-2:  WELL
FLD  .                     :  FIELD
LOC  .                     :  LOCATION
CTRY .                     :  COUNTRY
STAT .                     :  STATE
CNTY .                     :  COUNTY
SRVC .     New Zealand Petroleum Co Ltd:  SERVICE COMPANY
DATE .                     :  DATE
API  .                     :  API NUMBER
UWI  .         100000127958:  UNIQUE WELL ID
LATI .          -39.1949429:  LATITUDE
LONG .          174.1849215:  LONGITUDE
~Curve Information Block
#MNEM.UNIT         API CODE   Curve Description
#---------- ----------------  -----------------
DEPTH.M                    :  
BS   .IN                   :  Bit Size (Created in Geolog)
CALI .IN                   :  Caliper Log (CALI)
DENS .G/C3                 :  Compensated Formation Density Log (RHOB)
DRHO .G/C3                 :  Density Log Correction (DRHO)
DTC  .US/F                 :  Delta T (DT)
DTS  .US/F                 :  Delta T Shear Lower Dipole (DT1)
GR   .GAPI                 :  Gamma-Ray Raw (Reeves PSD) (GRCF)
GR_CORR.GAPI                 :  Gamma ray corrected
NEUT .V/V                  :  Neutron Log Porosity (NPHI)
NEUT_CORR.V/V                  :  Corrected NPHI (limestone units)
PEF  .B/E                  :  Photoelectric Factor (PEDF)
RESD .OHMM                 :  Laterolog Deep Resistivity (LLD)
RESD_CORR.OHMM                 :  Borehole corrected LLD
RESS .OHMM                 :  Shallow Laterolog (LLS)
RESS_CORR.OHMM                 :  Borehole corrected LLS
SP   .MV                   :  Spontaneous Potential Log (SP)
TEMP .DEGC                 :  Temperature (TEMP)
TENS .KGF                  :  Cable tension at surface (TENS)
~Parameter Information Block
#MNEM.UNIT            Value   Description
#---------- ----------------  -----------
CUR_INT_BOT.M                2000:  Current interpolated bottom
PROJECT.     New Zealand Log QC Project:  
SET  .     A0_FINAL_INTER_REF_D:  
ELEVATION_AMSL.M              294.94:  Elevation above mean sea level
ELEVATION_REF.                   KB:  Measurement reference
FORMATION_AT_TD.             Manganui:  Formation at TD
GL_ELEVATION_AMSL.M            286.3000:  Ground level elevation above mean sea level
LICENCE_NUMBER.             PPL38706:  Licence number
ONSHORE_OR_OFFSHORE.              Onshore:  Onshore/offshore
PR_NUMBER.               PR1920:  Petroleum report number
SPUD_DATE.           12/10/1991:  Spud date
STATUS_AT_COMPLETION.     Completed as an oil producer:  Status at completion
TD_DATE.           26/10/1991:  Total depth date
TOTAL_DEPTH_DRILLED.M                2000:  Total depth drilled
~Other Information Block
# 
~A       DEPTH             BS           CALI           DENS           DRHO            DTC            DTS             GR        GR_CORR           NEUT      NEUT_CORR            PEF           RESD      RESD_CORR           RESS      RESS_CORR             SP           TEMP           TENS 
# ...
    1463.19240         8.5000         8.6663         2.4604      0.0132715        89.7074        56.3779       124.7664       125.2026       0.268292       0.259977         3.3845         3.0876         3.1071         3.4383         3.4947       120.2056        54.8268       770.2734
    1463.34480         8.5000         8.6613         2.4583      0.0135916        89.6271        56.3379       122.1375       122.5331       0.272082       0.263734         3.3983         3.0857         3.1047         3.4358         3.4917       120.2781        54.8310       766.1399
    1463.49720         8.5000         8.6564         2.4563      0.0139116        89.5469        56.2978       119.5085       119.8635       0.275872       0.267492         3.4121         3.0837         3.1023         3.4333         3.4886       120.3506        54.8353       762.0063
    1463.64960         8.5000         8.6561         2.4499      0.0125860        89.3847        56.2969       116.5603       116.9047       0.279895       0.271393         3.3654         3.0496         3.0678         3.3861         3.4413       120.6971        54.8397       759.7883
    1463.80200         8.5000         8.6559         2.4434      0.0112295        89.2211        56.2967       113.6061       113.9406       0.283923       0.275297         3.3176         3.0149         3.0327         3.3382         3.3932       121.0486        54.8441       757.6060
    1463.95440         8.5000         8.6557         2.4369      0.0098731        89.0574        56.2964       110.6519       110.9764       0.287951       0.279201         3.2697         2.9802         2.9976         3.2902         3.3450       121.4002        54.8486       755.4238
    1464.10680         8.5000         8.6569         2.4343      0.0091714        89.0381        56.2968       111.5735       111.9083       0.290267       0.281419         3.2558         2.9503         2.9675         3.2521         3.3070       121.5066        54.8531       755.8054
    1464.25920         8.5000         8.6588         2.4334      0.0087493        89.0803        56.2973       114.1500       114.5037       0.291851       0.282917         3.2562         2.9224         2.9395         3.2183         3.2733       121.5084        54.8577       757.2816
    1464.41160         8.5000         8.6606         2.4324      0.0083271        89.1226        56.2979       116.7265       117.0990       0.293436       0.284416         3.2567         2.8945         2.9115         3.1845         3.2395       121.5101        54.8623       758.7578
    1464.56400         8.5000         8.6608         2.4325      0.0086571        89.1031        56.6168       118.0896       118.4670       0.291854       0.282882         3.2418         2.8763         2.8929         3.1627         3.2176       121.5909        54.8669       758.7242
    1464.71640         8.5000         8.6586         2.4340      0.0100259        88.9982        57.3754       117.7767       118.1397       0.285898       0.277159         3.2055         2.8713         2.8873         3.1573         3.2120       121.7808        54.8714       756.6055
    1464.86880         8.5000         8.6563         2.4355      0.0113947        88.8933        58.1341       117.4638       117.8123       0.279943       0.271436         3.1693         2.8663         2.8816         3.1519         3.2064       121.9706        54.8759       754.4866
    1465.02120         8.5000         8.6544         2.4364      0.0122861        88.8042        58.7030       117.2891       117.6251       0.275341       0.267019         3.1425         2.8605         2.8752         3.1459         3.2003       122.0460        54.8804       752.8929
    1465.17360         8.5000         8.6539         2.4330      0.0102228        88.8132        58.0979       117.9694       118.3044       0.279112       0.270680         3.1742         2.8491         2.8642         3.1364         3.1906       121.4128        54.8847       754.5489
    1465.32600         8.5000         8.6534         2.4295      0.0081595        88.8221        57.4928       118.6497       118.9837       0.282884       0.274342         3.2059         2.8377         2.8531         3.1269         3.1810       120.7795        54.8890       756.2048
    1465.47840         8.5000         8.6529         2.4261      0.0060962        88.8311        56.8877       119.3300       119.6630       0.286655       0.278003         3.2376         2.8264         2.8420         3.1173         3.1714       120.1463        54.8932       757.8608
    1465.63080         8.5000         8.6528         2.4257      0.0059153        88.8644        56.7088       118.2835       118.6130       0.292742       0.283900         3.2852         2.8336         2.8492         3.1252         3.1793       120.3131        54.8978       758.3942
    1465.78320         8.5000         8.6528         2.4258      0.0060452        88.9017        56.6003       116.9518       117.2774       0.299211       0.290167         3.3353         2.8438         2.8594         3.1359         3.1900       120.6121        54.9024       758.7422
    1465.93560         8.5000         8.6528         2.4259      0.0061752        88.9391        56.4919       115.6201       115.9418       0.305680       0.296433         3.3855         2.8541         2.8695         3.1466         3.2007       120.9111        54.9070       759.0903
    1466.08800         8.5000         8.6556         2.4263      0.0058280        89.1061        56.4290       115.8106       116.1502       0.310651       0.301189         3.3895         2.8599         2.8756         3.1489         3.2033       121.0161        54.9115       759.8978
    1466.24040         8.5000         8.6605         2.4270      0.0051317        89.3681        56.3996       117.1151       117.4886       0.314526       0.304838         3.3596         2.8624         2.8787         3.1452         3.2000       120.9792        54.9159       761.0414
    1466.39280         8.5000         8.6654         2.4276      0.0044354        89.6301        56.3702       118.4195       118.8269       0.318402       0.308487         3.3298         2.8650         2.8817         3.1414         3.1967       120.9423        54.9202       762.1851
    1466.54520         8.5000         8.6694         2.4283      0.0041318        89.8290        56.3448       119.6110       120.0468       0.324147       0.313964         3.3048         2.8686         2.8857         3.1427         3.1984       121.0045        54.9246       762.8432
    1466.69760         8.5000         8.6712         2.4288      0.0047599        89.8781        56.3290       120.5346       120.9857       0.334327       0.323777         3.2913         2.8747         2.8918         3.1559         3.2118       121.3018        54.9290       762.3496
    1466.85000         8.5000         8.6731         2.4294      0.0053879        89.9272        56.3131       121.4583       121.9246       0.344508       0.333589         3.2779         2.8808         2.8979         3.1691         3.2253       121.5991        54.9335       761.8560
    1467.00240         8.5000         8.6750         2.4300      0.0059995        89.9765        56.2982       122.3502       122.8315       0.354160       0.342892         3.2641         2.8869         2.9040         3.1821         3.2385       121.8927        54.9379       761.3725
    1467.15480         8.5000         8.6763         2.4320      0.0055866        90.0366        56.3426       121.2545       121.7396       0.330844       0.320309         3.2269         2.8892         2.9062         3.1807         3.2372       121.9584        54.9422       761.5159
    1467.30720         8.5000         8.6776         2.4340      0.0051737        90.0967        56.3870       120.1589       120.6478       0.307527       0.297727         3.1897         2.8915         2.9084         3.1793         3.2359       122.0242        54.9466       761.6593
    1467.45960         8.5000         8.6789         2.4360      0.0047609        90.1568        56.4313       119.0633       119.5560       0.284211       0.275145         3.1525         2.8937         2.9106         3.1779         3.2346       122.0899        54.9509       761.8027
