~Version Information Block
VERS .                 2.00:  CWLS LOG ASCII STANDARD - VERSION 2.00
WRAP .                   NO:  One line per depth step
~Well Information Block
#MNEM.UNIT        Data Type   Information
#---------- ----------------  -----------
STRT .M             9.14400:  START DEPTH
STOP .M          1999.48800:  STOP DEPTH
STEP .M             0.15240:  STEP
NULL .              -999.25:  NULL VALUE
COMP .                     :  COMPANY
WELL .            Ngatoro-2:  WELL
FLD  .                     :  FIELD
LOC  .                     :  LOCATION
CTRY .                     :  COUNTRY
STAT .                     :  STATE
CNTY .                     :  COUNTY
SRVC .     New Zealand Petroleum Co Ltd:  SERVICE COMPANY
DATE .                     :  DATE
API  .                     :  API NUMBER
UWI  .         100000127958:  UNIQUE WELL ID
LATI .          -39.1949429:  LATITUDE
LONG .          174.1849215:  LONGITUDE
~Curve Information Block
#MNEM.UNIT         API CODE   Curve Description
#---------- ----------------  -----------------
DEPTH.M                    :  
BS   .IN                   :  Bit Size (Created in Geolog)
CALI .IN                   :  Caliper Log (CALI)
DENS .G/C3                 :  Compensated Formation Density Log (RHOB)
DRHO .G/C3                 :  Density Log Correction (DRHO)
DTC  .US/F                 :  Delta T (DT)
DTS  .US/F                 :  Delta T Shear Lower Dipole (DT1)
GR   .GAPI                 :  Gamma-Ray Raw (Reeves PSD) (GRCF)
GR_CORR.GAPI                 :  Gamma ray corrected
NEUT .V/V                  :  Neutron Log Porosity (NPHI)
NEUT_CORR.V/V                  :  Corrected NPHI (limestone units)
PEF  .B/E                  :  Photoelectric Factor (PEDF)
RESD .OHMM                 :  Laterolog Deep Resistivity (LLD)
RESD_CORR.OHMM                 :  Borehole corrected LLD
RESS .OHMM                 :  Shallow Laterolog (LLS)
RESS_CORR.OHMM                 :  Borehole corrected LLS
SP   .MV                   :  Spontaneous Potential Log (SP)
TEMP .DEGC                 :  Temperature (TEMP)
TENS .KGF                  :  Cable tension at surface (TENS)
~Parameter Information Block
#MNEM.UNIT            Value   Description
#---------- ----------------  -----------
CUR_INT_BOT.M                2000:  Current interpolated bottom
PROJECT.     New Zealand Log QC Project:  
SET  .     A0_FINAL_INTER_REF_D:  
ELEVATION_AMSL.M              294.94:  Elevation above mean sea level
ELEVATION_REF.                   KB:  Measurement reference
FORMATION_AT_TD.             Manganui:  Formation at TD
GL_ELEVATION_AMSL.M            286.3000:  Ground level elevation above mean sea level
LICENCE_NUMBER.             PPL38706:  Licence number
ONSHORE_OR_OFFSHORE.              Onshore:  Onshore/offshore
PR_NUMBER.               PR1920:  Petroleum report number
SPUD_DATE.           12/10/1991:  Spud date
STATUS_AT_COMPLETION.     Completed as an oil producer:  Status at completion
TD_DATE.           26/10/1991:  Total depth date
TOTAL_DEPTH_DRILLED.M                2000:  Total depth drilled
~Other Information Block
# 
~A       DEPTH             BS           CALI           DENS           DRHO            DTC            DTS             GR        GR_CORR           NEUT      NEUT_CORR            PEF           RESD      RESD_CORR           RESS      RESS_CORR             SP           TEMP           TENS 
# ...
    1776.98400         8.5000         8.7366         2.5437      0.0064663      -999.2500      -999.2500       117.7592       118.3997       0.235602       0.227103         3.4513      -999.2500      -999.2500      -999.2500      -999.2500      -999.2500        62.3111       899.3398
    1777.13640         8.5000         8.7361         2.5473      0.0079266      -999.2500      -999.2500       123.8578       124.5279       0.226860       0.218714         3.4710      -999.2500      -999.2500      -999.2500      -999.2500      -999.2500        62.3571       898.9191
    1777.28880         8.5000         8.7364         2.5509      0.0096448      -999.2500      -999.2500       131.0321       131.7431       0.217157       0.209388         3.4855      -999.2500      -999.2500      -999.2500      -999.2500      -999.2500        62.4117       898.3408
    1777.44120         8.5000         8.7367         2.5545      0.0113631      -999.2500      -999.2500       138.2064       138.9583       0.207454       0.200062         3.5000      -999.2500      -999.2500      -999.2500      -999.2500      -999.2500        62.4664       897.7624
    1777.59360         8.5000         8.7367         2.5520      0.0111105      -999.2500      -999.2500       137.4694       138.2173       0.209263       0.201799         3.4983      -999.2500      -999.2500      -999.2500      -999.2500      -999.2500        62.4845       898.7343
    1777.74600         8.5000         8.7365         2.5457      0.0096197      -999.2500      -999.2500       131.7624       132.4783       0.218303       0.210487         3.4865      -999.2500      -999.2500      -999.2500      -999.2500      -999.2500        62.4798       900.6801
    1777.89840         8.5000         8.7364         2.5394      0.0081289      -999.2500      -999.2500       126.0555       126.7392       0.227342       0.219175         3.4747      -999.2500      -999.2500      -999.2500      -999.2500      -999.2500        62.4751       902.6259
    1778.05080         8.5000         8.7351         2.5355      0.0073967      -999.2500      -999.2500       122.8401       123.4981       0.232055       0.223722         3.4627      -999.2500      -999.2500      -999.2500      -999.2500      -999.2500        62.4683       902.9817
    1778.20320         8.5000         8.7317         2.5364      0.0081816      -999.2500      -999.2500       124.6080       125.2532       0.228114       0.219989         3.4502      -999.2500      -999.2500      -999.2500      -999.2500      -999.2500        62.4575       900.1574
    1778.35560         8.5000         8.7283         2.5373      0.0089665      -999.2500      -999.2500       126.3759       127.0082       0.224172       0.216257         3.4377      -999.2500      -999.2500      -999.2500      -999.2500      -999.2500        62.4468       897.3331
    1778.50800         8.5000         8.7250         2.5380      0.0096594      -999.2500      -999.2500       128.0749       128.6945       0.220545       0.212824         3.4274      -999.2500      -999.2500      -999.2500      -999.2500      -999.2500        62.4370       894.8292
    1778.66040         8.5000         8.7234         2.5349      0.0086934      -999.2500      -999.2500       128.5307       129.1418       0.222587       0.214815         3.4570      -999.2500      -999.2500      -999.2500      -999.2500      -999.2500        62.4453       898.1084
    1778.81280         8.5000         8.7218         2.5318      0.0077273      -999.2500      -999.2500       128.9865       129.5891       0.224630       0.216805         3.4865      -999.2500      -999.2500      -999.2500      -999.2500      -999.2500        62.4536       901.3877
    1778.96520         8.5000         8.7202         2.5287      0.0067613      -999.2500      -999.2500       129.4422       130.0364       0.226672       0.218796         3.5161      -999.2500      -999.2500      -999.2500      -999.2500      -999.2500        62.4619       904.6669
    1779.11760         8.5000         8.7199         2.5230      0.0071919      -999.2500      -999.2500       128.2823       128.8696       0.234134       0.225979         3.4810      -999.2500      -999.2500      -999.2500      -999.2500      -999.2500        62.4502       902.2451
    1779.27000         8.5000         8.7201         2.5165      0.0080360      -999.2500      -999.2500       126.6444       127.2252       0.243201       0.234699         3.4267      -999.2500      -999.2500      -999.2500      -999.2500      -999.2500        62.4326       898.1364
    1779.42240         8.5000         8.7202         2.5100      0.0088800      -999.2500      -999.2500       125.0064       125.5807       0.252268       0.243418         3.3725      -999.2500      -999.2500      -999.2500      -999.2500      -999.2500        62.4151       894.0275
    1779.57480         8.5000         8.7203         2.5024      0.0089881      -999.2500      -999.2500       123.2943       123.8614       0.254696       0.245753         3.3560      -999.2500      -999.2500      -999.2500      -999.2500      -999.2500        62.4062       893.8779
    1779.72720         8.5000         8.7203         2.4938      0.0083327      -999.2500      -999.2500       121.5055       122.0643       0.250237       0.241464         3.3787      -999.2500      -999.2500      -999.2500      -999.2500      -999.2500        62.4063       897.8358
    1779.87960         8.5000         8.7203         2.4852      0.0076773      -999.2500      -999.2500       119.7166       120.2672       0.245778       0.237175         3.4013      -999.2500      -999.2500      -999.2500      -999.2500      -999.2500        62.4065       901.7936
    1780.03200         8.5000         8.7203         2.4787      0.0071517      -999.2500      -999.2500       118.7166       119.2626       0.244464       0.235912         3.4195      -999.2500      -999.2500      -999.2500      -999.2500      -999.2500        62.4163       904.2016
    1780.18440         8.5000         8.7204         2.4804      0.0071144      -999.2500      -999.2500       120.6845       121.2397       0.254985       0.246035         3.4207      -999.2500      -999.2500      -999.2500      -999.2500      -999.2500        62.4623       900.7785
    1780.33680         8.5000         8.7204         2.4821      0.0070771      -999.2500      -999.2500       122.6524       123.2169       0.265506       0.256158         3.4219      -999.2500      -999.2500      -999.2500      -999.2500      -999.2500        62.5084       897.3555
    1780.48920         8.5000         8.7204         2.4837      0.0070398      -999.2500      -999.2500       124.6203       125.1940       0.276026       0.266281         3.4230      -999.2500      -999.2500      -999.2500      -999.2500      -999.2500        62.5544       893.9324
    1780.64160         8.5000         8.7204         2.4839      0.0071817      -999.2500      -999.2500       124.0123       124.5829       0.276620       0.266854         3.4304      -999.2500      -999.2500      -999.2500      -999.2500      -999.2500        62.5442       895.9499
    1780.79400         8.5000         8.7203         2.4840      0.0073373      -999.2500      -999.2500       123.2079       123.7743       0.276457       0.266699         3.4381      -999.2500      -999.2500      -999.2500      -999.2500      -999.2500        62.5296       898.3824
    1780.94640         8.5000         8.7202         2.4840      0.0074929      -999.2500      -999.2500       122.4034       122.9658       0.276293       0.266544         3.4459      -999.2500      -999.2500      -999.2500      -999.2500      -999.2500        62.5150       900.8148
    1781.09880         8.5000         8.7202         2.4836      0.0079218      -999.2500      -999.2500       119.9935       120.5444       0.278005       0.268193         3.4499      -999.2500      -999.2500      -999.2500      -999.2500      -999.2500        62.5097       901.8276
    1781.25120         8.5000         8.7201         2.4830      0.0084989      -999.2500      -999.2500       116.7125       117.2481       0.280735       0.270822         3.4518      -999.2500      -999.2500      -999.2500      -999.2500      -999.2500        62.5095       902.0701
