~Version Information Block
VERS .                 2.00:  CWLS LOG ASCII STANDARD - VERSION 2.00
WRAP .                   NO:  One line per depth step
~Well Information Block
#MNEM.UNIT        Data Type   Information
#---------- ----------------  -----------
STRT .M           535.07640:  START DEPTH
STOP .M          2419.95960:  STOP DEPTH
STEP .M             0.15240:  STEP
NULL .              -999.25:  NULL VALUE
COMP .                     :  COMPANY
WELL .            Ngatoro-3:  WELL
FLD  .                     :  FIELD
LOC  .                     :  LOCATION
CTRY .                     :  COUNTRY
STAT .                     :  STATE
CNTY .                     :  COUNTY
SRVC .     New Zealand Petroleum Co Ltd:  SERVICE COMPANY
DATE .                     :  DATE
API  .                     :  API NUMBER
UWI  .         100000158215:  UNIQUE WELL ID
LATI .          -39.1846093:  LATITUDE
LONG .          174.1883769:  LONGITUDE
~Curve Information Block
#MNEM.UNIT         API CODE   Curve Description
#---------- ----------------  -----------------
DEPTH.M                    :  
BS   .IN                   :  Bit Size (Created in Geolog)
CALI .IN                   :  Caliper Log (CALI)
DENS .G/C3                 :  Compensated Formation Density Log (RHOB)
DRHO .G/C3                 :  Density Log Correction (DRHO)
DTC  .US/F                 :  Delta T (DT)
GR   .GAPI                 :  Gamma-Ray Log (GR)
GR_CORR.GAPI                 :  Gamma ray corrected
NEUT .V/V                  :  Neutron Log Porosity (NPHI)
NEUT_CORR.V/V                  :  Corrected NPHI (limestone units)
PEF  .B/E                  :  Photoelectric Factor (PEDF)
RESD .OHMM                 :  Laterolog Deep Resistivity (LLD)
RESD_CORR.OHMM                 :  Borehole corrected LLD
RESS .OHMM                 :  Shallow Laterolog (LLS)
RESS_CORR.OHMM                 :  Borehole corrected LLS
SP   .MV                   :  Spontaneous Potential Log (SP)
TEMP .DEGC                 :  Temperature (TEMP)
TENS .KGF                  :  Cable tension at surface (TENS)
~Parameter Information Block
#MNEM.UNIT            Value   Description
#---------- ----------------  -----------
CUR_INT_BOT.M                2420:  Current interpolated bottom
PROJECT.     New Zealand Log QC Project:  
SET  .     A0_FINAL_INTER_REF_D:  
ELEVATION_AMSL.M              267.94:  Elevation above mean sea level
ELEVATION_REF.                   KB:  Measurement reference
FORMATION_AT_TD.             Manganui:  Formation at TD
GL_ELEVATION_AMSL.M            263.2000:  Ground level elevation above mean sea level
LICENCE_NUMBER.             PPL38706:  Licence number
ONSHORE_OR_OFFSHORE.              Onshore:  Onshore/offshore
PR_NUMBER.               PR1863:  Petroleum report number
SPUD_DATE.           14/01/1993:  Spud date
STATUS_AT_COMPLETION.     Suspended as a potential oil producer:  Status at completion
TD_DATE.           08/02/1993:  Total depth date
TOTAL_DEPTH_DRILLED.M                2420:  Total depth drilled
~Other Information Block
# 
~A       DEPTH             BS           CALI           DENS           DRHO            DTC             GR        GR_CORR           NEUT      NEUT_CORR            PEF           RESD      RESD_CORR           RESS      RESS_CORR             SP           TEMP           TENS 
# ...
    1906.67640         8.5000         8.7299         2.5594      0.0120587        81.0683       120.4145       121.4374       0.227738       0.222360         3.2938         5.4619         5.5030         6.0560         6.1258        67.1389        64.0319      1362.6084
    1906.82880         8.5000         8.7301         2.5556      0.0096950        80.8309       121.4818       122.5152       0.227518       0.222144         3.2994         5.4865         5.5278         6.0672         6.1371        67.3543        64.0235      1363.3212
    1906.98120         8.5000         8.7303         2.5517      0.0073313        80.5935       122.5492       123.5931       0.227297       0.221927         3.3050         5.5111         5.5525         6.0784         6.1484        67.5697        64.0150      1364.0341
    1907.13360         8.5000         8.7302         2.5497      0.0072909        80.4540       120.4850       121.5107       0.221433       0.216245         3.3047         5.5245         5.5659         6.0845         6.1545        67.8198        64.0195      1364.8589
    1907.28600         8.5000         8.7301         2.5480      0.0075775        80.3282       117.9801       118.9837       0.214775       0.209793         3.3036         5.5362         5.5777         6.0899         6.1598        68.0749        64.0257      1365.6996
    1907.43840         8.5000         8.7300         2.5462      0.0078641        80.2024       115.4752       116.4566       0.208117       0.203341         3.3025         5.5480         5.5894         6.0953         6.1651        68.3299        64.0319      1366.5403
    1907.59080         8.5000         8.7299         2.5458      0.0082488        80.0905       115.4304       116.4109       0.207692       0.202932         3.3153         5.5391         5.5805         6.0812         6.1510        68.4503        64.0374      1364.4409
    1907.74320         8.5000         8.7298         2.5462      0.0087002        79.9880       117.0545       118.0485       0.211498       0.206622         3.3375         5.5161         5.5574         6.0540         6.1237        68.4793        64.0422      1360.3469
    1907.89560         8.5000         8.7298         2.5466      0.0091515        79.8855       118.6786       119.6861       0.215303       0.210312         3.3597         5.4930         5.5343         6.0267         6.0964        68.5084        64.0471      1356.2531
    1908.04800         8.5000         8.7297         2.5470      0.0097211        79.8202       119.6727       120.6884       0.217233       0.212184         3.3714         5.4681         5.5093         5.9966         6.0662        68.3503        64.0534      1352.5233
    1908.20040         8.5000         8.7297         2.5472      0.0105481        79.8361       119.2966       120.3087       0.215086       0.210103         3.3602         5.4390         5.4801         5.9603         6.0298        67.7851        64.0631      1349.5858
    1908.35280         8.5000         8.7296         2.5475      0.0113750        79.8519       118.9204       119.9291       0.212938       0.208023         3.3491         5.4099         5.4509         5.9239         5.9933        67.2199        64.0727      1346.6483
    1908.50520         8.5000         8.7296         2.5477      0.0121728        79.8694       118.6019       119.6076       0.211037       0.206181         3.3396         5.3813         5.4222         5.8885         5.9578        66.6676        64.0818      1344.1350
    1908.65760         8.5000         8.7296         2.5474      0.0121457        79.9321       119.9151       120.9319       0.216102       0.211092         3.3795         5.3689         5.4098         5.8793         5.9486        66.4812        64.0766      1353.6290
    1908.81000         8.5000         8.7296         2.5470      0.0121187        79.9948       121.2283       122.2562       0.221167       0.216003         3.4193         5.3565         5.3973         5.8702         5.9395        66.2948        64.0715      1363.1230
    1908.96240         8.5000         8.7296         2.5467      0.0120916        80.0576       122.5415       123.5806       0.226232       0.220913         3.4592         5.3440         5.3848         5.8610         5.9303        66.1084        64.0664      1372.6171
    1909.11480         8.5000         8.7296         2.5442      0.0106243        80.3863       121.8558       122.8891       0.228109       0.222734         3.4456         5.3211         5.3617         5.8389         5.9081        65.9718        64.0662      1371.9786
    1909.26720         8.5000         8.7296         2.5409      0.0086852        80.8022       120.5154       121.5374       0.228941       0.223542         3.4144         5.2946         5.3352         5.8125         5.8817        65.8516        64.0676      1368.0214
    1909.41960         8.5000         8.7296         2.5376      0.0067462        81.2181       119.1751       120.1857       0.229774       0.224350         3.3833         5.2682         5.3087         5.7862         5.8553        65.7314        64.0690      1364.0642
    1909.57200         8.5000         8.7296         2.5361      0.0057762        81.5543       118.5199       119.5250       0.228489       0.223104         3.3861         5.2477         5.2881         5.7662         5.8353        65.6513        64.0657      1362.5369
    1909.72440         8.5000         8.7296         2.5366      0.0058884        81.8015       118.6298       119.6361       0.224838       0.219564         3.4270         5.2339         5.2743         5.7535         5.8225        65.6158        64.0572      1363.7228
    1909.87680         8.5000         8.7297         2.5371      0.0060007        82.0486       118.7397       119.7471       0.221187       0.216024         3.4678         5.2202         5.2605         5.7408         5.8097        65.5804        64.0488      1364.9087
    1910.02920         8.5000         8.7310         2.5379      0.0062020        82.2612       118.4812       119.4943       0.218042       0.212955         3.4922         5.2131         5.2535         5.7336         5.8029        65.6491        64.0441      1365.1946
    1910.18160         8.5000         8.7379         2.5399      0.0067791        82.3281       116.6682       117.7064       0.217033       0.211869         3.4472         5.2342         5.2753         5.7502         5.8210        66.1574        64.0554      1361.6826
    1910.33400         8.5000         8.7448         2.5420      0.0073563        82.3949       114.8553       115.9185       0.216024       0.210784         3.4023         5.2553         5.2971         5.7667         5.8391        66.6656        64.0667      1358.1705
    1910.48640         8.5000         8.7517         2.5441      0.0079334        82.4618       113.0424       114.1307       0.215015       0.209698         3.3574         5.2765         5.3188         5.7832         5.8572        67.1738        64.0779      1354.6586
    1910.63880         8.5000         8.7504         2.5495      0.0099649        82.0993       113.0204       114.1011       0.219020       0.213598         3.3645         5.3179         5.3603         5.8231         5.8969        67.0862        64.0824      1356.2875
    1910.79120         8.5000         8.7483         2.5553      0.0121388        81.6948       113.1738       114.2438       0.223516       0.217986         3.3767         5.3612         5.4036         5.8653         5.9387        66.9401        64.0862      1358.4199
    1910.94360         8.5000         8.7462         2.5610      0.0143127        81.2904       113.3273       114.3865       0.228012       0.222375         3.3889         5.4046         5.4470         5.9074         5.9805        66.7941        64.0900      1360.5525
    1911.09600         8.5000         8.7424         2.5639      0.0144707        80.7244       113.4405       114.4782       0.228173       0.222593         3.4487         5.4426         5.4848         5.9515         6.0238        66.9683        64.0902      1359.3265
