~Version Information Block
VERS .                 2.00:  CWLS LOG ASCII STANDARD - VERSION 2.00
WRAP .                   NO:  One line per depth step
~Well Information Block
#MNEM.UNIT        Data Type   Information
#---------- ----------------  -----------
STRT .M           387.55320:  START DEPTH
STOP .M          1999.48800:  STOP DEPTH
STEP .M             0.15240:  STEP
NULL .              -999.25:  NULL VALUE
COMP .                     :  COMPANY
WELL .           Ngatoro-13:  WELL
FLD  .                     :  FIELD
LOC  .                     :  LOCATION
CTRY .                     :  COUNTRY
STAT .                     :  STATE
CNTY .                     :  COUNTY
SRVC .     Greymouth Petroleum Ltd:  SERVICE COMPANY
DATE .                     :  DATE
API  .                     :  API NUMBER
UWI  .         100000787699:  UNIQUE WELL ID
LATI .            -39.21139:  LATITUDE
LONG .            174.18349:  LONGITUDE
~Curve Information Block
#MNEM.UNIT         API CODE   Curve Description
#---------- ----------------  -----------------
DEPTH.M                    :  
BS   .IN                   :  Bit Size (Created in Geolog)
CALI .IN                   :  HRCC Cal. Caliper (HCAL)
DENS .G/C3                 :  HRDD Standard Resolution Formation Density (RHOZ) and (RHO8)
DRHO .G/C3                 :  HRDD Density Correction (HDRA)
DTC  .US/F                 :  Delta-T Compressional (DTCO)
DTS  .US/F                 :  Delta-T Shear (DTSM)
GR   .GAPI                 :  Gamma-Ray (GR) and HiRes Gamma-Ray (EHGR)
NEUT .V/V                  :  Enhanced Thermal Neutron Porosity(NPOR) and (HNPO)
PEF  .B/E                  :  HRDD Std Resolution Formation Photoelectric Factor (PEFZ) and (PEF8)
RESD .OHMM                 :  HALS Laterolog Deep R (HLLD) and HALS HiRes Deep Res (HRLD)
RESS .OHMM                 :  HALS Shallow Res. (HLLS) and HR HALS Shallow Res. (HRLS)
SP   .MV                   :  SP Shifted (SP)
TENS .KGF                  :  Cable Tension (TENS)
~Parameter Information Block
#MNEM.UNIT            Value   Description
#---------- ----------------  -----------
CUR_INT_BOT.M                2032:  Current interpolated bottom
PROJECT.     New Zealand Log QC Project:  
SET  .     A0_FINAL_INTER_REF_D:  
ELEVATION_AMSL.M              323.75:  Elevation above mean sea level
ELEVATION_REF.                   DF:  Measurement reference
FORMATION_AT_TD.                 Moki:  Formation at TD
GL_ELEVATION_AMSL.M            323.3000:  Ground level elevation above mean sea level
LICENCE_NUMBER.             PMP38148:  Licence number
ONSHORE_OR_OFFSHORE.              Onshore:  Onshore/offshore
PR_NUMBER.               PR3545:  Petroleum report number
SPUD_DATE.           28/10/2006:  Spud date
STATUS_AT_COMPLETION.     Completed ready for perforating:  Status at completion
TD_DATE.           10/11/2006:  Total depth date
TOTAL_DEPTH_DRILLED.M                2032:  Total depth drilled
~Other Information Block
# 
~A       DEPTH             BS           CALI           DENS           DRHO            DTC            DTS             GR           NEUT            PEF           RESD           RESS             SP           TENS 
# ...
    1885.34040         8.5000         8.5254         2.3567         0.0099        97.9825       175.9162        96.2844       0.288249         2.9086         2.8948         3.0060       201.3558      1516.2332
    1885.49280         8.5000         8.5945         2.3531         0.0093        97.5323       176.2570        96.0012       0.295625         2.8982         2.8843         2.9867       200.8423      1520.2390
    1885.64520         8.5000         8.5853         2.3533         0.0173        97.7036       176.7825        96.8900       0.300526         2.9255         2.8990         2.9986       202.0790      1516.5542
    1885.79760         8.5000         8.5722         2.3536         0.0258        97.9056       177.3172        97.8369       0.305304         2.9546         2.9150         3.0120       203.4025      1512.4880
    1885.95000         8.5000         8.5592         2.3540         0.0342        98.1076       177.8519        98.7838       0.310082         2.9837         2.9310         3.0255       204.7260      1508.4218
    1886.10240         8.5000         8.5463         2.3580         0.0325        98.4640       178.4176        99.8944       0.308206         2.9957         2.8482         2.9493       204.7346      1508.1027
    1886.25480         8.5000         8.5336         2.3636         0.0258        98.8958       178.9985       101.0849       0.303081         2.9992         2.7173         2.8293       204.1014      1509.6133
    1886.40720         8.5000         8.5208         2.3693         0.0191        99.3276       179.5793       102.2754       0.297957         3.0028         2.5863         2.7094       203.4681      1511.1238
    1886.55960         8.5000         8.4936         2.3640         0.0137        99.5854       179.5052       101.7953       0.296601         2.9859         2.5012         2.6341       203.1181      1515.9772
    1886.71200         8.5000         8.4437         2.3415         0.0106        99.5722       178.4113        98.7142       0.301114         2.9370         2.4874         2.6286       203.2094      1526.0355
    1886.86440         8.5000         8.3939         2.3190         0.0074        99.5590       177.3174        95.6330       0.305627         2.8881         2.4737         2.6231       203.3006      1536.0939
    1887.01680         8.5000         8.3478         2.3007         0.0053        99.5023       176.1667        93.0299       0.309145         2.8495         2.4580         2.6162       203.3991      1543.6947
    1887.16920         8.5000         8.3315         2.3168         0.0124        99.0947       174.5571        94.2858       0.304632         2.8940         2.4269         2.5981       203.5554      1531.4594
    1887.32160         8.5000         8.3153         2.3329         0.0194        98.6872       172.9476        95.5417       0.300119         2.9384         2.3957         2.5800       203.7118      1519.2240
    1887.47400         8.5000         8.2991         2.3490         0.0264        98.2796       171.3380        96.7976       0.295606         2.9829         2.3645         2.5619       203.8681      1506.9886
    1887.62640         8.5000         8.3171         2.3593         0.0261        95.5516       167.7526        96.7888       0.297272         3.0184         2.5599         2.7739       203.8981      1503.9198
    1887.77880         8.5000         8.3421         2.3684         0.0243        92.3464       163.7607        96.5199       0.300209         3.0521         2.8018         3.0332       203.9021      1502.7365
    1887.93120         8.5000         8.3671         2.3776         0.0226        89.1412       159.7688        96.2510       0.303146         3.0858         3.0437         3.2925       203.9062      1501.5531
    1888.08360         8.5000         8.4187         2.4137         0.0211        87.9677       157.8801        94.9700       0.284002         3.1331         3.3093         3.5651       203.8079      1500.1914
    1888.23600         8.5000         8.4922         2.4720         0.0197        88.4664       157.7221        92.8561       0.246688         3.1916         3.5944         3.8487       203.6256      1498.6827
    1888.38840         8.5000         8.5656         2.5304         0.0184        88.9650       157.5641        90.7423       0.209373         3.2502         3.8794         4.1323       203.4432      1497.1742
    1888.54080         8.5000         8.6086         2.5513         0.0164        90.3102       158.9229        89.4087       0.189251         3.2506         4.0915         4.3374       203.3363      1498.9283
    1888.69320         8.5000         8.5682         2.4698         0.0123        93.9711       164.4306        90.2094       0.216156         3.0924         4.1043         4.3276       203.4358      1509.6071
    1888.84560         8.5000         8.5278         2.3883         0.0083        97.6319       169.9382        91.0101       0.243060         2.9341         4.1171         4.3179       203.5352      1520.2856
    1888.99800         8.5000         8.4874         2.3068         0.0043       101.2927       175.4458        91.8109       0.269964         2.7758         4.1298         4.3082       203.6347      1530.9644
    1889.15040         8.5000         8.4843         2.3185         0.0040       100.4602       177.2278        94.9536       0.273214         2.8437         3.5190         3.6973       203.8145      1523.7527
    1889.30280         8.5000         8.4817         2.3315         0.0038        99.5680       178.9603        98.1275       0.276149         2.9146         2.8999         3.0784       203.9953      1516.3032
    1889.45520         8.5000         8.4791         2.3444         0.0035        98.6757       180.6928       101.3014       0.279084         2.9854         2.2807         2.4596       204.1762      1508.8538
    1889.60760         8.5000         8.4405         2.3403         0.0018        98.5067       181.1675       102.5777       0.285341         2.9837         2.2390         2.4411       204.4368      1507.2292
    1889.76000         8.5000         8.3869         2.3290        -0.0006        98.6388       181.1184       103.0639       0.292982         2.9517         2.4376         2.6725       204.7305      1508.0302
    1889.91240         8.5000         8.3333         2.3178        -0.0031        98.7709       181.0694       103.5501       0.300622         2.9197         2.6362         2.9040       205.0242      1508.8311
    1890.06480         8.5000         8.2975         2.3157        -0.0028        98.3611       180.0101       102.3598       0.303908         2.9052         2.6657         2.9329       205.0936      1508.9391
    1890.21720         8.5000         8.2857         2.3258         0.0010        97.2187       177.5850        98.9029       0.301309         2.9142         2.4667         2.6880       204.8597      1508.1105
    1890.36960         8.5000         8.2740         2.3359         0.0048        96.0762       175.1599        95.4461       0.298709         2.9232         2.2678         2.4431       204.6258      1507.2819
    1890.52200         8.5000         8.2682         2.3468         0.0090        94.6999       172.6253        92.6949       0.295954         2.9382         2.1345         2.2686       204.4318      1507.2684
    1890.67440         8.5000         8.2973         2.3619         0.0154        91.9376       169.4423        94.1266       0.292278         2.9892         2.3907         2.5120       204.4740      1512.0867
    1890.82680         8.5000         8.3264         2.3770         0.0218        89.1754       166.2592        95.5582       0.288601         3.0403         2.6470         2.7555       204.5161      1516.9049
    1890.97920         8.5000         8.3555         2.3922         0.0282        86.4131       163.0761        96.9899       0.284925         3.0913         2.9032         2.9989       204.5583      1521.7231
    1891.13160         8.5000         8.3942         2.4081         0.0275        87.5363       164.6543        95.5351       0.264294         3.1223         3.2456         3.3118       204.8875      1517.8022
