~Version Information Block
VERS .                 2.00:  CWLS LOG ASCII STANDARD - VERSION 2.00
WRAP .                   NO:  One line per depth step
~Well Information Block
#MNEM.UNIT        Data Type   Information
#---------- ----------------  -----------
STRT .M           514.50240:  START DEPTH
STOP .M          1925.26920:  STOP DEPTH
STEP .M             0.15240:  STEP
NULL .              -999.25:  NULL VALUE
COMP .                     :  COMPANY
WELL .            Ngatoro-6:  WELL
FLD  .                     :  FIELD
LOC  .                     :  LOCATION
CTRY .                     :  COUNTRY
STAT .                     :  STATE
CNTY .                     :  COUNTY
SRVC .     New Zealand Petroleum Co Ltd:  SERVICE COMPANY
DATE .                     :  DATE
API  .                     :  API NUMBER
UWI  .         100000210185:  UNIQUE WELL ID
LATI .          -39.2039386:  LATITUDE
LONG .          174.1707675:  LONGITUDE
~Curve Information Block
#MNEM.UNIT         API CODE   Curve Description
#---------- ----------------  -----------------
DEPTH.M                    :  
BS   .IN                   :  Bit Size (Created in Geolog)
CALI .IN                   :  CALIPER (HCAL)
DENS .G/C3                 :  Bulk Density (RHOZ) and HR Bulk Density (RHO8)
DTC  .US/F                 :  Delta Time Compressional (DTCO)
DTS  .US/F                 :  Delta-T Shear (DTSM)
GR   .GAPI                 :  Gamma Ray (GR) and HR Gamma Ray (HGR)
NEUT .V/V                  :  Neutron Porosity (NPHI) and HR Neutron Porosity (HTNP)
NEUT_CORR.V/V                  :  Corrected NPHI (limestone units)
PEF  .B/E                  :  HRDD Std Resolution Formation Photoelectric Factor (PEFZ) and (PEF8)
RESD .OHMM                 :  HALS Deep Res. (HLLD) and HR HALS Deep Res. (HRLD)
RESS .OHMM                 :  HALS Shallow Res. (HLLS) and HR HALS Shallow Res. (HRLS)
SP   .MV                   :  Spontaneous Potential (SP)
~Parameter Information Block
#MNEM.UNIT            Value   Description
#---------- ----------------  -----------
CUR_INT_BOT.M                1930:  Current interpolated bottom
PROJECT.     New Zealand Log QC Project:  
SET  .     A0_FINAL_INTER_REF_D:  
ELEVATION_AMSL.M                 328:  Elevation above mean sea level
ELEVATION_REF.                   KB:  Measurement reference
FORMATION_AT_TD.      Mount Messenger:  Formation at TD
GL_ELEVATION_AMSL.M            322.5000:  Ground level elevation above mean sea level
LICENCE_NUMBER.             PPL38706:  Licence number
ONSHORE_OR_OFFSHORE.              Onshore:  Onshore/offshore
PR_NUMBER.               PR2214:  Petroleum report number
SPUD_DATE.           27/03/1996:  Spud date
STATUS_AT_COMPLETION.     Suspended with 7" casing cemented in place:  Status at completion
TD_DATE.           04/04/1996:  Total depth date
TOTAL_DEPTH_DRILLED.M                1930:  Total depth drilled
~Other Information Block
# 
~A       DEPTH             BS           CALI           DENS            DTC            DTS             GR           NEUT      NEUT_CORR            PEF           RESD           RESS             SP 
# ...
    1000.96320         8.5000         8.2023         2.3163      -999.2500      -999.2500       106.9033       0.304515       0.305612         3.1720         4.2198         3.9089       188.3806
    1001.11560         8.5000         8.2113         2.3146      -999.2500      -999.2500       106.1478       0.302676       0.303566         3.1719         4.2161         3.9062       188.3642
    1001.26800         8.5000         8.2140         2.3137      -999.2500      -999.2500       104.0006       0.298493       0.299226         3.1681         4.2132         3.9044       188.3824
    1001.42040         8.5000         8.2167         2.3128      -999.2500      -999.2500       101.8535       0.294310       0.294886         3.1642         4.2103         3.9026       188.4006
    1001.57280         8.5000         8.2229         2.3122      -999.2500      -999.2500       101.2306       0.289046       0.289023         3.1578         4.1969         3.8902       188.6323
    1001.72520         8.5000         8.2329         2.3118      -999.2500      -999.2500       102.2741       0.282600       0.281496         3.1485         4.1721         3.8661       189.0974
    1001.87760         8.5000         8.2429         2.3115      -999.2500      -999.2500       103.3177       0.276154       0.273969         3.1392         4.1472         3.8421       189.5625
    1002.03000         8.5000         8.2489         2.3105      -999.2500      -999.2500       104.1885       0.273313       0.270476         3.1333         4.1267         3.8222       189.9809
    1002.18240         8.5000         8.2387         2.3067      -999.2500      -999.2500       104.3546       0.285185       0.283441         3.1409         4.1236         3.8194       190.2084
    1002.33480         8.5000         8.2285         2.3030      -999.2500      -999.2500       104.5208       0.297056       0.296406         3.1486         4.1204         3.8166       190.4359
    1002.48720         8.5000         8.2183         2.2993      -999.2500      -999.2500       104.6869       0.308928       0.309371         3.1562         4.1173         3.8138       190.6634
    1002.63960         8.5000         8.2100         2.3041      -999.2500      -999.2500       105.6829       0.314661       0.315071         3.1562         4.1502         3.8440       190.8184
    1002.79200         8.5000         8.2020         2.3096      -999.2500      -999.2500       106.7551       0.319832       0.320104         3.1556         4.1865         3.8772       190.9668
    1002.94440         8.5000         8.1939         2.3152      -999.2500      -999.2500       107.8272       0.325003       0.325138         3.1549         4.2228         3.9103       191.1152
    1003.09680         8.5000         8.1943         2.3184      -999.2500      -999.2500       106.8352       0.324617       0.324527         3.1623         4.2498         3.9360       191.2178
    1003.24920         8.5000         8.1995         2.3202      -999.2500      -999.2500       104.6576       0.321038       0.320674         3.1742         4.2716         3.9574       191.2941
    1003.40160         8.5000         8.2047         2.3221      -999.2500      -999.2500       102.4800       0.317459       0.316822         3.1861         4.2933         3.9788       191.3704
    1003.55400         8.5000         8.2124         2.3239      -999.2500      -999.2500       100.8398       0.312957       0.312406         3.1913         4.3019         3.9880       191.3427
    1003.70640         8.5000         8.2246         2.3258      -999.2500      -999.2500       100.1789       0.306773       0.306966         3.1842         4.2864         3.9749       191.1252
    1003.85880         8.5000         8.2369         2.3276      -999.2500      -999.2500        99.5180       0.300588       0.301525         3.1771         4.2709         3.9618       190.9077
    1004.01120         8.5000         8.2483         2.3290      -999.2500      -999.2500        99.0325       0.295134       0.296725         3.1702         4.2547         3.9483       190.7017
    1004.16360         8.5000         8.2500         2.3240      -999.2500      -999.2500       100.7583       0.298887       0.299991         3.1663         4.2305         3.9284       190.6397
    1004.31600         8.5000         8.2516         2.3191      -999.2500      -999.2500       102.4842       0.302640       0.303258         3.1623         4.2063         3.9086       190.5777
    1004.46840         8.5000         8.2533         2.3141      -999.2500      -999.2500       104.2100       0.306393       0.306524         3.1583         4.1820         3.8888       190.5156
    1004.62080         8.5000         8.2634         2.3179      -999.2500      -999.2500       104.1221       0.309125       0.308841         3.1770         4.2002         3.9094       190.5720
    1004.77320         8.5000         8.2758         2.3240      -999.2500      -999.2500       103.5598       0.311590       0.310909         3.2016         4.2295         3.9404       190.6594
    1004.92560         8.5000         8.2881         2.3301      -999.2500      -999.2500       102.9974       0.314055       0.312978         3.2262         4.2588         3.9715       190.7467
    1005.07800         8.5000         8.2981         2.3327      -999.2500      -999.2500       104.0129       0.313472       0.312461         3.2507         4.2708         3.9852       190.8682
    1005.23040         8.5000         8.3057         2.3319      -999.2500      -999.2500       106.5334       0.309981       0.309477         3.2750         4.2663         3.9824       191.0221
    1005.38280         8.5000         8.3134         2.3311      -999.2500      -999.2500       109.0540       0.306490       0.306494         3.2993         4.2618         3.9795       191.1760
    1005.53520         8.5000         8.3131         2.3305      -999.2500      -999.2500       110.0787       0.306694       0.306976         3.3136         4.2542         3.9737       191.2834
    1005.68760         8.5000         8.2864         2.3304      -999.2500      -999.2500       106.1229       0.319200       0.318995         3.2950         4.2363         3.9581       191.2356
    1005.84000         8.5000         8.2598         2.3304      -999.2500      -999.2500       102.1671       0.331707       0.331014         3.2764         4.2184         3.9425       191.1879
    1005.99240         8.5000         8.2332         2.3304      -999.2500      -999.2500        98.2113       0.344214       0.343033         3.2577         4.2005         3.9269       191.1401
    1006.14480         8.5000         8.2279         2.3287      -999.2500      -999.2500        98.8865       0.337692       0.336625         3.2404         4.2004         3.9298       191.1575
    1006.29720         8.5000         8.2238         2.3269      -999.2500      -999.2500        99.8047       0.330172       0.329249         3.2231         4.2013         3.9338       191.1784
    1006.44960         8.5000         8.2196         2.3251      -999.2500      -999.2500       100.7230       0.322652       0.321873         3.2059         4.2022         3.9377       191.1992
    1006.60200         8.5000         8.2177         2.3234      -999.2500      -999.2500       101.5827       0.321059       0.320406         3.1972         4.2100         3.9515       191.0501
    1006.75440         8.5000         8.2168         2.3217      -999.2500      -999.2500       102.4136       0.322394       0.321857         3.1927         4.2211         3.9701       190.8171
    1006.90680         8.5000         8.2159         2.3201      -999.2500      -999.2500       103.2445       0.323729       0.323309         3.1882         4.2322         3.9888       190.5841
    1007.05920         8.5000         8.2134         2.3193      -999.2500      -999.2500       103.7820       0.324936       0.324626         3.1801         4.2488         4.0183       190.2812
    1007.21160         8.5000         8.2082         2.3199      -999.2500      -999.2500       103.8577       0.325941       0.325730         3.1665         4.2741         4.0650       189.8682
