~Version Information Block
VERS .                 2.00:  CWLS LOG ASCII STANDARD - VERSION 2.00
WRAP .                   NO:  One line per depth step
~Well Information Block
#MNEM.UNIT        Data Type   Information
#---------- ----------------  -----------
STRT .M           530.50440:  START DEPTH
STOP .M          1878.48240:  STOP DEPTH
STEP .M             0.15240:  STEP
NULL .              -999.25:  NULL VALUE
COMP .                     :  COMPANY
WELL .            Ngatoro-7:  WELL
FLD  .                     :  FIELD
LOC  .                     :  LOCATION
CTRY .                     :  COUNTRY
STAT .                     :  STATE
CNTY .                     :  COUNTY
SRVC .     New Zealand Petroleum Co Ltd:  SERVICE COMPANY
DATE .                     :  DATE
API  .                     :  API NUMBER
UWI  .         100000210191:  UNIQUE WELL ID
LATI .          -39.2039075:  LATITUDE
LONG .          174.1707218:  LONGITUDE
~Curve Information Block
#MNEM.UNIT         API CODE   Curve Description
#---------- ----------------  -----------------
DEPTH.M                    :  
BS   .IN                   :  Bit Size (Created in Geolog)
CALI .IN                   :  Caliper (HCAL)
DENS .G/C3                 :  Bulk Density (RHOZ) and HR Bulk Density (RHO8)
DTC  .US/F                 :  Delta Time (DTC)
GR   .GAPI                 :  Gamma Ray (GR) and HR Gamma Ray (HGR)
NEUT .V/V                  :  Neutron Porosity (NPHI) and HR Neutron Porosity (HTNP)
NEUT_CORR.V/V                  :  Corrected NPHI (limestone units)
PEF  .B/E                  :  HRDD Std Resolution Formation Photoelectric Factor (PEFZ) and (PEF8)
RESD .OHMM                 :  HALS Deep Res. (HLLD) and HR HALS Deep Res. (HRLD)
RESS .OHMM                 :  HALS Shallow Res. (HLLS) and HR HALS Shallow Res. (HRLS)
SP   .MV                   :  Spontaneous Potential (SP)
~Parameter Information Block
#MNEM.UNIT            Value   Description
#---------- ----------------  -----------
CUR_INT_BOT.M                1879:  Current interpolated bottom
PROJECT.     New Zealand Log QC Project:  
SET  .     A0_FINAL_INTER_REF_D:  
ELEVATION_AMSL.M                 327:  Elevation above mean sea level
ELEVATION_REF.                   KB:  Measurement reference
FORMATION_AT_TD.      Mount Messenger:  Formation at TD
GL_ELEVATION_AMSL.M            321.4000:  Ground level elevation above mean sea level
LICENCE_NUMBER.             PPL38706:  Licence number
ONSHORE_OR_OFFSHORE.              Onshore:  Onshore/offshore
PR_NUMBER.               PR2215:  Petroleum report number
SPUD_DATE.           09/04/1996:  Spud date
STATUS_AT_COMPLETION.     Suspended with 7" casing cemented in place:  Status at completion
TD_DATE.           18/04/1996:  Total depth date
TOTAL_DEPTH_DRILLED.M                1879:  Total depth drilled
~Other Information Block
# 
~A       DEPTH             BS           CALI           DENS            DTC             GR           NEUT      NEUT_CORR            PEF           RESD           RESS             SP 
# ...
     729.38640         8.5000         8.7072         2.1479      -999.2500        62.8793       0.334544       0.331880         2.7016        26.7485        17.8653       175.7971
     729.53880         8.5000         8.6690         2.1472      -999.2500        62.5970       0.330840       0.328425         2.6926        26.4342        17.6711       175.6829
     729.69120         8.5000         8.6697         2.1512      -999.2500        63.0317       0.331236       0.328961         2.6793        26.4669        17.7070       176.1576
     729.84360         8.5000         8.6704         2.1553      -999.2500        63.4663       0.331633       0.329496         2.6660        26.4996        17.7429       176.6323
     729.99600         8.5000         8.6711         2.1593      -999.2500        63.9009       0.332029       0.330032         2.6527        26.5323        17.7787       177.1070
     730.14840         8.5000         8.6493         2.1610      -999.2500        66.6504       0.336478       0.333645         2.6979        26.0332        17.3680       177.3241
     730.30080         8.5000         8.6269         2.1628      -999.2500        69.4623       0.341036       0.337342         2.7446        25.5198        16.9453       177.5342
     730.45320         8.5000         8.6045         2.1645      -999.2500        72.2742       0.345594       0.341038         2.7914        25.0065        16.5225       177.7444
     730.60560         8.5000         8.6291         2.1921      -999.2500        74.2274       0.323249       0.318049         2.8609        25.2452        16.6768       177.8952
     730.75800         8.5000         8.6745         2.2311      -999.2500        75.8001       0.288981       0.283233         2.9406        25.8171        17.0867       178.0197
     730.91040         8.5000         8.7198         2.2702      -999.2500        77.3727       0.254713       0.248417         3.0203        26.3891        17.4967       178.1441
     731.06280         8.5000         8.7555         2.2919      -999.2500        79.9527       0.247374       0.241081         3.0797        26.3903        17.5483       178.3326
     731.21520         8.5000         8.7773         2.2889      -999.2500        83.9699       0.278459       0.272952         3.1099        25.5770        17.0884       178.6125
     731.36760         8.5000         8.7992         2.2859      -999.2500        87.9872       0.309543       0.304824         3.1402        24.7638        16.6286       178.8923
     731.52000         8.5000         8.8240         2.2806      -999.2500        91.3765       0.336698       0.332677         3.1602        23.8821        16.1545       179.1590
     731.67240         8.5000         8.8689         2.2603      -999.2500        90.6092       0.337838       0.333932         3.1120        22.5471        15.5859       179.3393
     731.82480         8.5000         8.9138         2.2401      -999.2500        89.8420       0.338979       0.335187         3.0637        21.2122        15.0173       179.5197
     731.97720         8.5000         8.9587         2.2198      -999.2500        89.0747       0.340120       0.336442         3.0155        19.8772        14.4487       179.7000
     732.12960         8.5000         8.9870         2.2180      -999.2500        88.3197       0.339906       0.336233         3.0133        20.2269        14.8152       179.3782
     732.28200         8.5000         9.0123         2.2194      -999.2500        87.5668       0.339454       0.335767         3.0192        20.8729        15.3462       178.9681
     732.43440         8.5000         9.0377         2.2207      -999.2500        86.8139       0.339003       0.335302         3.0251        21.5189        15.8773       178.5580
     732.58680         8.5000         9.0272         2.2183      -999.2500        85.8045       0.341707       0.337747         3.0381        21.4909        15.8087       178.1530
     732.73920         8.5000         8.9897         2.2129      -999.2500        84.6012       0.346798       0.342391         3.0564        20.9535        15.2871       177.7520
     732.89160         8.5000         8.9522         2.2076      -999.2500        83.3980       0.351888       0.347036         3.0748        20.4161        14.7655       177.3510
     733.04400         8.5000         8.9238         2.2051      -999.2500        82.9422       0.352754       0.347680         3.0885        20.0012        14.3555       176.9821
     733.19640         8.5000         8.9180         2.2096      -999.2500        84.3281       0.343214       0.338465         3.0907        19.8881        14.2209       176.6925
     733.34880         8.5000         8.9122         2.2141      -999.2500        85.7140       0.333675       0.329249         3.0929        19.7751        14.0862       176.4029
     733.50120         8.5000         8.9064         2.2187      -999.2500        87.0960       0.324278       0.320171         3.0952        19.6661        13.9540       176.1114
     733.65360         8.5000         8.8978         2.2294      -999.2500        87.9806       0.332838       0.328266         3.1077        20.0792        14.1280       175.5835
     733.80600         8.5000         8.8893         2.2402      -999.2500        88.8652       0.341399       0.336362         3.1203        20.4922        14.3020       175.0557
     733.95840         8.5000         8.8807         2.2509      -999.2500        89.7498       0.349959       0.344458         3.1328        20.9052        14.4760       174.5279
     734.11080         8.5000         8.8577         2.2478      -999.2500        89.2659       0.346070       0.340837         3.1204        20.5683        14.2100       174.0508
     734.26320         8.5000         8.8293         2.2395      -999.2500        88.2682       0.337506       0.332817         3.0987        19.9499        13.7789       173.5928
     734.41560         8.5000         8.8009         2.2311      -999.2500        87.2705       0.328942       0.324797         3.0770        19.3315        13.3478       173.1348
     734.56800         8.5000         8.8054         2.2255      -999.2500        86.3618       0.326406       0.322322         3.0526        18.9056        13.0471       172.8130
     734.72040         8.5000         8.8510         2.2232      -999.2500        85.5636       0.331351       0.326730         3.0249        18.7189        12.9083       172.6603
     734.87280         8.5000         8.8965         2.2210      -999.2500        84.7654       0.336295       0.331139         2.9972        18.5321        12.7695       172.5076
     735.02520         8.5000         8.9412         2.2193      -999.2500        84.0221       0.340387       0.334899         2.9736        18.4025        12.6550       172.3795
     735.17760         8.5000         8.9815         2.2205      -999.2500        83.5559       0.340172       0.335390         2.9707        18.5612        12.6630       172.3755
     735.33000         8.5000         9.0217         2.2217      -999.2500        83.0897       0.339958       0.335880         2.9679        18.7199        12.6710       172.3715
     735.48240         8.5000         9.0620         2.2229      -999.2500        82.6235       0.339743       0.336371         2.9650        18.8785        12.6790       172.3675
     735.63480         8.5000         9.0700         2.2217      -999.2500        84.2317       0.335114       0.331400         2.9957        18.9648        12.6953       171.9275
     735.78720         8.5000         9.0737         2.2201      -999.2500        86.1107       0.329908       0.325715         3.0309        19.0417        12.7126       171.4306
     735.93960         8.5000         9.0774         2.2185      -999.2500        87.9898       0.324703       0.320031         3.0661        19.1186        12.7300       170.9337
     736.09200         8.5000         9.0919         2.2163      -999.2500        88.0361       0.325944       0.321197         3.0791        19.2295        12.7585       170.3354
