~Version Information Block
VERS .                 2.00:  CWLS LOG ASCII STANDARD - VERSION 2.00
WRAP .                   NO:  One line per depth step
~Well Information Block
#MNEM.UNIT        Data Type   Information
#---------- ----------------  -----------
STRT .M           422.60520:  START DEPTH
STOP .M          2060.90520:  STOP DEPTH
STEP .M             0.15240:  STEP
NULL .              -999.25:  NULL VALUE
COMP .                     :  COMPANY
WELL .           Ngatoro-11:  WELL
FLD  .                     :  FIELD
LOC  .                     :  LOCATION
CTRY .                     :  COUNTRY
STAT .                     :  STATE
CNTY .                     :  COUNTY
SRVC .     New Zealand Petroleum Co Ltd:  SERVICE COMPANY
DATE .                     :  DATE
API  .                     :  API NUMBER
UWI  .         100000290650:  UNIQUE WELL ID
LATI .          -39.1949222:  LATITUDE
LONG .          174.1848583:  LONGITUDE
~Curve Information Block
#MNEM.UNIT         API CODE   Curve Description
#---------- ----------------  -----------------
DEPTH.M                    :  
BS   .IN                   :  Bit Size (Created in Geolog)
CALI .IN                   :  Caliper Log (CALI)
DENS .G/C3                 :  Compensated Formation Density Log (RHOB)
DRHO .G/C3                 :  Density Log Correction (DRHO)
DTC  .US/F                 :  8-10 Ft Compensated Sonic (BPB) (DTC3)
GR   .GAPI                 :  Gamma-Ray Log (GR)
GR_CORR.GAPI                 :  Gamma ray corrected
NEUT .V/V                  :  Neutron Log Porosity (NPHI)
NEUT_CORR.V/V                  :  Corrected NPHI (limestone units)
PEF  .B/E                  :  Photoelectric Factor (PEDF)
RESD .OHMM                 :  Laterolog Deep Resistivity (LLD)
RESD_CORR.OHMM                 :  Borehole corrected LLD
RESS .OHMM                 :  Shallow Laterolog (LLS)
RESS_CORR.OHMM                 :  Borehole corrected LLS
SP   .MV                   :  Spontaneous Potential Log (SP)
TENS .KGF                  :  Cable tension at surface (TENS)
~Parameter Information Block
#MNEM.UNIT            Value   Description
#---------- ----------------  -----------
CUR_INT_BOT.M                2063:  Current interpolated bottom
PROJECT.     New Zealand Log QC Project:  
SET  .     A0_FINAL_INTER_REF_D:  
ELEVATION_AMSL.M              291.65:  Elevation above mean sea level
ELEVATION_REF.                   KB:  Measurement reference
FORMATION_AT_TD.      Mount Messenger:  Formation at TD
GL_ELEVATION_AMSL.M            286.3000:  Ground level elevation above mean sea level
LICENCE_NUMBER.             PMP38148:  Licence number
ONSHORE_OR_OFFSHORE.              Onshore:  Onshore/offshore
PR_NUMBER.               PR2438:  Petroleum report number
SPUD_DATE.           28/06/1998:  Spud date
STATUS_AT_COMPLETION.     Cased and suspended as a future oil producer:  Status at completion
TD_DATE.           15/07/1998:  Total depth date
TOTAL_DEPTH_DRILLED.M                2063:  Total depth drilled
~Other Information Block
# 
~A       DEPTH             BS           CALI           DENS           DRHO            DTC             GR        GR_CORR           NEUT      NEUT_CORR            PEF           RESD      RESD_CORR           RESS      RESS_CORR             SP           TENS 
     422.60520         8.5000      -999.2500      -999.2500       0.037692       124.1017       103.2995      -999.2500       0.427951    -999.250000         2.5965        14.7634      -999.2500         8.9633      -999.2500       195.5935       884.2354
     422.75760         8.5000      -999.2500      -999.2500       0.031289       124.0868       105.9864      -999.2500       0.432321    -999.250000         2.5884        14.3162      -999.2500         8.8543      -999.2500       195.4232       882.8313
     422.91000         8.5000      -999.2500      -999.2500       0.024885       124.0719       108.6733      -999.2500       0.436692    -999.250000         2.5804        13.8690      -999.2500         8.7454      -999.2500       195.2529       881.4272
     423.06240         8.5000      -999.2500      -999.2500       0.022927       124.4867       110.6267      -999.2500       0.427951    -999.250000         2.6041        13.6509      -999.2500         8.7237      -999.2500       195.4627       881.6232
     423.21480         8.5000      -999.2500      -999.2500       0.027380       125.5214       111.5224      -999.2500       0.400298    -999.250000         2.6737        13.7634      -999.2500         8.8280      -999.2500       196.2206       884.1271
     423.36720         8.5000      -999.2500      -999.2500       0.031833       126.5560       112.4180      -999.2500       0.372646    -999.250000         2.7433        13.8758      -999.2500         8.9322      -999.2500       196.9786       886.6309
     423.51960         8.5000      -999.2500      -999.2500       0.035210       127.4728       112.7846      -999.2500       0.348873    -999.250000         2.7982        13.9869      -999.2500         9.0316      -999.2500       197.5659       888.7322
     423.67200         8.5000      -999.2500      -999.2500       0.031296       127.5905       109.5672      -999.2500       0.351388    -999.250000         2.7539        14.0891      -999.2500         9.0981      -999.2500       196.9968       888.1057
     423.82440         8.5000      -999.2500      -999.2500       0.027383       127.7083       106.3497      -999.2500       0.353904    -999.250000         2.7095        14.1913      -999.2500         9.1647      -999.2500       196.4278       887.4792
     423.97680         8.5000      -999.2500      -999.2500       0.023469       127.8260       103.1323      -999.2500       0.356420    -999.250000         2.6652        14.2934      -999.2500         9.2312      -999.2500       195.8588       886.8528
     424.12920         8.5000      -999.2500      -999.2500       0.025192       127.1811       102.3330      -999.2500       0.362769    -999.250000         2.6468        14.2091      -999.2500         9.2347      -999.2500       195.6937       884.9094
     424.28160         8.5000      -999.2500      -999.2500       0.027926       126.3992       101.9680      -999.2500       0.369807    -999.250000         2.6332        14.0912      -999.2500         9.2268      -999.2500       195.6012       882.7296
     424.43400         8.5000      -999.2500      -999.2500       0.030661       125.6173       101.6029      -999.2500       0.376844    -999.250000         2.6195        13.9733      -999.2500         9.2189      -999.2500       195.5087       880.5499
     424.58640         8.5000      -999.2500      -999.2500       0.029630       125.0618       102.4935      -999.2500       0.386717    -999.250000         2.6357        13.9166      -999.2500         9.2112      -999.2500       195.5396       879.7515
     424.73880         8.5000      -999.2500      -999.2500       0.025722       124.6793       104.3432      -999.2500       0.398755    -999.250000         2.6746        13.9066      -999.2500         9.2037      -999.2500       195.6647       880.0084
     424.89120         8.5000      -999.2500      -999.2500       0.021814       124.2968       106.1929      -999.2500       0.410794    -999.250000         2.7135        13.8966      -999.2500         9.1961      -999.2500       195.7898       880.2654
     425.04360         8.5000         9.1598      -999.2500       0.020195       124.1419       107.1257       110.7876       0.415152       0.386953         2.7307        13.8452        14.0107         9.1662         9.4351       195.8116       880.8026
     425.19600         8.5000         9.1913      -999.2500       0.024284       124.5550       105.7706       109.5533       0.400346       0.372358         2.6936        13.6905        13.8615         9.0807         9.3578       195.5755       882.0393
     425.34840         8.5000         9.2229      -999.2500       0.028374       124.9682       104.4155       108.3190       0.385540       0.357763         2.6564        13.5357        13.7123         8.9952         9.2806       195.3394       883.2761
     425.50080         8.5000         9.2541         2.2291       0.032403       125.3869       103.0694       107.0919       0.370751       0.343193         2.6194        13.3808        13.5628         8.9096         9.2032       195.1044       884.4929
     425.65320         8.5000         9.2120         2.2265       0.025027       126.8776       103.4147       107.2273       0.359286       0.333365         2.6071        13.1917        13.3651         8.8272         9.1053       195.0625       881.9515
     425.80560         8.5000         9.1699         2.2239       0.017651       128.3683       103.7601       107.3627       0.347821       0.323537         2.5947        13.0027        13.1674         8.7448         9.0075       195.0206       879.4100
     425.95800         8.5000         9.1277         2.2213       0.010275       129.8589       104.1055       107.4981       0.336356       0.313708         2.5824        12.8136        12.9697         8.6624         8.9097       194.9787       876.8685
     426.11040         8.5000         9.1013         2.2227       0.010361       129.5447       105.7597       109.0591       0.347470       0.324781         2.5953        12.8232        12.9743         8.6757         8.9148       195.0866       876.4174
     426.26280         8.5000         9.0809         2.2255       0.013285       128.5439       107.9117       111.1625       0.367175       0.343804         2.6179        12.9084        13.0560         8.7254         8.9591       195.2514       876.7614
     426.41520         8.5000         9.0604         2.2284       0.016210       127.5431       110.0637       113.2659       0.386880       0.362828         2.6405        12.9936        13.1377         8.7751         9.0034       195.4163       877.1053
     426.56760         8.5000         9.0498         2.2299       0.016414       126.8032       110.7491       113.9135       0.384095       0.360427         2.6589        13.0269        13.1691         8.7998         9.0252       195.4301       877.8223
     426.72000         8.5000         9.0515         2.2297       0.013206       126.3907       109.5948       112.7349       0.353100       0.331151         2.6721        12.9951        13.1374         8.7929         9.0187       195.2544       879.0070
     426.87240         8.5000         9.0531         2.2294       0.009998       125.9782       108.4404       111.5563       0.322105       0.301874         2.6852        12.9632        13.1058         8.7861         9.0123       195.0787       880.1917
     427.02480         8.5000         9.0583         2.2301       0.007810       125.7173       107.3252       110.4367       0.298227       0.279238         2.6951        12.9326        13.0761         8.7759         9.0035       195.0204       880.9855
     427.17720         8.5000         9.0813         2.2351       0.010877       126.2360       106.4114       109.6200       0.310967       0.290773         2.6884        12.9085        13.0562         8.7482         8.9825       195.5660       879.7686
     427.32960         8.5000         9.1043         2.2402       0.013943       126.7547       105.4976       108.8034       0.323707       0.302307         2.6817        12.8844        13.0363         8.7206         8.9615       196.1116       878.5516
