~Version Information Block
VERS .                 2.00:  CWLS LOG ASCII STANDARD - VERSION 2.00
WRAP .                   NO:  One line per depth step
~Well Information Block
#MNEM.UNIT        Data Type   Information
#---------- ----------------  -----------
STRT .M            16.61160:  START DEPTH
STOP .M          1898.90400:  STOP DEPTH
STEP .M             0.15240:  STEP
NULL .              -999.25:  NULL VALUE
COMP .                     :  COMPANY
WELL .         Ngatoro-3ST1:  WELL
FLD  .                     :  FIELD
LOC  .                     :  LOCATION
CTRY .                     :  COUNTRY
STAT .                     :  STATE
CNTY .                     :  COUNTY
SRVC .     Greymouth Petroleum Ltd:  SERVICE COMPANY
DATE .                     :  DATE
API  .                     :  API NUMBER
UWI  .         100000787700:  UNIQUE WELL ID
LATI .          -39.1846084:  LATITUDE
LONG .          174.1883756:  LONGITUDE
~Curve Information Block
#MNEM.UNIT         API CODE   Curve Description
#---------- ----------------  -----------------
DEPTH.M                    :  
BS   .IN                   :  Bit Size (Created in Geolog)
CALI .IN                   :  HRCC Cal. Caliper (HCAL)
DENS .G/C3                 :  HRDD High Resolution Formation Density (RHO8)
DRHO .G/C3                 :  HRDD Density Correction (HDRA)
GR   .GAPI                 :  HiRes Gamma-Ray (EHGR)
NEUT .V/V                  :  HiRes Thermal Neutron Porosity (HTNP)
PEF  .B/E                  :  HRDD High Resolution Formation Photoelectric Factor (PEF8)
RESD .OHMM                 :  Array Induction Two Foot Resistivity A90 (AHT90)
RESM .OHMM                 :  Array Induction Two Foot Resistivity A30 (AHT30)
RESS .OHMM                 :  Array Induction Two Foot Resistivity A10 (AHT10)
SP   .MV                   :  SP Shifted (SP)
TEMP .DEGC                 :  HTC Temperature (HTEM)
TENS .KGF                  :  Cable Tension (TENS)
~Parameter Information Block
#MNEM.UNIT            Value   Description
#---------- ----------------  -----------
CUR_INT_BOT.M                1899:  Current interpolated bottom
PROJECT.     New Zealand Log QC Project:  
SET  .     A0_FINAL_INTER_REF_D:  
ELEVATION_AMSL.M              262.91:  Elevation above mean sea level
ELEVATION_REF.                   DF:  Measurement reference
FORMATION_AT_TD.             Manganui:  Formation at TD
GL_ELEVATION_AMSL.M            259.3000:  Ground level elevation above mean sea level
KICK_OFF_DATE.           26/09/2005:  Kick off date
KICK_OFF_DEPTH.M                 645:  Kick off depth
LICENCE_NUMBER.             PMP38148:  Licence number
ONSHORE_OR_OFFSHORE.              Onshore:  Onshore/offshore
PARENT_WELL.            Ngatoro-3:  Parent well
PR_NUMBER.               PR3237:  Petroleum report number
STATUS_AT_COMPLETION.     Completed ready for perforating:  Status at completion
TD_DATE.           05/10/2005:  Total depth date
TOTAL_DEPTH_DRILLED.M             1898.82:  Total depth drilled
~Other Information Block
# 
~A       DEPTH             BS           CALI           DENS           DRHO             GR           NEUT            PEF           RESD           RESM           RESS             SP           TEMP           TENS 
# ...
     729.84360         6.0000         7.1533         2.3138      0.0221286        58.3955       0.275558         3.0566        18.6470        17.4967        17.1318       423.4550        43.6226       892.7562
     729.99600         6.0000         7.3426         2.1725      0.0139724        63.5225       0.317835         2.8553        14.1253        12.5607        11.9578       424.1978        43.6226       894.6411
     730.14840         6.0000         7.3403         2.1359      0.0153235        65.2073       0.331095         2.7913        12.5844        11.2602        10.7207       421.7995        43.6227       886.2929
     730.30080         6.0000         7.3328         2.1020      0.0169309        66.7993       0.343572         2.7309        11.1240        10.0576         9.5897       419.3165        43.6228       877.6688
     730.45320         6.0000         7.3254         2.0682      0.0185383        68.3913       0.356050         2.6705         9.6635         8.8551         8.4587       416.8335        43.6230       869.0447
     730.60560         6.0000         7.2046         2.0804      0.0152911        68.8949       0.357395         2.6214         9.1150         8.4838         8.1616       413.2104        43.6232       865.1466
     730.75800         6.0000         7.0337         2.1131      0.0098926        68.9160       0.353806         2.5773         8.9706         8.4808         8.2341       409.0821        43.6235       863.3430
     730.91040         6.0000         6.8628         2.1458      0.0044940        68.9371       0.350217         2.5332         8.8262         8.4778         8.3066       404.9537        43.6237       861.5394
     731.06280         6.0000         6.7279         2.1688      0.0033949        67.7585       0.344500         2.5271         8.7056         8.5001         8.3880       400.0785        43.6488       866.7316
     731.21520         6.0000         6.6442         2.1781      0.0084299        64.8682       0.335746         2.5751         8.6187         8.5587         8.4820       394.1376        43.7092       881.9050
     731.36760         6.0000         6.5606         2.1874      0.0134649        61.9780       0.326992         2.6232         8.5318         8.6173         8.5760       388.1967        43.7696       897.0785
     731.52000         6.0000         6.4819         2.1936      0.0171067        59.5533       0.320402         2.6622         8.4643         8.6614         8.6416       383.8318        43.8220       909.5110
     731.67240         6.0000         6.4358         2.1789      0.0115250        60.2108       0.328144         2.6412         8.5250         8.6097         8.5187       389.9001        43.8221       903.7988
     731.82480         6.0000         6.3897         2.1642      0.0059433        60.8682       0.335885         2.6202         8.5857         8.5580         8.3959       395.9684        43.8221       898.0865
     731.97720         6.0000         6.3436         2.1495      0.0003617        61.5256       0.343626         2.5992         8.6463         8.5062         8.2731       402.0367        43.8222       892.3743
     732.12960         6.0000         6.4977         2.1461     -0.0000007        61.0783       0.345964         2.5580         8.5269         8.3764         8.1765       409.6963        43.8222       888.9056
     732.28200         6.0000         6.6869         2.1446      0.0005551        60.4365       0.347350         2.5133         8.3757         8.2328         8.0846       417.6358        43.8222       885.8316
     732.43440         6.0000         6.8762         2.1431      0.0011109        59.7948       0.348737         2.4685         8.2246         8.0892         7.9927       425.5753        43.8222       882.7576
     732.58680         6.0000         7.0036         2.1436      0.0007734        59.8940       0.348055         2.4663         8.2366         8.0674         7.9749       430.7486        43.8222       881.9225
     732.73920         6.0000         7.0844         2.1455     -0.0002392        60.5532       0.345809         2.4961         8.3718         8.1376         8.0132       433.8314        43.8222       882.7794
     732.89160         6.0000         7.1651         2.1474     -0.0012518        61.2123       0.343564         2.5260         8.5070         8.2078         8.0515       436.9142        43.8222       883.6364
     733.04400         6.0000         7.2293         2.1509      0.0004306        61.1937       0.340185         2.5644         8.6985         8.3443         8.1615       438.8453        43.8222       884.2764
     733.19640         6.0000         7.2529         2.1585      0.0087521        59.5053       0.334015         2.6238         9.0286         8.6440         8.4478       437.9387        43.8222       884.3821
     733.34880         6.0000         7.2765         2.1660      0.0170737        57.8169       0.327845         2.6832         9.3588         8.9437         8.7341       437.0321        43.8222       884.4878
     733.50120         6.0000         7.2991         2.1735      0.0252855        56.1797       0.321813         2.7414         9.6810         9.2364         9.0143       436.1256        43.8222       884.5690
     733.65360         6.0000         7.1978         2.1713      0.0196690        61.0005       0.333058         2.6586         9.0123         8.6476         8.5257       435.2392        43.8222       881.5619
     733.80600         6.0000         7.0966         2.1690      0.0140524        65.8212       0.344303         2.5757         8.3437         8.0588         8.0371       434.3527        43.8222       878.5548
     733.95840         6.0000         6.9953         2.1668      0.0084359        70.6420       0.355549         2.4928         7.6750         7.4700         7.5485       433.4662        43.8222       875.5477
     734.11080         6.0000         6.8144         2.1600      0.0073959        71.4348       0.352893         2.4693         7.7113         7.6593         7.7409       434.3560        43.8222       875.5035
     734.26320         6.0000         6.6036         2.1515      0.0080742        70.7152       0.345019         2.4682         8.0122         8.1407         8.1890       435.9126        43.8222       876.5717
     734.41560         6.0000         6.3927         2.1429      0.0087524        69.9957       0.337145         2.4671         8.3132         8.6222         8.6371       437.4692        43.8222       877.6398
     734.56800         6.0000         6.3000         2.1429      0.0129814        68.4919       0.334058         2.4840         8.3540         8.7607         8.7406       438.2957        43.8222       878.2620
     734.72040         6.0000         6.3539         2.1534      0.0216173        66.0147       0.336915         2.5232         8.0719         8.4737         8.4163       438.2158        43.8222       878.3306
     734.87280         6.0000         6.4077         2.1638      0.0302532        63.5375       0.339772         2.5625         7.7899         8.1867         8.0920       438.1358        43.8222       878.3991
     735.02520         6.0000         6.4612         2.1721      0.0365661        61.6747       0.340914         2.5872         7.5422         7.9123         7.7785       438.1327        43.8222       878.7129
     735.17760         6.0000         6.5124         2.1693      0.0311529        62.9129       0.333398         2.5383         7.4686         7.7016         7.5197       438.5171        43.8222       880.2641
     735.33000         6.0000         6.5637         2.1664      0.0257398        64.1510       0.325881         2.4895         7.3949         7.4910         7.2609       438.9016        43.8222       881.8153
     735.48240         6.0000         6.6149         2.1636      0.0203266        65.3892       0.318365         2.4406         7.3213         7.2803         7.0021       439.2859        43.8222       883.3666
     735.63480         6.0000         6.4981         2.1487      0.0305268        64.5752       0.325058         2.5504         7.3347         7.2262         6.9491       439.6963        43.8222       886.3383
