~Version Information Block
VERS .                 2.00:  CWLS LOG ASCII STANDARD - VERSION 2.00
WRAP .                   NO:  One line per depth step
~Well Information Block
#MNEM.UNIT        Data Type   Information
#---------- ----------------  -----------
STRT .M             5.63880:  START DEPTH
STOP .M          2149.90680:  STOP DEPTH
STEP .M             0.15240:  STEP
NULL .              -999.25:  NULL VALUE
COMP .                     :  COMPANY
WELL .            Ngatoro-4:  WELL
FLD  .                     :  FIELD
LOC  .                     :  LOCATION
CTRY .                     :  COUNTRY
STAT .                     :  STATE
CNTY .                     :  COUNTY
SRVC .     New Zealand Petroleum Co Ltd:  SERVICE COMPANY
DATE .                     :  DATE
API  .                     :  API NUMBER
UWI  .         100000159749:  UNIQUE WELL ID
LATI .           -39.193014:  LATITUDE
LONG .          174.1756345:  LONGITUDE
~Curve Information Block
#MNEM.UNIT         API CODE   Curve Description
#---------- ----------------  -----------------
DEPTH.M                    :  
BS   .IN                   :  Bit Size (Created in Geolog)
CALI .IN                   :  Caliper Log (CALI)
DRHO .G/C3                 :  Density Log Correction (DRHO)
DTC  .US/F                 :  Delta T (DT)
DTS  .US/F                 :  Delta T Shear Lower Dipole (DT1)
GR   .GAPI                 :  Gamma-Ray Log (GR)
GR_CORR.GAPI                 :  Gamma ray corrected
NEUT .V/V                  :  Neutron Log Porosity (NPHI)
NEUT_CORR.V/V                  :  Corrected NPHI (limestone units)
PEF  .B/E                  :  Photoelectric Factor (PEDF)
RESD .OHMM                 :  Laterolog Deep Resistivity (LLD)
RESD_CORR.OHMM                 :  Borehole corrected LLD
RESS .OHMM                 :  Shallow Laterolog (LLS)
RESS_CORR.OHMM                 :  Borehole corrected LLS
SP   .MV                   :  Spontaneous Potential Log (SP)
TEMP .DEGC                 :  Temperature (TEMP)
TENS .KGF                  :  Cable tension at surface (TENS)
~Parameter Information Block
#MNEM.UNIT            Value   Description
#---------- ----------------  -----------
CUR_INT_BOT.M                2150:  Current interpolated bottom
PROJECT.     New Zealand Log QC Project:  
SET  .     A0_FINAL_INTER_REF_D:  
ELEVATION_AMSL.M               297.7:  Elevation above mean sea level
ELEVATION_REF.                   KB:  Measurement reference
FORMATION_AT_TD.                 Moki:  Formation at TD
GL_ELEVATION_AMSL.M            292.8000:  Ground level elevation above mean sea level
LICENCE_NUMBER.             PPL38706:  Licence number
ONSHORE_OR_OFFSHORE.              Onshore:  Onshore/offshore
PR_NUMBER.               PR1914:  Petroleum report number
SPUD_DATE.           07/03/1993:  Spud date
STATUS_AT_COMPLETION.     Suspended as a potential oil producer:  Status at completion
TD_DATE.           21/03/1993:  Total depth date
TOTAL_DEPTH_DRILLED.M                2150:  Total depth drilled
~Other Information Block
# 
~A       DEPTH             BS           CALI           DRHO            DTC            DTS             GR        GR_CORR           NEUT      NEUT_CORR            PEF           RESD      RESD_CORR           RESS      RESS_CORR             SP           TEMP           TENS 
# ...
    1464.10680         8.5000         8.5312      0.0040547      -999.2500      -999.2500       104.0152       104.4022       0.216442       0.212877         3.0824         3.1308         3.1383         3.5551         3.6090      -999.2500      -999.2500       476.2556
    1464.25920         8.5000         8.5374      0.0071448      -999.2500      -999.2500       104.0424       104.2473       0.220772       0.217011         3.0505         3.1200         3.1276         3.5335         3.5881      -999.2500      -999.2500       474.3385
    1464.41160         8.5000         8.5436      0.0102350      -999.2500      -999.2500       104.0697       104.0924       0.225103       0.221146         3.0187         3.1091         3.1169         3.5119         3.5671      -999.2500      -999.2500       472.4214
    1464.56400         8.5000         8.5474      0.0122797      -999.2500      -999.2500       104.2841       104.1779       0.229747       0.225600         3.0062         3.0934         3.1013         3.4896         3.5453      -999.2500      -999.2500       471.2541
    1464.71640         8.5000         8.5479      0.0128805      -999.2500      -999.2500       104.7569       104.5955       0.234822       0.230497         3.0205         3.0713         3.0789         3.4665         3.5222      -999.2500      -999.2500       471.1223
    1464.86880         8.5000         8.5484      0.0134814      -999.2500      -999.2500       105.2298       105.0131       0.239897       0.235393         3.0348         3.0491         3.0565         3.4433         3.4991      -999.2500      -999.2500       470.9906
    1465.02120         8.5000         8.5524      0.0137593      -999.2500      -999.2500       105.7377       105.4979       0.243359       0.238671         3.0478         3.0388         3.0463         3.4329         3.4892      -999.2500      -999.2500       470.9547
    1465.17360         8.5000         8.5787      0.0120391      -999.2500      -999.2500       106.4626       106.3984       0.236832       0.231929         3.0530         3.1019         3.1115         3.5019         3.5609      -999.2500      -999.2500       471.5116
    1465.32600         8.5000         8.6050      0.0103189      -999.2500      -999.2500       107.1876       107.2989       0.230306       0.225186         3.0583         3.1650         3.1768         3.5709         3.6327      -999.2500      -999.2500       472.0685
    1465.47840         8.5000         8.6312      0.0085987      -999.2500      -999.2500       107.9125       108.1994       0.223780       0.218444         3.0635         3.2282         3.2421         3.6399         3.7044      -999.2500      -999.2500       472.6253
    1465.63080         8.5000         8.6175      0.0074735      -999.2500      -999.2500       108.4010       108.6665       0.225225       0.220073         3.0527         3.1757         3.1882         3.5880         3.6510      -999.2500      -999.2500       474.3374
    1465.78320         8.5000         8.5971      0.0064467      -999.2500      -999.2500       108.8504       109.0621       0.227986       0.223085         3.0392         3.1041         3.1147         3.5161         3.5769      -999.2500      -999.2500       476.2404
    1465.93560         8.5000         8.5768      0.0054198      -999.2500      -999.2500       109.2998       109.4577       0.230747       0.226097         3.0257         3.0325         3.0411         3.4441         3.5028      -999.2500      -999.2500       478.1433
    1466.08800         8.5000         8.5724      0.0052868      -999.2500      -999.2500       109.1886       109.2952       0.233438       0.228771         3.0221         2.9983         3.0062         3.4106         3.4687      -999.2500      -999.2500       477.8133
    1466.24040         8.5000         8.5797      0.0058078      -999.2500      -999.2500       108.6671       108.7244       0.236080       0.231197         3.0257         2.9914         2.9996         3.4050         3.4639      -999.2500      -999.2500       475.8492
    1466.39280         8.5000         8.5870      0.0063288      -999.2500      -999.2500       108.1456       108.1536       0.238721       0.233623         3.0293         2.9845         2.9930         3.3995         3.4590      -999.2500      -999.2500       473.8852
    1466.54520         8.5000         8.5885      0.0070034      -999.2500      -999.2500       107.7692       107.7092       0.239211       0.234067         3.0209         2.9681         2.9764         3.3853         3.4450      -999.2500      -999.2500       472.5609
    1466.69760         8.5000         8.5764      0.0080423      -999.2500      -999.2500       107.7369       107.5647       0.234599       0.229806         2.9839         2.9290         2.9363         3.3507         3.4093      -999.2500      -999.2500       472.7541
    1466.85000         8.5000         8.5642      0.0090811      -999.2500      -999.2500       107.7046       107.4201       0.229988       0.225546         2.9470         2.8900         2.8962         3.3162         3.3736      -999.2500      -999.2500       472.9472
    1467.00240         8.5000         8.5525      0.0100924      -999.2500      -999.2500       107.6696       107.2791       0.225523       0.221421         2.9118         2.8525         2.8576         3.2830         3.3392      -999.2500      -999.2500       473.1297
    1467.15480         8.5000         8.5656      0.0093792      -999.2500      -999.2500       107.4655       107.3620       0.230271       0.225797         2.9856         2.9054         2.9119         3.3357         3.3932      -999.2500      -999.2500       472.6424
    1467.30720         8.5000         8.5788      0.0086660      -999.2500      -999.2500       107.2614       107.4449       0.235020       0.230173         3.0595         2.9584         2.9662         3.3884         3.4472      -999.2500      -999.2500       472.1551
    1467.45960         8.5000         8.5920      0.0079529      -999.2500      -999.2500       107.0573       107.5278       0.239768       0.234549         3.1333         3.0113         3.0204         3.4410         3.5011      -999.2500      -999.2500       471.6679
    1467.61200         8.5000         8.5992      0.0079698      -999.2500      -999.2500       107.6762       108.1748       0.240983       0.235608         3.1230         3.0223         3.0319         3.4574         3.5183      -999.2500      -999.2500       472.3993
    1467.76440         8.5000         8.6043      0.0082500      -999.2500      -999.2500       108.5920       109.0253       0.240925       0.235470         3.0824         3.0182         3.0280         3.4607         3.5221      -999.2500      -999.2500       473.5704
    1467.91680         8.5000         8.6093      0.0085302      -999.2500      -999.2500       109.5078       109.8759       0.240867       0.235333         3.0417         3.0140         3.0240         3.4640         3.5260      -999.2500      -999.2500       474.7415
    1468.06920         8.5000         8.6307      0.0083155      -999.2500      -999.2500       110.7152       111.1396       0.239788       0.233930         3.0491         3.0785         3.0905         3.5323         3.5968      -999.2500      -999.2500       474.9022
    1468.22160         8.5000         8.6717      0.0075058      -999.2500      -999.2500       112.2732       112.9003       0.237482       0.231005         3.1144         3.2255         3.2417         3.6785         3.7481      -999.2500      -999.2500       473.8483
    1468.37400         8.5000         8.7126      0.0066961      -999.2500      -999.2500       113.8312       114.6610       0.235176       0.228080         3.1797         3.3725         3.3928         3.8248         3.8995      -999.2500      -999.2500       472.7945
    1468.52640         8.5000         8.7491      0.0056722      -999.2500      -999.2500       115.1309       116.1680       0.234136       0.226452         3.2317         3.4712         3.4947         3.9202         3.9991      -999.2500      -999.2500       471.9436
