~Version Information Block
VERS .                 2.00:  CWLS LOG ASCII STANDARD - VERSION 2.00
WRAP .                   NO:  One line per depth step
~Well Information Block
#MNEM.UNIT        Data Type   Information
#---------- ----------------  -----------
STRT .M           514.50240:  START DEPTH
STOP .M          1925.26920:  STOP DEPTH
STEP .M             0.15240:  STEP
NULL .              -999.25:  NULL VALUE
COMP .                     :  COMPANY
WELL .            Ngatoro-6:  WELL
FLD  .                     :  FIELD
LOC  .                     :  LOCATION
CTRY .                     :  COUNTRY
STAT .                     :  STATE
CNTY .                     :  COUNTY
SRVC .     New Zealand Petroleum Co Ltd:  SERVICE COMPANY
DATE .                     :  DATE
API  .                     :  API NUMBER
UWI  .         100000210185:  UNIQUE WELL ID
LATI .          -39.2039386:  LATITUDE
LONG .          174.1707675:  LONGITUDE
~Curve Information Block
#MNEM.UNIT         API CODE   Curve Description
#---------- ----------------  -----------------
DEPTH.M                    :  
BS   .IN                   :  Bit Size (Created in Geolog)
CALI .IN                   :  CALIPER (HCAL)
DENS .G/C3                 :  Bulk Density (RHOZ) and HR Bulk Density (RHO8)
DTC  .US/F                 :  Delta Time Compressional (DTCO)
DTS  .US/F                 :  Delta-T Shear (DTSM)
GR   .GAPI                 :  Gamma Ray (GR) and HR Gamma Ray (HGR)
NEUT .V/V                  :  Neutron Porosity (NPHI) and HR Neutron Porosity (HTNP)
NEUT_CORR.V/V                  :  Corrected NPHI (limestone units)
PEF  .B/E                  :  HRDD Std Resolution Formation Photoelectric Factor (PEFZ) and (PEF8)
RESD .OHMM                 :  HALS Deep Res. (HLLD) and HR HALS Deep Res. (HRLD)
RESS .OHMM                 :  HALS Shallow Res. (HLLS) and HR HALS Shallow Res. (HRLS)
SP   .MV                   :  Spontaneous Potential (SP)
~Parameter Information Block
#MNEM.UNIT            Value   Description
#---------- ----------------  -----------
CUR_INT_BOT.M                1930:  Current interpolated bottom
PROJECT.     New Zealand Log QC Project:  
SET  .     A0_FINAL_INTER_REF_D:  
ELEVATION_AMSL.M                 328:  Elevation above mean sea level
ELEVATION_REF.                   KB:  Measurement reference
FORMATION_AT_TD.      Mount Messenger:  Formation at TD
GL_ELEVATION_AMSL.M            322.5000:  Ground level elevation above mean sea level
LICENCE_NUMBER.             PPL38706:  Licence number
ONSHORE_OR_OFFSHORE.              Onshore:  Onshore/offshore
PR_NUMBER.               PR2214:  Petroleum report number
SPUD_DATE.           27/03/1996:  Spud date
STATUS_AT_COMPLETION.     Suspended with 7" casing cemented in place:  Status at completion
TD_DATE.           04/04/1996:  Total depth date
TOTAL_DEPTH_DRILLED.M                1930:  Total depth drilled
~Other Information Block
# 
~A       DEPTH             BS           CALI           DENS            DTC            DTS             GR           NEUT      NEUT_CORR            PEF           RESD           RESS             SP 
# ...
     821.74080         8.5000         8.3851         2.3101      -999.2500      -999.2500        75.7027       0.245349       0.241139         3.0132         7.8928         6.8198       208.4433
     821.89320         8.5000         8.3417         2.3565      -999.2500      -999.2500        71.6938       0.215950       0.211554         3.1035         9.7838         8.3289       208.6199
     822.04560         8.5000         8.3174         2.3884      -999.2500      -999.2500        69.3713       0.203646       0.199135         3.1743        10.8011         9.1306       208.6503
     822.19800         8.5000         8.3375         2.3868      -999.2500      -999.2500        70.9982       0.231381       0.226918         3.1993         9.7722         8.2754       208.3384
     822.35040         8.5000         8.3576         2.3851      -999.2500      -999.2500        72.6251       0.259116       0.254702         3.2242         8.7434         7.4202       208.0265
     822.50280         8.5000         8.3788         2.3825      -999.2500      -999.2500        74.2453       0.286486       0.282120         3.2467         7.7187         6.5689       207.7151
     822.65520         8.5000         8.4525         2.3286      -999.2500      -999.2500        75.5071       0.294416       0.289956         3.1364         6.9213         5.9248       207.4356
     822.80760         8.5000         8.5262         2.2748      -999.2500      -999.2500        76.7690       0.302346       0.297793         3.0260         6.1239         5.2807       207.1561
     822.96000         8.5000         8.5999         2.2210      -999.2500      -999.2500        78.0308       0.310276       0.305629         2.9157         5.3265         4.6366       206.8767
     823.11240         8.5000         8.5993         2.2131      -999.2500      -999.2500        80.8097       0.308733       0.304403         2.9200         5.2312         4.5531       206.8684
     823.26480         8.5000         8.5721         2.2215      -999.2500      -999.2500        84.1286       0.303820       0.299951         2.9652         5.3857         4.6691       206.9567
     823.41720         8.5000         8.5449         2.2300      -999.2500      -999.2500        87.4474       0.298907       0.295499         3.0103         5.5402         4.7851       207.0450
     823.56960         8.5000         8.5232         2.2356      -999.2500      -999.2500        90.2141       0.299551       0.296306         3.0377         5.6222         4.8176       207.1098
     823.72200         8.5000         8.5080         2.2379      -999.2500      -999.2500        92.3237       0.306807       0.303369         3.0439         5.6180         4.7506       207.1468
     823.87440         8.5000         8.4928         2.2402      -999.2500      -999.2500        94.4334       0.314063       0.310431         3.0502         5.6137         4.6837       207.1837
     824.02680         8.5000         8.4848         2.2429      -999.2500      -999.2500        96.0024       0.320995       0.317304         3.0531         5.6153         4.6270       207.2293
     824.17920         8.5000         8.5105         2.2479      -999.2500      -999.2500        95.0377       0.326406       0.323289         3.0403         5.6449         4.6185       207.3156
     824.33160         8.5000         8.5362         2.2529      -999.2500      -999.2500        94.0730       0.331816       0.329274         3.0274         5.6744         4.6100       207.4019
     824.48400         8.5000         8.5618         2.2578      -999.2500      -999.2500        93.1083       0.337227       0.335258         3.0146         5.7039         4.6016       207.4882
     824.63640         8.5000         8.5010         2.2473      -999.2500      -999.2500        89.7001       0.333729       0.331821         2.9707         5.5868         4.5080       207.6656
     824.78880         8.5000         8.4300         2.2350      -999.2500      -999.2500        86.0054       0.329186       0.327279         2.9232         5.4525         4.4046       207.8538
     824.94120         8.5000         8.3590         2.2227      -999.2500      -999.2500        82.3107       0.324643       0.322737         2.8757         5.3182         4.3011       208.0420
     825.09360         8.5000         8.2773         2.2206      -999.2500      -999.2500        82.4727       0.323192       0.321745         2.8773         5.3345         4.3339       208.1947
     825.24600         8.5000         8.1888         2.2251      -999.2500      -999.2500        85.0575       0.323685       0.322983         2.9097         5.4455         4.4525       208.3250
     825.39840         8.5000         8.1003         2.2295      -999.2500      -999.2500        87.6424       0.324177       0.324221         2.9422         5.5565         4.5710       208.4554
     825.55080         8.5000         8.0449         2.2340      -999.2500      -999.2500        88.4700       0.323685       0.324208         2.9657         5.6801         4.6879       208.4632
     825.70320         8.5000         8.0556         2.2386      -999.2500      -999.2500        85.7832       0.321226       0.321692         2.9716         5.8291         4.8015       208.2258
     825.85560         8.5000         8.0662         2.2432      -999.2500      -999.2500        83.0964       0.318767       0.319176         2.9775         5.9781         4.9151       207.9884
     826.00800         8.5000         8.0772         2.2470      -999.2500      -999.2500        80.4242       0.316118       0.316508         2.9808         6.1279         5.0285       207.7372
     826.16040         8.5000         8.0931         2.2366      -999.2500      -999.2500        78.0163       0.310049       0.311112         2.9366         6.2906         5.1381       207.2364
     826.31280         8.5000         8.1090         2.2262      -999.2500      -999.2500        75.6085       0.303981       0.305716         2.8924         6.4533         5.2477       206.7357
     826.46520         8.5000         8.1250         2.2158      -999.2500      -999.2500        73.2006       0.297913       0.300320         2.8482         6.6160         5.3573       206.2349
     826.61760         8.5000         8.0937         2.2202      -999.2500      -999.2500        72.8036       0.303262       0.305480         2.8203         6.5365         5.3372       205.8307
     826.77000         8.5000         8.0484         2.2289      -999.2500      -999.2500        73.0017       0.311990       0.313763         2.7971         6.3854         5.2787       205.4551
     826.92240         8.5000         8.0032         2.2377      -999.2500      -999.2500        73.1998       0.320718       0.322047         2.7739         6.2343         5.2202       205.0795
     827.07480         8.5000         7.9927         2.2443      -999.2500      -999.2500        72.9530       0.318400       0.319260         2.7763         6.1461         5.1924       204.9557
     827.22720         8.5000         8.0184         2.2485      -999.2500      -999.2500        72.2447       0.304623       0.304988         2.8054         6.1233         5.1964       205.0931
     827.37960         8.5000         8.0440         2.2528      -999.2500      -999.2500        71.5364       0.290846       0.290717         2.8345         6.1005         5.2003       205.2306
     827.53200         8.5000         8.0623         2.2595      -999.2500      -999.2500        70.4519       0.281079       0.280741         2.8672         6.1254         5.2349       205.3725
     827.68440         8.5000         8.0529         2.2753      -999.2500      -999.2500        67.9517       0.286401       0.286930         2.9133         6.3296         5.3847       205.5313
     827.83680         8.5000         8.0435         2.2911      -999.2500      -999.2500        65.4515       0.291723       0.293118         2.9594         6.5338         5.5345       205.6900
     827.98920         8.5000         8.0341         2.3069      -999.2500      -999.2500        62.9513       0.297045       0.299307         3.0055         6.7380         5.6843       205.8488
