~Version Information Block
VERS .                 2.00:  CWLS LOG ASCII STANDARD - VERSION 2.00
WRAP .                   NO:  One line per depth step
~Well Information Block
#MNEM.UNIT        Data Type   Information
#---------- ----------------  -----------
STRT .M           387.55320:  START DEPTH
STOP .M          1999.48800:  STOP DEPTH
STEP .M             0.15240:  STEP
NULL .              -999.25:  NULL VALUE
COMP .                     :  COMPANY
WELL .           Ngatoro-13:  WELL
FLD  .                     :  FIELD
LOC  .                     :  LOCATION
CTRY .                     :  COUNTRY
STAT .                     :  STATE
CNTY .                     :  COUNTY
SRVC .     Greymouth Petroleum Ltd:  SERVICE COMPANY
DATE .                     :  DATE
API  .                     :  API NUMBER
UWI  .         100000787699:  UNIQUE WELL ID
LATI .            -39.21139:  LATITUDE
LONG .            174.18349:  LONGITUDE
~Curve Information Block
#MNEM.UNIT         API CODE   Curve Description
#---------- ----------------  -----------------
DEPTH.M                    :  
BS   .IN                   :  Bit Size (Created in Geolog)
CALI .IN                   :  HRCC Cal. Caliper (HCAL)
DENS .G/C3                 :  HRDD Standard Resolution Formation Density (RHOZ) and (RHO8)
DRHO .G/C3                 :  HRDD Density Correction (HDRA)
DTC  .US/F                 :  Delta-T Compressional (DTCO)
DTS  .US/F                 :  Delta-T Shear (DTSM)
GR   .GAPI                 :  Gamma-Ray (GR) and HiRes Gamma-Ray (EHGR)
NEUT .V/V                  :  Enhanced Thermal Neutron Porosity(NPOR) and (HNPO)
PEF  .B/E                  :  HRDD Std Resolution Formation Photoelectric Factor (PEFZ) and (PEF8)
RESD .OHMM                 :  HALS Laterolog Deep R (HLLD) and HALS HiRes Deep Res (HRLD)
RESS .OHMM                 :  HALS Shallow Res. (HLLS) and HR HALS Shallow Res. (HRLS)
SP   .MV                   :  SP Shifted (SP)
TENS .KGF                  :  Cable Tension (TENS)
~Parameter Information Block
#MNEM.UNIT            Value   Description
#---------- ----------------  -----------
CUR_INT_BOT.M                2032:  Current interpolated bottom
PROJECT.     New Zealand Log QC Project:  
SET  .     A0_FINAL_INTER_REF_D:  
ELEVATION_AMSL.M              323.75:  Elevation above mean sea level
ELEVATION_REF.                   DF:  Measurement reference
FORMATION_AT_TD.                 Moki:  Formation at TD
GL_ELEVATION_AMSL.M            323.3000:  Ground level elevation above mean sea level
LICENCE_NUMBER.             PMP38148:  Licence number
ONSHORE_OR_OFFSHORE.              Onshore:  Onshore/offshore
PR_NUMBER.               PR3545:  Petroleum report number
SPUD_DATE.           28/10/2006:  Spud date
STATUS_AT_COMPLETION.     Completed ready for perforating:  Status at completion
TD_DATE.           10/11/2006:  Total depth date
TOTAL_DEPTH_DRILLED.M                2032:  Total depth drilled
~Other Information Block
# 
~A       DEPTH             BS           CALI           DENS           DRHO            DTC            DTS             GR           NEUT            PEF           RESD           RESS             SP           TENS 
# ...
    1362.30360         8.5000         8.8596         2.4464        -0.0014       100.9933       197.9616        99.2567       0.282039         3.2220         3.0864         3.2162       196.2875      1329.7706
    1362.45600         8.5000         8.8902         2.4213        -0.0016       101.0478       199.1110       101.2468       0.299160         3.1760         3.0881         3.2168       195.9832      1334.9117
    1362.60840         8.5000         8.9410         2.4122        -0.0009       101.1862       199.6787       102.6793       0.301592         3.1245         3.0331         3.1620       196.0086      1331.1024
    1362.76080         8.5000         9.0001         2.4096        -0.0000       101.3588       200.0103       103.8855       0.298063         3.0707         2.9551         3.0847       196.1679      1323.6603
    1362.91320         8.5000         9.0592         2.4069         0.0009       101.5313       200.3419       105.0917       0.294534         3.0169         2.8771         3.0074       196.3271      1316.2181
    1363.06560         8.5000         9.1288         2.4064         0.0013       101.2815       200.1575       105.0851       0.290877         2.9953         2.8589         2.9934       196.4925      1312.8577
    1363.21800         8.5000         9.2124         2.4087         0.0010       100.4729       199.2903       103.4738       0.287049         3.0163         2.9198         3.0633       196.6659      1314.8981
    1363.37040         8.5000         9.2959         2.4110         0.0007        99.6643       198.4230       101.8626       0.283222         3.0374         2.9806         3.1331       196.8394      1316.9385
    1363.52280         8.5000         9.3704         2.4128         0.0005        99.2233       197.8302       100.4224       0.280277         3.0526         3.0317         3.1919       196.9835      1318.7352
    1363.67520         8.5000         9.3936         2.4119         0.0007       100.8721       198.7974        99.9544       0.282345         3.0347         3.0268         3.1877       196.9610      1319.1475
    1363.82760         8.5000         9.4168         2.4109         0.0010       102.5209       199.7646        99.4865       0.284413         3.0169         3.0219         3.1835       196.9384      1319.5596
    1363.98000         8.5000         9.4401         2.4100         0.0013       104.1697       200.7318        99.0185       0.286482         2.9990         3.0171         3.1793       196.9158      1319.9718
    1364.13240         8.5000         9.4434         2.4076        -0.0006       104.2783       199.7557        99.4496       0.284792         3.0241         2.9675         3.1258       196.7543      1315.6129
    1364.28480         8.5000         9.4438         2.4049        -0.0029       104.1543       198.4860       100.0164       0.282535         3.0556         2.9111         3.0649       196.5717      1310.5332
    1364.43720         8.5000         9.4442         2.4023        -0.0053       104.0304       197.2164       100.5833       0.280278         3.0872         2.8548         3.0039       196.3892      1305.4536
    1364.58960         8.5000         9.4539         2.4070        -0.0064       103.5490       195.8040       100.8675       0.274964         3.1263         2.8841         3.0339       196.3925      1302.1873
    1364.74200         8.5000         9.4702         2.4168        -0.0067       102.8173       194.2915       100.9537       0.267508         3.1708         2.9736         3.1276       196.5261      1300.1918
    1364.89440         8.5000         9.4865         2.4265        -0.0071       102.0855       192.7790       101.0399       0.260051         3.2153         3.0630         3.2214       196.6597      1298.1963
    1365.04680         8.5000         9.5100         2.4321        -0.0068       101.8190       191.9793       100.3788       0.258251         3.2308         3.1261         3.2886       196.7801      1297.7791
    1365.19920         8.5000         9.5497         2.4279        -0.0051       102.6024       192.7878        98.0314       0.269212         3.1812         3.1299         3.2961       196.8706      1300.9230
    1365.35160         8.5000         9.5894         2.4237        -0.0034       103.3858       193.5964        95.6840       0.280173         3.1316         3.1338         3.3036       196.9611      1304.0669
    1365.50400         8.5000         9.6290         2.4196        -0.0018       104.1332       194.3871        93.4817       0.290794         3.0827         3.1355         3.3087       197.0489      1307.1410
    1365.65640         8.5000         9.6636         2.4177        -0.0015       103.5469       194.5125        96.6600       0.288787         3.0584         3.0595         3.2274       197.0339      1307.6241
    1365.80880         8.5000         9.6983         2.4157        -0.0013       102.9607       194.6380        99.8382       0.286780         3.0342         2.9835         3.1460       197.0189      1308.1073
    1365.96120         8.5000         9.7329         2.4138        -0.0011       102.3744       194.7635       103.0165       0.284773         3.0100         2.9075         3.0646       197.0039      1308.5905
    1366.11360         8.5000         9.7018         2.4161        -0.0005       102.0218       194.9933       102.4239       0.283306         2.9894         2.8974         3.0510       196.8116      1297.5229
    1366.26600         8.5000         9.6483         2.4199         0.0002       101.7491       195.2588       100.5434       0.282024         2.9701         2.9098         3.0605       196.5588      1282.5103
    1366.41840         8.5000         9.5948         2.4238         0.0008       101.4764       195.5242        98.6628       0.280742         2.9508         2.9222         3.0700       196.3060      1267.4976
    1366.57080         8.5000         9.5623         2.4263         0.0010       100.3132       195.9287        97.1672       0.278209         2.9449         2.9414         3.0871       196.1270      1258.4341
    1366.72320         8.5000         9.5538         2.4275         0.0006        98.1239       196.4934        96.1150       0.274235         2.9545         2.9683         3.1130       196.0331      1256.2275
    1366.87560         8.5000         9.5454         2.4286         0.0002        95.9345       197.0581        95.0628       0.270261         2.9641         2.9952         3.1388       195.9392      1254.0209
    1367.02800         8.5000         9.5311         2.4307        -0.0000        94.1441       197.6434        94.4036       0.265713         2.9766         3.0562         3.2001       195.8842      1252.5940
    1367.18040         8.5000         9.4902         2.4371         0.0003        94.1260       198.3202        95.4898       0.258612         3.0019         3.2682         3.4190       196.0017      1254.6315
    1367.33280         8.5000         9.4493         2.4435         0.0007        94.1078       198.9971        96.5760       0.251511         3.0273         3.4802         3.6380       196.1192      1256.6688
    1367.48520         8.5000         9.4084         2.4499         0.0010        94.0896       199.6739        97.6622       0.244410         3.0526         3.6923         3.8569       196.2368      1258.7062
    1367.63760         8.5000         9.4867         2.4519         0.0028        94.8268       198.1529        97.1757       0.247064         3.0436         3.5657         3.7246       196.4286      1270.0751
    1367.79000         8.5000         9.5779         2.4533         0.0047        95.6451       196.3955        96.5201       0.250767         3.0308         3.4028         3.5544       196.6284      1282.4476
    1367.94240         8.5000         9.6690         2.4548         0.0066        96.4635       194.6381        95.8645       0.254469         3.0181         3.2398         3.3843       196.8282      1294.8202
    1368.09480         8.5000         9.7685         2.4499         0.0062        98.5293       194.2831        96.3347       0.257068         3.0024         3.1747         3.3157       196.8404      1304.6218
