~Version Information Block
VERS .                 2.00:  CWLS LOG ASCII STANDARD - VERSION 2.00
WRAP .                   NO:  One line per depth step
~Well Information Block
#MNEM.UNIT        Data Type   Information
#---------- ----------------  -----------
STRT .M           514.50240:  START DEPTH
STOP .M          1925.26920:  STOP DEPTH
STEP .M             0.15240:  STEP
NULL .              -999.25:  NULL VALUE
COMP .                     :  COMPANY
WELL .            Ngatoro-6:  WELL
FLD  .                     :  FIELD
LOC  .                     :  LOCATION
CTRY .                     :  COUNTRY
STAT .                     :  STATE
CNTY .                     :  COUNTY
SRVC .     New Zealand Petroleum Co Ltd:  SERVICE COMPANY
DATE .                     :  DATE
API  .                     :  API NUMBER
UWI  .         100000210185:  UNIQUE WELL ID
LATI .          -39.2039386:  LATITUDE
LONG .          174.1707675:  LONGITUDE
~Curve Information Block
#MNEM.UNIT         API CODE   Curve Description
#---------- ----------------  -----------------
DEPTH.M                    :  
BS   .IN                   :  Bit Size (Created in Geolog)
CALI .IN                   :  CALIPER (HCAL)
DENS .G/C3                 :  Bulk Density (RHOZ) and HR Bulk Density (RHO8)
DTC  .US/F                 :  Delta Time Compressional (DTCO)
DTS  .US/F                 :  Delta-T Shear (DTSM)
GR   .GAPI                 :  Gamma Ray (GR) and HR Gamma Ray (HGR)
NEUT .V/V                  :  Neutron Porosity (NPHI) and HR Neutron Porosity (HTNP)
NEUT_CORR.V/V                  :  Corrected NPHI (limestone units)
PEF  .B/E                  :  HRDD Std Resolution Formation Photoelectric Factor (PEFZ) and (PEF8)
RESD .OHMM                 :  HALS Deep Res. (HLLD) and HR HALS Deep Res. (HRLD)
RESS .OHMM                 :  HALS Shallow Res. (HLLS) and HR HALS Shallow Res. (HRLS)
SP   .MV                   :  Spontaneous Potential (SP)
~Parameter Information Block
#MNEM.UNIT            Value   Description
#---------- ----------------  -----------
CUR_INT_BOT.M                1930:  Current interpolated bottom
PROJECT.     New Zealand Log QC Project:  
SET  .     A0_FINAL_INTER_REF_D:  
ELEVATION_AMSL.M                 328:  Elevation above mean sea level
ELEVATION_REF.                   KB:  Measurement reference
FORMATION_AT_TD.      Mount Messenger:  Formation at TD
GL_ELEVATION_AMSL.M            322.5000:  Ground level elevation above mean sea level
LICENCE_NUMBER.             PPL38706:  Licence number
ONSHORE_OR_OFFSHORE.              Onshore:  Onshore/offshore
PR_NUMBER.               PR2214:  Petroleum report number
SPUD_DATE.           27/03/1996:  Spud date
STATUS_AT_COMPLETION.     Suspended with 7" casing cemented in place:  Status at completion
TD_DATE.           04/04/1996:  Total depth date
TOTAL_DEPTH_DRILLED.M                1930:  Total depth drilled
~Other Information Block
# 
~A       DEPTH             BS           CALI           DENS            DTC            DTS             GR           NEUT      NEUT_CORR            PEF           RESD           RESS             SP 
# ...
     911.35200         8.5000         8.1449         2.3197      -999.2500      -999.2500        99.7941       0.278901       0.277602         3.1087         5.2823         4.6349       205.3778
     911.50440         8.5000         8.1580         2.3177      -999.2500      -999.2500        99.6454       0.280612       0.279651         3.1103         5.2709         4.6317       205.5034
     911.65680         8.5000         8.1588         2.3162      -999.2500      -999.2500        97.5616       0.286246       0.286133         3.1297         5.2226         4.5914       205.7252
     911.80920         8.5000         8.1596         2.3146      -999.2500      -999.2500        95.4777       0.291880       0.292615         3.1491         5.1744         4.5510       205.9470
     911.96160         8.5000         8.1604         2.3131      -999.2500      -999.2500        93.3939       0.297514       0.299096         3.1684         5.1262         4.5106       206.1688
     912.11400         8.5000         8.1524         2.3133      -999.2500      -999.2500        92.7267       0.298071       0.300140         3.1589         5.0951         4.4850       206.1426
     912.26640         8.5000         8.1413         2.3141      -999.2500      -999.2500        92.5368       0.296917       0.299353         3.1396         5.0698         4.4643       206.0329
     912.41880         8.5000         8.1303         2.3149      -999.2500      -999.2500        92.3468       0.295764       0.298565         3.1204         5.0445         4.4437       205.9232
     912.57120         8.5000         8.1205         2.3159      -999.2500      -999.2500        93.4237       0.295071       0.298119         3.1033         5.0382         4.4424       205.9348
     912.72360         8.5000         8.1122         2.3171      -999.2500      -999.2500        95.9453       0.294901       0.298065         3.0888         5.0537         4.4632       206.0847
     912.87600         8.5000         8.1038         2.3183      -999.2500      -999.2500        98.4668       0.294732       0.298010         3.0742         5.0693         4.4840       206.2346
     913.02840         8.5000         8.0966         2.3188      -999.2500      -999.2500       100.3990       0.294745       0.298115         3.0615         5.0717         4.4928       206.3573
     913.18080         8.5000         8.0943         2.3161      -999.2500      -999.2500        99.7577       0.295552       0.298915         3.0571         5.0166         4.4490       206.3618
     913.33320         8.5000         8.0920         2.3133      -999.2500      -999.2500        99.1164       0.296360       0.299715         3.0527         4.9616         4.4053       206.3662
     913.48560         8.5000         8.0897         2.3106      -999.2500      -999.2500        98.4751       0.297167       0.300515         3.0483         4.9066         4.3616       206.3706
     913.63800         8.5000         8.0613         2.3120      -999.2500      -999.2500        96.9217       0.301536       0.304552         3.0659         4.9850         4.4285       206.1579
     913.79040         8.5000         8.0302         2.3138      -999.2500      -999.2500        95.2730       0.306277       0.308927         3.0858         5.0772         4.5069       205.9226
     913.94280         8.5000         7.9991         2.3157      -999.2500      -999.2500        93.6244       0.311017       0.313302         3.1056         5.1695         4.5854       205.6873
     914.09520         8.5000         7.9721         2.3162      -999.2500      -999.2500        93.4339       0.311011       0.313644         3.1242         5.2521         4.6542       205.3484
     914.24760         8.5000         7.9474         2.3160      -999.2500      -999.2500        94.1195       0.308152       0.311564         3.1419         5.3289         4.7173       204.9473
     914.40000         8.5000         7.9228         2.3157      -999.2500      -999.2500        94.8052       0.305293       0.309483         3.1596         5.4057         4.7804       204.5462
     914.55240         8.5000         7.9137         2.3163      -999.2500      -999.2500        94.3497       0.302657       0.307207         3.1531         5.4197         4.7944       204.2230
     914.70480         8.5000         7.9343         2.3184      -999.2500      -999.2500        91.7164       0.300448       0.304558         3.1002         5.3137         4.7146       204.0483
     914.85720         8.5000         7.9548         2.3206      -999.2500      -999.2500        89.0830       0.298239       0.301908         3.0474         5.2078         4.6348       203.8736
     915.00960         8.5000         7.9756         2.3224      -999.2500      -999.2500        86.5530       0.296351       0.299580         3.0000         5.1109         4.5626       203.7370
     915.16200         8.5000         8.0003         2.3186      -999.2500      -999.2500        85.5589       0.299228       0.302022         3.0328         5.1488         4.6016       204.1681
     915.31440         8.5000         8.0250         2.3149      -999.2500      -999.2500        84.5648       0.302106       0.304464         3.0657         5.1867         4.6407       204.5992
     915.46680         8.5000         8.0497         2.3112      -999.2500      -999.2500        83.5708       0.304984       0.306907         3.0985         5.2247         4.6798       205.0303
     915.61920         8.5000         8.0669         2.3141      -999.2500      -999.2500        85.6749       0.302843       0.304997         3.1293         5.2232         4.6788       205.6686
     915.77160         8.5000         8.0820         2.3189      -999.2500      -999.2500        88.6421       0.299304       0.301876         3.1594         5.2107         4.6666       206.3647
     915.92400         8.5000         8.0972         2.3237      -999.2500      -999.2500        91.6092       0.295766       0.298754         3.1896         5.1983         4.6545       207.0607
     916.07640         8.5000         8.1193         2.3286      -999.2500      -999.2500        93.2475       0.296588       0.299136         3.2087         5.2276         4.6785       207.6039
     916.22880         8.5000         8.1483         2.3335      -999.2500      -999.2500        93.5642       0.301747       0.303004         3.2166         5.2985         4.7384       207.9950
     916.38120         8.5000         8.1774         2.3384      -999.2500      -999.2500        93.8808       0.306907       0.306871         3.2246         5.3694         4.7984       208.3860
     916.53360         8.5000         8.2070         2.3423      -999.2500      -999.2500        94.1051       0.309045       0.307938         3.2254         5.4128         4.8357       208.7370
     916.68600         8.5000         8.2386         2.3425      -999.2500      -999.2500        94.0029       0.300501       0.299104         3.2009         5.3587         4.7932       208.9463
     916.83840         8.5000         8.2702         2.3427      -999.2500      -999.2500        93.9008       0.291958       0.290270         3.1765         5.3047         4.7506       209.1556
     916.99080         8.5000         8.3018         2.3429      -999.2500      -999.2500        93.7987       0.283414       0.281436         3.1520         5.2506         4.7081       209.3649
     917.14320         8.5000         8.3109         2.3382      -999.2500      -999.2500        96.1086       0.283872       0.281984         3.1347         5.2752         4.7327       209.1945
     917.29560         8.5000         8.3185         2.3332      -999.2500      -999.2500        98.5735       0.284908       0.283135         3.1177         5.3049         4.7616       208.9998
     917.44800         8.5000         8.3260         2.3281      -999.2500      -999.2500       101.0384       0.285944       0.284286         3.1008         5.3345         4.7906       208.8050
     917.60040         8.5000         8.3163         2.3266      -999.2500      -999.2500       101.5463       0.283936       0.281996         3.1097         5.3056         4.7750       208.5452
