~Version Information Block
VERS .                 2.00:  CWLS LOG ASCII STANDARD - VERSION 2.00
WRAP .                   NO:  One line per depth step
~Well Information Block
#MNEM.UNIT        Data Type   Information
#---------- ----------------  -----------
STRT .M             5.63880:  START DEPTH
STOP .M          2149.90680:  STOP DEPTH
STEP .M             0.15240:  STEP
NULL .              -999.25:  NULL VALUE
COMP .                     :  COMPANY
WELL .            Ngatoro-4:  WELL
FLD  .                     :  FIELD
LOC  .                     :  LOCATION
CTRY .                     :  COUNTRY
STAT .                     :  STATE
CNTY .                     :  COUNTY
SRVC .     New Zealand Petroleum Co Ltd:  SERVICE COMPANY
DATE .                     :  DATE
API  .                     :  API NUMBER
UWI  .         100000159749:  UNIQUE WELL ID
LATI .           -39.193014:  LATITUDE
LONG .          174.1756345:  LONGITUDE
~Curve Information Block
#MNEM.UNIT         API CODE   Curve Description
#---------- ----------------  -----------------
DEPTH.M                    :  
BS   .IN                   :  Bit Size (Created in Geolog)
CALI .IN                   :  Caliper Log (CALI)
DRHO .G/C3                 :  Density Log Correction (DRHO)
DTC  .US/F                 :  Delta T (DT)
DTS  .US/F                 :  Delta T Shear Lower Dipole (DT1)
GR   .GAPI                 :  Gamma-Ray Log (GR)
GR_CORR.GAPI                 :  Gamma ray corrected
NEUT .V/V                  :  Neutron Log Porosity (NPHI)
NEUT_CORR.V/V                  :  Corrected NPHI (limestone units)
PEF  .B/E                  :  Photoelectric Factor (PEDF)
RESD .OHMM                 :  Laterolog Deep Resistivity (LLD)
RESD_CORR.OHMM                 :  Borehole corrected LLD
RESS .OHMM                 :  Shallow Laterolog (LLS)
RESS_CORR.OHMM                 :  Borehole corrected LLS
SP   .MV                   :  Spontaneous Potential Log (SP)
TEMP .DEGC                 :  Temperature (TEMP)
TENS .KGF                  :  Cable tension at surface (TENS)
~Parameter Information Block
#MNEM.UNIT            Value   Description
#---------- ----------------  -----------
CUR_INT_BOT.M                2150:  Current interpolated bottom
PROJECT.     New Zealand Log QC Project:  
SET  .     A0_FINAL_INTER_REF_D:  
ELEVATION_AMSL.M               297.7:  Elevation above mean sea level
ELEVATION_REF.                   KB:  Measurement reference
FORMATION_AT_TD.                 Moki:  Formation at TD
GL_ELEVATION_AMSL.M            292.8000:  Ground level elevation above mean sea level
LICENCE_NUMBER.             PPL38706:  Licence number
ONSHORE_OR_OFFSHORE.              Onshore:  Onshore/offshore
PR_NUMBER.               PR1914:  Petroleum report number
SPUD_DATE.           07/03/1993:  Spud date
STATUS_AT_COMPLETION.     Suspended as a potential oil producer:  Status at completion
TD_DATE.           21/03/1993:  Total depth date
TOTAL_DEPTH_DRILLED.M                2150:  Total depth drilled
~Other Information Block
# 
~A       DEPTH             BS           CALI           DRHO            DTC            DTS             GR        GR_CORR           NEUT      NEUT_CORR            PEF           RESD      RESD_CORR           RESS      RESS_CORR             SP           TEMP           TENS 
# ...
    1839.01080         8.5000         8.3980      0.0105211        56.7678        57.4630       113.9697       112.3224       0.199674       0.199871         2.8161         3.4771         3.4834         3.6270         3.6588        27.5128        65.9526       532.5760
    1839.16320         8.5000         8.3982      0.0093249        56.7621        57.5496       114.2804       113.0948       0.202427       0.202557         2.8399         3.4893         3.4957         3.6432         3.6749        27.6996        65.9548       532.9360
    1839.31560         8.5000         8.3983      0.0081287        56.7564        57.6362       114.5911       113.8673       0.205180       0.205244         2.8637         3.5016         3.5080         3.6595         3.6910        27.8865        65.9570       533.2960
    1839.46800         8.5000         8.3984      0.0069325        56.7506        57.7228       114.9018       114.6398       0.207933       0.207931         2.8875         3.5138         3.5204         3.6757         3.7071        28.0734        65.9592       533.6559
    1839.62040         8.5000         8.4109      0.0066830        56.6948        57.6133       117.3150       116.8816       0.202892       0.202789         2.9339         3.7745         3.7834         3.9312         3.9621        27.9849        65.9614       533.2006
    1839.77280         8.5000         8.4267      0.0066851        56.6255        57.4517       120.2870       119.5141       0.195780       0.195566         2.9862         4.1013         4.1131         4.2502         4.2807        27.8233        65.9635       532.5285
    1839.92520         8.5000         8.4424      0.0066872        56.5563        57.2902       123.2590       122.1465       0.188668       0.188344         3.0386         4.4280         4.4429         4.5692         4.5992        27.6617        65.9657       531.8564
    1840.07760         8.5000         8.4433      0.0063692        56.5187        57.1975       124.3364       123.0529       0.185525       0.185236         3.0834         4.6057         4.6215         4.7516         4.7799        27.5015        65.9668       532.0620
    1840.23000         8.5000         8.4297      0.0057428        56.5116        57.1714       123.5875       122.2955       0.186208       0.186093         3.1209         4.6396         4.6545         4.8022         4.8278        27.3426        65.9668       533.1133
    1840.38240         8.5000         8.4162      0.0051163        56.5045        57.1452       122.8386       121.5381       0.186891       0.186951         3.1584         4.6736         4.6876         4.8528         4.8757        27.1838        65.9668       534.1647
    1840.53480         8.5000         8.4068      0.0049525        56.4993        57.1196       121.5624       120.3068       0.187726       0.187904         3.1763         4.6457         4.6588         4.8413         4.8627        27.0655        65.9668       534.8395
    1840.68720         8.5000         8.4111      0.0063526        56.5008        57.0958       118.5045       117.4741       0.189078       0.189179         3.1280         4.4088         4.4210         4.6199         4.6441        27.0846        65.9668       534.2414
    1840.83960         8.5000         8.4154      0.0077528        56.5022        57.0720       115.4465       114.6415       0.190430       0.190455         3.0796         4.1719         4.1833         4.3986         4.4255        27.1037        65.9668       533.6432
    1840.99200         8.5000         8.4197      0.0091529        56.5037        57.0482       112.3886       111.8088       0.191782       0.191730         3.0313         3.9349         3.9456         4.1772         4.2068        27.1228        65.9668       533.0451
    1841.14440         8.5000         8.4147      0.0109939        56.5388        57.0578       112.0204       111.3153       0.191959       0.191970         2.9789         3.9826         3.9932         4.2355         4.2638        27.2927        65.9668       532.7242
    1841.29680         8.5000         8.4091      0.0128593        56.5758        57.0693       111.8011       110.9513       0.192071       0.192152         2.9263         4.0461         4.0567         4.3092         4.3361        27.4710        65.9668       532.4186
    1841.44920         8.5000         8.4035      0.0147247        56.6127        57.0808       111.5819       110.5874       0.192183       0.192335         2.8737         4.1096         4.1201         4.3830         4.4084        27.6493        65.9668       532.1130
    1841.60160         8.5000         8.4036      0.0156824        56.6638        57.1372       111.3762       110.4652       0.190740       0.190927         2.8436         4.1077         4.1182         4.3811         4.4065        27.8706        65.9668       531.8174
    1841.75400         8.5000         8.4064      0.0161862        56.7220        57.2161       111.1773       110.4639       0.188518       0.188725         2.8248         4.0731         4.0836         4.3413         4.3675        28.1135        65.9668       531.5269
    1841.90640         8.5000         8.4093      0.0166900        56.7801        57.2949       110.9783       110.4626       0.186297       0.186523         2.8060         4.0385         4.0490         4.3015         4.3285        28.3564        65.9668       531.2363
    1842.05880         8.5000         8.4096      0.0165627        56.8102        57.3569       111.9629       111.3938       0.187063       0.187286         2.7980         3.9293         3.9391         4.1841         4.2123        28.5341        65.9668       531.0853
    1842.21120         8.5000         8.4059      0.0154308        56.7957        57.3919       114.8316       113.8096       0.192586       0.192768         2.8073         3.7014         3.7095         3.9432         3.9730        28.6081        65.9668       531.1566
    1842.36360         8.5000         8.4021      0.0142990        56.7811        57.4270       117.7002       116.2253       0.198109       0.198251         2.8166         3.4735         3.4798         3.7023         3.7338        28.6821        65.9668       531.2280
    1842.51600         8.5000         8.4015      0.0131257        56.7673        57.4578       120.1604       118.3299       0.203126       0.203186         2.8277         3.2802         3.2852         3.4976         3.5309        28.7363        65.9669       531.2732
    1842.66840         8.5000         8.4277      0.0115989        56.7596        57.4525       119.1384       117.7813       0.203830       0.203453         2.8549         3.3820         3.3894         3.6019         3.6374        28.6214        65.9678       531.0956
    1842.82080         8.5000         8.4540      0.0100720        56.7520        57.4471       118.1163       117.2328       0.204534       0.203721         2.8821         3.4838         3.4936         3.7061         3.7439        28.5064        65.9688       530.9181
    1842.97320         8.5000         8.4802      0.0085452        56.7443        57.4418       117.0943       116.6843       0.205238       0.203988         2.9093         3.5857         3.5977         3.8103         3.8504        28.3915        65.9697       530.7405
    1843.12560         8.5000         8.4934      0.0088138        56.7312        57.4314       116.0313       115.7063       0.203578       0.202176         2.9144         3.6570         3.6704         3.8845         3.9258        28.1461        65.9732       533.4119
    1843.27800         8.5000         8.5037      0.0094655        56.7170        57.4200       114.9595       114.6366       0.201415       0.199920         2.9148         3.7217         3.7364         3.9522         3.9945        27.8728        65.9773       536.6912
    1843.43040         8.5000         8.5141      0.0101171        56.7028        57.4085       113.8878       113.5669       0.199251       0.197664         2.9153         3.7865         3.8023         4.0200         4.0632        27.5995        65.9814       539.9705
