~Version Information Block
VERS .                 2.00:  CWLS LOG ASCII STANDARD - VERSION 2.00
WRAP .                   NO:  One line per depth step
~Well Information Block
#MNEM.UNIT        Data Type   Information
#---------- ----------------  -----------
STRT .M           387.55320:  START DEPTH
STOP .M          1999.48800:  STOP DEPTH
STEP .M             0.15240:  STEP
NULL .              -999.25:  NULL VALUE
COMP .                     :  COMPANY
WELL .           Ngatoro-13:  WELL
FLD  .                     :  FIELD
LOC  .                     :  LOCATION
CTRY .                     :  COUNTRY
STAT .                     :  STATE
CNTY .                     :  COUNTY
SRVC .     Greymouth Petroleum Ltd:  SERVICE COMPANY
DATE .                     :  DATE
API  .                     :  API NUMBER
UWI  .         100000787699:  UNIQUE WELL ID
LATI .            -39.21139:  LATITUDE
LONG .            174.18349:  LONGITUDE
~Curve Information Block
#MNEM.UNIT         API CODE   Curve Description
#---------- ----------------  -----------------
DEPTH.M                    :  
BS   .IN                   :  Bit Size (Created in Geolog)
CALI .IN                   :  HRCC Cal. Caliper (HCAL)
DENS .G/C3                 :  HRDD Standard Resolution Formation Density (RHOZ) and (RHO8)
DRHO .G/C3                 :  HRDD Density Correction (HDRA)
DTC  .US/F                 :  Delta-T Compressional (DTCO)
DTS  .US/F                 :  Delta-T Shear (DTSM)
GR   .GAPI                 :  Gamma-Ray (GR) and HiRes Gamma-Ray (EHGR)
NEUT .V/V                  :  Enhanced Thermal Neutron Porosity(NPOR) and (HNPO)
PEF  .B/E                  :  HRDD Std Resolution Formation Photoelectric Factor (PEFZ) and (PEF8)
RESD .OHMM                 :  HALS Laterolog Deep R (HLLD) and HALS HiRes Deep Res (HRLD)
RESS .OHMM                 :  HALS Shallow Res. (HLLS) and HR HALS Shallow Res. (HRLS)
SP   .MV                   :  SP Shifted (SP)
TENS .KGF                  :  Cable Tension (TENS)
~Parameter Information Block
#MNEM.UNIT            Value   Description
#---------- ----------------  -----------
CUR_INT_BOT.M                2032:  Current interpolated bottom
PROJECT.     New Zealand Log QC Project:  
SET  .     A0_FINAL_INTER_REF_D:  
ELEVATION_AMSL.M              323.75:  Elevation above mean sea level
ELEVATION_REF.                   DF:  Measurement reference
FORMATION_AT_TD.                 Moki:  Formation at TD
GL_ELEVATION_AMSL.M            323.3000:  Ground level elevation above mean sea level
LICENCE_NUMBER.             PMP38148:  Licence number
ONSHORE_OR_OFFSHORE.              Onshore:  Onshore/offshore
PR_NUMBER.               PR3545:  Petroleum report number
SPUD_DATE.           28/10/2006:  Spud date
STATUS_AT_COMPLETION.     Completed ready for perforating:  Status at completion
TD_DATE.           10/11/2006:  Total depth date
TOTAL_DEPTH_DRILLED.M                2032:  Total depth drilled
~Other Information Block
# 
~A       DEPTH             BS           CALI           DENS           DRHO            DTC            DTS             GR           NEUT            PEF           RESD           RESS             SP           TENS 
# ...
     625.29720         8.5000         8.8054         2.2593         0.0382       117.4814       266.6682        96.2315       0.375203         2.9320        14.2813        10.6755       224.6026       854.9900
     625.44960         8.5000         8.7437         2.2580         0.0256       117.1663       264.4411        96.3508       0.354478         2.8969        14.4111        10.7843       225.0469       853.0709
     625.60200         8.5000         8.7297         2.2568         0.0222       117.1000       261.1621        96.5106       0.346934         2.8904        14.2723        10.6925       225.2124       853.9979
     625.75440         8.5000         8.7392         2.2556         0.0234       117.1568       257.3633        96.6906       0.345901         2.8979        14.0007        10.5016       225.2402       856.3311
     625.90680         8.5000         8.7486         2.2543         0.0246       117.2136       253.5644        96.8705       0.344869         2.9055        13.7291        10.3107       225.2680       858.6642
     626.05920         8.5000         8.7693         2.2569         0.0270       117.2520       252.0631        97.0263       0.348198         2.9172        13.6435        10.2414       225.3496       861.4446
     626.21160         8.5000         8.8074         2.2657         0.0311       117.2614       254.1789        97.1441       0.358393         2.9355        13.8504        10.3636       225.5161       864.9288
     626.36400         8.5000         8.8455         2.2744         0.0353       117.2708       256.2947        97.2620       0.368589         2.9538        14.0574        10.4857       225.6825       868.4130
     626.51640         8.5000         8.8763         2.2815         0.0381       117.2528       258.0138        97.3111       0.377063         2.9680        14.2591        10.6030       225.8141       871.3574
     626.66880         8.5000         8.8456         2.2752         0.0307       117.0076       256.4434        96.7892       0.371263         2.9481        14.4172        10.6805       225.6561       869.8246
     626.82120         8.5000         8.8150         2.2689         0.0232       116.7624       254.8730        96.2674       0.365462         2.9281        14.5753        10.7581       225.4982       868.2918
     626.97360         8.5000         8.7843         2.2626         0.0157       116.5172       253.3027        95.7456       0.359662         2.9082        14.7335        10.8356       225.3402       866.7590
     627.12600         8.5000         8.7186         2.2586         0.0215       116.8164       254.0390        94.8024       0.357848         2.9200        14.3401        10.5463       225.5280       866.8323
     627.27840         8.5000         8.6455         2.2551         0.0300       117.2296       255.2587        93.7710       0.356869         2.9385        13.8311        10.1802       225.7882       867.2421
     627.43080         8.5000         8.5724         2.2517         0.0385       117.6428       256.4784        92.7396       0.355890         2.9569        13.3221         9.8141       226.0484       867.6518
     627.58320         8.5000         8.5628         2.2504         0.0400       117.6682       259.2994        92.5652       0.357575         2.9606        13.2224         9.7240       226.1195       866.7064
     627.73560         8.5000         8.6061         2.2509         0.0358       117.3709       263.4522        93.1036       0.361475         2.9521        13.4631         9.8636       226.0332       864.6338
     627.88800         8.5000         8.6493         2.2513         0.0316       117.0735       267.6051        93.6420       0.365375         2.9435        13.7038        10.0032       225.9470       862.5612
     628.04040         8.5000         8.6914         2.2514         0.0299       116.8613       271.4184        93.8155       0.369301         2.9482        13.9513        10.1493       225.8353       861.0587
     628.19280         8.5000         8.7303         2.2504         0.0354       116.8851       274.2905        92.9774       0.373295         2.9895        14.2179        10.3137       225.6529       861.1362
     628.34520         8.5000         8.7692         2.2493         0.0409       116.9089       277.1625        92.1393       0.377289         3.0309        14.4845        10.4781       225.4705       861.2138
     628.49760         8.5000         8.8081         2.2483         0.0464       116.9326       280.0346        91.3011       0.381283         3.0723        14.7512        10.6425       225.2881       861.2914
     628.65000         8.5000         8.7864         2.2501         0.0420       117.0201       281.0338        93.4963       0.386485         3.0393        14.3805        10.3735       225.4602       861.8691
     628.80240         8.5000         8.7637         2.2520         0.0375       117.1086       282.0031        95.7400       0.391706         3.0052        13.9995        10.0976       225.6379       862.4548
     628.95480         8.5000         8.7409         2.2539         0.0329       117.1971       282.9723        97.9837       0.396927         2.9711        13.6186         9.8217       225.8157       863.0405
     629.10720         8.5000         8.7477         2.2524         0.0268       117.3473       283.1946        97.4627       0.397018         2.9448        13.7269         9.8648       225.5891       864.4126
     629.25960         8.5000         8.7669         2.2494         0.0201       117.5236       283.1019        95.7759       0.394946         2.9219        14.0414        10.0425       225.1921       866.1162
     629.41200         8.5000         8.7861         2.2464         0.0133       117.6999       283.0092        94.0892       0.392875         2.8990        14.3559        10.2201       224.7950       867.8199
     629.56440         8.5000         8.8022         2.2459         0.0094       117.8421       280.5304        93.7741       0.392960         2.8898        14.3981        10.2303       224.6039       870.0726
     629.71680         8.5000         8.8143         2.2489         0.0093       117.9377       274.7910        95.3336       0.395992         2.8994        14.0681        10.0118       224.6942       873.0755
     629.86920         8.5000         8.8264         2.2519         0.0092       118.0332       269.0517        96.8931       0.399024         2.9091        13.7381         9.7933       224.7844       876.0785
     630.02160         8.5000         8.8388         2.2546         0.0089       118.0794       264.4151        97.8557       0.399456         2.9142        13.4078         9.5817       224.8895       878.5854
     630.17400         8.5000         8.8538         2.2553         0.0080       117.8260       266.4565        95.2042       0.384144         2.8923        13.0758         9.4123       225.0844       878.0889
     630.32640         8.5000         8.8687         2.2561         0.0071       117.5726       268.4978        92.5528       0.368833         2.8704        12.7437         9.2430       225.2793       877.5924
     630.47880         8.5000         8.8836         2.2568         0.0063       117.3191       270.5391        89.9013       0.353521         2.8484        12.4117         9.0736       225.4742       877.0959
     630.63120         8.5000         8.8851         2.2523         0.0059       117.4049       269.0960        90.2477       0.346213         2.8522        12.7916         9.2652       225.8213       878.0693
     630.78360         8.5000         8.8845         2.2469         0.0057       117.5455       267.0899        91.0785       0.340199         2.8601        13.2865         9.5152       226.1930       879.2803
     630.93600         8.5000         8.8838         2.2415         0.0054       117.6861       265.0838        91.9093       0.334184         2.8680        13.7814         9.7652       226.5646       880.4914
     631.08840         8.5000         8.8332         2.2515         0.0111       117.1118       264.9093        92.3219       0.343469         2.9167        13.8584         9.7881       226.4235       879.1296
