~Version Information Block
VERS .                 2.00:  CWLS LOG ASCII STANDARD - VERSION 2.00
WRAP .                   NO:  One line per depth step
~Well Information Block
#MNEM.UNIT        Data Type   Information
#---------- ----------------  -----------
STRT .M           527.15160:  START DEPTH
STOP .M          2099.31000:  STOP DEPTH
STEP .M             0.15240:  STEP
NULL .              -999.25:  NULL VALUE
COMP .                     :  COMPANY
WELL .            Ngatoro-8:  WELL
FLD  .                     :  FIELD
LOC  .                     :  LOCATION
CTRY .                     :  COUNTRY
STAT .                     :  STATE
CNTY .                     :  COUNTY
SRVC .     New Zealand Petroleum Co Ltd:  SERVICE COMPANY
DATE .                     :  DATE
API  .                     :  API NUMBER
UWI  .         100000210422:  UNIQUE WELL ID
LATI .          -39.2038856:  LATITUDE
LONG .          174.1703227:  LONGITUDE
~Curve Information Block
#MNEM.UNIT         API CODE   Curve Description
#---------- ----------------  -----------------
DEPTH.M                    :  
BS   .IN                   :  Bit Size (Created in Geolog)
CALI .IN                   :  Caliper (HCAL)
DENS .G/C3                 :  Bulk Density (RHOZ) and HR Bulk Density (RHO8)
DTC  .US/F                 :  Delta Time (DT)
GR   .GAPI                 :  Gamma Ray (GR) and HR Gamma Ray (HGR)
NEUT .V/V                  :  Neutron Porosity (NPHI) and HR Neutron Porosity (HTNP)
NEUT_CORR.V/V                  :  Corrected NPHI (limestone units)
PEF  .B/E                  :  Photoelectric Factor (PEF) and (PEFZ)
RESD .OHMM                 :  HALS Deep Res. (HLLD) and HR HALS Deep Res. (HRLD)
RESS .OHMM                 :  HALS Shallow Res. (HLLS) and HR HALS Shallow Res. (HRLS)
SP   .MV                   :  Spontaneous Potential (SP)
~Parameter Information Block
#MNEM.UNIT            Value   Description
#---------- ----------------  -----------
CUR_INT_BOT.M                2100:  Current interpolated bottom
PROJECT.     New Zealand Log QC Project:  
SET  .     A0_FINAL_INTER_REF_D:  
ELEVATION_AMSL.M                 328:  Elevation above mean sea level
ELEVATION_REF.                   KB:  Measurement reference
FORMATION_AT_TD.             Manganui:  Formation at TD
GL_ELEVATION_AMSL.M            322.5000:  Ground level elevation above mean sea level
LICENCE_NUMBER.             PPL38706:  Licence number
ONSHORE_OR_OFFSHORE.              Onshore:  Onshore/offshore
PR_NUMBER.               PR2216:  Petroleum report number
SPUD_DATE.           22/04/1996:  Spud date
STATUS_AT_COMPLETION.     Suspended with 7" casing cemented to TD:  Status at completion
TD_DATE.           29/04/1996:  Total depth date
TOTAL_DEPTH_DRILLED.M                2100:  Total depth drilled
~Other Information Block
# 
~A       DEPTH             BS           CALI           DENS            DTC             GR           NEUT      NEUT_CORR            PEF           RESD           RESS             SP 
# ...
    1576.42560         8.5000         8.5571         2.4465        94.9781       110.6642       0.288592       0.283485         3.5198         3.2762         3.5400        68.6619
    1576.57800         8.5000         8.5601         2.4472        95.0173       110.3423       0.289017       0.283934         3.5315         3.2883         3.5520        68.3136
    1576.73040         8.5000         8.5644         2.4463        94.9914       110.6035       0.287633       0.282519         3.5382         3.3207         3.5806        67.9755
    1576.88280         8.5000         8.5688         2.4455        94.9656       110.8647       0.286250       0.281103         3.5450         3.3531         3.6091        67.6375
    1577.03520         8.5000         8.5721         2.4461        94.9008       111.4529       0.284325       0.279114         3.5529         3.3740         3.6270        67.3339
    1577.18760         8.5000         8.5723         2.4517        94.7064       113.1296       0.280597       0.275215         3.5646         3.3565         3.6096        67.1450
    1577.34000         8.5000         8.5725         2.4573        94.5121       114.8064       0.276869       0.271316         3.5763         3.3390         3.5921        66.9561
    1577.49240         8.5000         8.5726         2.4629        94.3177       116.4831       0.273141       0.267417         3.5880         3.3215         3.5747        66.7673
    1577.64480         8.5000         8.5762         2.4600        94.2960       115.6174       0.271038       0.265141         3.5680         3.3146         3.5696        66.7174
    1577.79720         8.5000         8.5800         2.4567        94.2834       114.6182       0.269021       0.262952         3.5463         3.3083         3.5652        66.6747
    1577.94960         8.5000         8.5837         2.4533        94.2708       113.6190       0.267004       0.260762         3.5246         3.3019         3.5608        66.6321
    1578.10200         8.5000         8.5855         2.4526        94.3013       112.1696       0.268080       0.261906         3.5114         3.3030         3.5607        66.8119
    1578.25440         8.5000         8.5864         2.4532        94.3531       110.4977       0.270682       0.264698         3.5024         3.3079         3.5627        67.1016
    1578.40680         8.5000         8.5872         2.4538        94.4048       108.8258       0.273285       0.267491         3.4934         3.3127         3.5648        67.3914
    1578.55920         8.5000         8.5875         2.4537        94.4577       108.2105       0.274938       0.269261         3.4927         3.3127         3.5637        67.7662
    1578.71160         8.5000         8.5866         2.4525        94.5124       109.2584       0.275095       0.269424         3.5051         3.3052         3.5576        68.2751
    1578.86400         8.5000         8.5858         2.4513        94.5670       110.3064       0.275252       0.269587         3.5174         3.2977         3.5515        68.7840
    1579.01640         8.5000         8.5851         2.4504        94.6042       111.2885       0.275314       0.269650         3.5291         3.2912         3.5462        69.2286
    1579.16880         8.5000         8.5851         2.4519        94.4972       111.7247       0.274584       0.268885         3.5362         3.2921         3.5468        69.1393
    1579.32120         8.5000         8.5850         2.4533        94.3901       112.1609       0.273855       0.268120         3.5432         3.2929         3.5474        69.0501
    1579.47360         8.5000         8.5850         2.4547        94.2831       112.5971       0.273125       0.267355         3.5503         3.2938         3.5479        68.9608
    1579.62600         8.5000         8.5856         2.4570        94.2586       113.6734       0.270084       0.264213         3.5519         3.2885         3.5447        68.8550
    1579.77840         8.5000         8.5864         2.4595        94.2515       114.8839       0.266558       0.260573         3.5524         3.2819         3.5406        68.7457
    1579.93080         8.5000         8.5871         2.4620        94.2444       116.0943       0.263032       0.256934         3.5529         3.2753         3.5366        68.6364
    1580.08320         8.5000         8.5880         2.4627        94.1203       116.2966       0.262121       0.255944         3.5383         3.2746         3.5344        68.7327
    1580.23560         8.5000         8.5891         2.4617        93.8989       115.6604       0.263384       0.257157         3.5112         3.2787         3.5337        68.9998
    1580.38800         8.5000         8.5901         2.4608        93.6776       115.0242       0.264648       0.258371         3.4840         3.2829         3.5330        69.2669
    1580.54040         8.5000         8.5908         2.4616        93.0880       114.3481       0.265596       0.259286         3.4667         3.2896         3.5416        69.4209
    1580.69280         8.5000         8.5908         2.4674        91.4774       113.5611       0.265671       0.259372         3.4766         3.3035         3.5757        69.2610
    1580.84520         8.5000         8.5908         2.4733        89.8668       112.7742       0.265746       0.259459         3.4864         3.3175         3.6098        69.1011
    1580.99760         8.5000         8.5908         2.4791        88.2562       111.9873       0.265820       0.259545         3.4963         3.3314         3.6439        68.9412
    1581.15000         8.5000         8.5902         2.4910        90.0880       111.8650       0.269192       0.263130         3.6080         3.4847         3.7751        68.5473
    1581.30240         8.5000         8.5897         2.5030        91.9748       111.7534       0.272616       0.266771         3.7214         3.6402         3.9078        68.1497
    1581.45480         8.5000         8.5892         2.5150        93.8617       111.6418       0.276040       0.270412         3.8347         3.7957         4.0405        67.7521
    1581.60720         8.5000         8.5894         2.5015        94.4707       111.8811       0.279337       0.273867         3.8071         3.7205         3.9598        68.1207
    1581.75960         8.5000         8.5899         2.4773        94.5410       112.2683       0.282580       0.277242         3.7201         3.5480         3.7891        68.8125
    1581.91200         8.5000         8.5904         2.4531        94.6113       112.6555       0.285823       0.280618         3.6331         3.3755         3.6184        69.5042
    1582.06440         8.5000         8.5912         2.4413        94.6714       112.5122       0.287549       0.282418         3.5739         3.2692         3.5171        70.0319
    1582.21680         8.5000         8.5921         2.4466        94.7175       111.6441       0.287201       0.282067         3.5526         3.2535         3.5106        70.3355
    1582.36920         8.5000         8.5931         2.4519        94.7637       110.7759       0.286853       0.281716         3.5313         3.2377         3.5040        70.6392
    1582.52160         8.5000         8.5942         2.4563        94.7817       110.0781       0.286799       0.281660         3.5131         3.2246         3.4985        70.8674
    1582.67400         8.5000         8.5961         2.4555        94.6291       110.4121       0.288523       0.283392         3.5134         3.2269         3.4985        70.6394
    1582.82640         8.5000         8.5979         2.4547        94.4766       110.7461       0.290247       0.285124         3.5136         3.2292         3.4986        70.4114
    1582.97880         8.5000         8.5998         2.4539        94.3240       111.0801       0.291972       0.286857         3.5139         3.2316         3.4987        70.1834
    1583.13120         8.5000         8.6012         2.4538        93.7506       112.1497       0.286123       0.280762         3.5292         3.2388         3.5030        69.5245
