~Version Information Block
VERS .                 2.00:  CWLS LOG ASCII STANDARD - VERSION 2.00
WRAP .                   NO:  One line per depth step
~Well Information Block
#MNEM.UNIT        Data Type   Information
#---------- ----------------  -----------
STRT .M           535.07640:  START DEPTH
STOP .M          2419.95960:  STOP DEPTH
STEP .M             0.15240:  STEP
NULL .              -999.25:  NULL VALUE
COMP .                     :  COMPANY
WELL .            Ngatoro-3:  WELL
FLD  .                     :  FIELD
LOC  .                     :  LOCATION
CTRY .                     :  COUNTRY
STAT .                     :  STATE
CNTY .                     :  COUNTY
SRVC .     New Zealand Petroleum Co Ltd:  SERVICE COMPANY
DATE .                     :  DATE
API  .                     :  API NUMBER
UWI  .         100000158215:  UNIQUE WELL ID
LATI .          -39.1846093:  LATITUDE
LONG .          174.1883769:  LONGITUDE
~Curve Information Block
#MNEM.UNIT         API CODE   Curve Description
#---------- ----------------  -----------------
DEPTH.M                    :  
BS   .IN                   :  Bit Size (Created in Geolog)
CALI .IN                   :  Caliper Log (CALI)
DENS .G/C3                 :  Compensated Formation Density Log (RHOB)
DRHO .G/C3                 :  Density Log Correction (DRHO)
DTC  .US/F                 :  Delta T (DT)
GR   .GAPI                 :  Gamma-Ray Log (GR)
GR_CORR.GAPI                 :  Gamma ray corrected
NEUT .V/V                  :  Neutron Log Porosity (NPHI)
NEUT_CORR.V/V                  :  Corrected NPHI (limestone units)
PEF  .B/E                  :  Photoelectric Factor (PEDF)
RESD .OHMM                 :  Laterolog Deep Resistivity (LLD)
RESD_CORR.OHMM                 :  Borehole corrected LLD
RESS .OHMM                 :  Shallow Laterolog (LLS)
RESS_CORR.OHMM                 :  Borehole corrected LLS
SP   .MV                   :  Spontaneous Potential Log (SP)
TEMP .DEGC                 :  Temperature (TEMP)
TENS .KGF                  :  Cable tension at surface (TENS)
~Parameter Information Block
#MNEM.UNIT            Value   Description
#---------- ----------------  -----------
CUR_INT_BOT.M                2420:  Current interpolated bottom
PROJECT.     New Zealand Log QC Project:  
SET  .     A0_FINAL_INTER_REF_D:  
ELEVATION_AMSL.M              267.94:  Elevation above mean sea level
ELEVATION_REF.                   KB:  Measurement reference
FORMATION_AT_TD.             Manganui:  Formation at TD
GL_ELEVATION_AMSL.M            263.2000:  Ground level elevation above mean sea level
LICENCE_NUMBER.             PPL38706:  Licence number
ONSHORE_OR_OFFSHORE.              Onshore:  Onshore/offshore
PR_NUMBER.               PR1863:  Petroleum report number
SPUD_DATE.           14/01/1993:  Spud date
STATUS_AT_COMPLETION.     Suspended as a potential oil producer:  Status at completion
TD_DATE.           08/02/1993:  Total depth date
TOTAL_DEPTH_DRILLED.M                2420:  Total depth drilled
~Other Information Block
# 
~A       DEPTH             BS           CALI           DENS           DRHO            DTC             GR        GR_CORR           NEUT      NEUT_CORR            PEF           RESD      RESD_CORR           RESS      RESS_CORR             SP           TEMP           TENS 
# ...
    2153.56440         8.5000         8.8811         2.5522      0.0116134        76.3486       120.3061       122.2687       0.174195       0.169306         3.0950         8.3307         8.3793         9.0397         9.1603        57.2631        68.9385      1456.9557
    2153.71680         8.5000         8.8841         2.5543      0.0109627        76.5877       118.4617       120.4120       0.175071       0.170109         3.0289         8.2740         8.3233         8.9763         9.0976        57.8154        68.9441      1449.1893
    2153.86920         8.5000         8.8871         2.5564      0.0103119        76.8267       116.6172       118.5553       0.175946       0.170913         2.9629         8.2173         8.2673         8.9128         9.0349        58.3676        68.9497      1441.4231
    2154.02160         8.5000         8.8903         2.5581      0.0097584        76.9600       115.0486       116.9803       0.176769       0.171663         2.9197         8.1830         8.2337         8.8711         8.9941        58.9241        68.9528      1435.8444
    2154.17400         8.5000         8.8949         2.5580      0.0097937        76.4530       115.1500       117.1106       0.177270       0.172085         3.0149         8.2848         8.3354         8.9610         9.0862        59.5063        68.9408      1443.5133
    2154.32640         8.5000         8.8995         2.5578      0.0098289        75.9460       115.2514       117.2409       0.177771       0.172507         3.1101         8.3866         8.4372         9.0510         9.1783        60.0885        68.9288      1451.1823
    2154.47880         8.5000         8.9041         2.5576      0.0098642        75.4390       115.3527       117.3712       0.178273       0.172929         3.2053         8.4884         8.5390         9.1409         9.2705        60.6706        68.9167      1458.8512
    2154.63120         8.5000         8.9051         2.5602      0.0114491        75.3239       118.2261       120.3015       0.179311       0.173913         3.2372         8.4120         8.4631         9.0639         9.1934        60.9051        68.9251      1460.0417
    2154.78360         8.5000         8.9057         2.5632      0.0132843        75.2720       121.5473       123.6842       0.180435       0.174988         3.2589         8.3068         8.3586         8.9599         9.0890        61.0834        68.9368      1460.1855
    2154.93600         8.5000         8.9062         2.5662      0.0151195        75.2202       124.8685       127.0669       0.181560       0.176062         3.2806         8.2017         8.2541         8.8560         8.9846        61.2617        68.9484      1460.3293
    2155.08840         8.5000         8.9040         2.5651      0.0153328        75.3098       125.3484       127.5420       0.181089       0.175638         3.2900         8.0744         8.1272         8.7304         8.8575        60.8943        68.9559      1460.5161
    2155.24080         8.5000         8.9000         2.5609      0.0143718        75.5019       123.7712       125.9121       0.179463       0.174129         3.2906         7.9312         7.9841         8.5892         8.7141        60.1318        68.9604      1460.7340
    2155.39320         8.5000         8.8959         2.5567      0.0134109        75.6939       122.1940       124.2821       0.177837       0.172620         3.2911         7.7879         7.8410         8.4480         8.5706        59.3693        68.9650      1460.9519
    2155.54560         8.5000         8.8936         2.5534      0.0124465        75.8985       121.1449       123.2004       0.177184       0.172024         3.2704         7.6790         7.7322         8.3398         8.4609        58.6839        68.9658      1460.1710
    2155.69800         8.5000         8.8954         2.5526      0.0114740        76.1325       121.3326       123.4027       0.178810       0.173564         3.2000         7.6505         7.7040         8.3089         8.4305        58.1789        68.9581      1457.0507
    2155.85040         8.5000         8.8973         2.5517      0.0105015        76.3665       121.5202       123.6050       0.180436       0.175104         3.1295         7.6219         7.6757         8.2780         8.4000        57.6739        68.9504      1453.9304
    2156.00280         8.5000         8.8993         2.5509      0.0095517        76.5964       121.7274       123.8283       0.182056       0.176636         3.0602         7.5943         7.6484         8.2480         8.3705        57.1815        68.9431      1450.8203
    2156.15520         8.5000         8.9105         2.5529      0.0098154        76.6065       122.9790       125.1739       0.183367       0.177744         3.0503         7.6176         7.6730         8.2699         8.3962        57.3681        68.9530      1448.2579
    2156.30760         8.5000         8.9217         2.5549      0.0100790        76.6165       124.2306       126.5194       0.184678       0.178852         3.0404         7.6410         7.6975         8.2917         8.4220        57.5546        68.9629      1445.6956
    2156.46000         8.5000         8.9330         2.5569      0.0103426        76.6266       125.4821       127.8649       0.185989       0.179960         3.0304         7.6643         7.7221         8.3135         8.4477        57.7411        68.9728      1443.1332
    2156.61240         8.5000         8.9410         2.5560      0.0098580        76.5837       124.7278       127.1460       0.188046       0.181824         3.0402         7.6812         7.7398         8.3308         8.4679        57.6527        68.9806      1442.8436
    2156.76480         8.5000         8.9479         2.5540      0.0091071        76.5220       123.2596       125.6924       0.190368       0.183957         3.0570         7.6958         7.7551         8.3466         8.4861        57.4666        68.9876      1443.3629
    2156.91720         8.5000         8.9548         2.5520      0.0083562        76.4602       121.7915       124.2387       0.192690       0.186090         3.0738         7.7104         7.7704         8.3624         8.5044        57.2804        68.9946      1443.8821
    2157.06960         8.5000         8.9557         2.5514      0.0083473        76.4145       121.6623       124.1125       0.193508       0.186864         3.0780         7.7227         7.7828         8.3827         8.5252        57.0353        68.9975      1446.3837
    2157.22200         8.5000         8.9494         2.5525      0.0092213        76.3877       123.1261       125.5653       0.192538       0.186021         3.0672         7.7323         7.7916         8.4084         8.5489        56.7200        68.9956      1451.2434
    2157.37440         8.5000         8.9431         2.5535      0.0100954        76.3608       124.5900       127.0181       0.191567       0.185177         3.0564         7.7418         7.8004         8.4341         8.5727        56.4047        68.9937      1456.1033
    2157.52680         8.5000         8.9378         2.5540      0.0107121        76.3319       125.4147       127.8258       0.191020       0.184727         3.0501         7.7546         7.8126         8.4641         8.6011        56.0841        68.9926      1459.6046
    2157.67920         8.5000         8.9372         2.5522      0.0101229        76.2929       123.2442       125.6099       0.192460       0.186118         3.0649         7.7825         7.8403         8.5141         8.6513        55.7381        68.9950      1456.7396
    2157.83160         8.5000         8.9365         2.5505      0.0095337        76.2539       121.0737       123.3939       0.193900       0.187510         3.0797         7.8104         7.8680         8.5641         8.7014        55.3921        68.9974      1453.8748
    2157.98400         8.5000         8.9359         2.5487      0.0089445        76.2149       118.9032       121.1780       0.195340       0.188901         3.0945         7.8383         7.8957         8.6141         8.7516        55.0460        68.9998      1451.0098
