~Version Information Block
VERS .                 2.00:  CWLS LOG ASCII STANDARD - VERSION 2.00
WRAP .                   NO:  One line per depth step
~Well Information Block
#MNEM.UNIT        Data Type   Information
#---------- ----------------  -----------
STRT .M            16.61160:  START DEPTH
STOP .M          1898.90400:  STOP DEPTH
STEP .M             0.15240:  STEP
NULL .              -999.25:  NULL VALUE
COMP .                     :  COMPANY
WELL .         Ngatoro-3ST1:  WELL
FLD  .                     :  FIELD
LOC  .                     :  LOCATION
CTRY .                     :  COUNTRY
STAT .                     :  STATE
CNTY .                     :  COUNTY
SRVC .     Greymouth Petroleum Ltd:  SERVICE COMPANY
DATE .                     :  DATE
API  .                     :  API NUMBER
UWI  .         100000787700:  UNIQUE WELL ID
LATI .          -39.1846084:  LATITUDE
LONG .          174.1883756:  LONGITUDE
~Curve Information Block
#MNEM.UNIT         API CODE   Curve Description
#---------- ----------------  -----------------
DEPTH.M                    :  
BS   .IN                   :  Bit Size (Created in Geolog)
CALI .IN                   :  HRCC Cal. Caliper (HCAL)
DENS .G/C3                 :  HRDD High Resolution Formation Density (RHO8)
DRHO .G/C3                 :  HRDD Density Correction (HDRA)
GR   .GAPI                 :  HiRes Gamma-Ray (EHGR)
NEUT .V/V                  :  HiRes Thermal Neutron Porosity (HTNP)
PEF  .B/E                  :  HRDD High Resolution Formation Photoelectric Factor (PEF8)
RESD .OHMM                 :  Array Induction Two Foot Resistivity A90 (AHT90)
RESM .OHMM                 :  Array Induction Two Foot Resistivity A30 (AHT30)
RESS .OHMM                 :  Array Induction Two Foot Resistivity A10 (AHT10)
SP   .MV                   :  SP Shifted (SP)
TEMP .DEGC                 :  HTC Temperature (HTEM)
TENS .KGF                  :  Cable Tension (TENS)
~Parameter Information Block
#MNEM.UNIT            Value   Description
#---------- ----------------  -----------
CUR_INT_BOT.M                1899:  Current interpolated bottom
PROJECT.     New Zealand Log QC Project:  
SET  .     A0_FINAL_INTER_REF_D:  
ELEVATION_AMSL.M              262.91:  Elevation above mean sea level
ELEVATION_REF.                   DF:  Measurement reference
FORMATION_AT_TD.             Manganui:  Formation at TD
GL_ELEVATION_AMSL.M            259.3000:  Ground level elevation above mean sea level
KICK_OFF_DATE.           26/09/2005:  Kick off date
KICK_OFF_DEPTH.M                 645:  Kick off depth
LICENCE_NUMBER.             PMP38148:  Licence number
ONSHORE_OR_OFFSHORE.              Onshore:  Onshore/offshore
PARENT_WELL.            Ngatoro-3:  Parent well
PR_NUMBER.               PR3237:  Petroleum report number
STATUS_AT_COMPLETION.     Completed ready for perforating:  Status at completion
TD_DATE.           05/10/2005:  Total depth date
TOTAL_DEPTH_DRILLED.M             1898.82:  Total depth drilled
~Other Information Block
# 
~A       DEPTH             BS           CALI           DENS           DRHO             GR           NEUT            PEF           RESD           RESM           RESS             SP           TEMP           TENS 
# ...
    1478.73720         6.0000         5.9462         2.3222      0.0410369        88.0682       0.298241         3.0638         2.8508         2.8883         3.0031       335.2143        53.0045      1129.0950
    1478.88960         6.0000         5.9119         2.3262      0.0359890        87.7924       0.292966         3.0285         2.8239         2.8673         2.9845       333.3617        53.0045      1134.4489
    1479.04200         6.0000         5.9034         2.3303      0.0296541        88.6229       0.289314         2.9907         2.8014         2.8488         2.9649       328.2422        53.0045      1138.6727
    1479.19440         6.0000         5.9631         2.3348      0.0199359        92.3616       0.289928         2.9462         2.7902         2.8369         2.9427       314.5354        53.0045      1139.9265
    1479.34680         6.0000         6.0228         2.3394      0.0102178        96.1003       0.290541         2.9016         2.7789         2.8250         2.9206       300.8287        53.0045      1141.1802
    1479.49920         6.0000         6.0825         2.3439      0.0004997        99.8391       0.291155         2.8571         2.7677         2.8130         2.8984       287.1219        53.0045      1142.4338
    1479.65160         6.0000         6.1187         2.3494      0.0018100        99.0129       0.296987         2.9169         2.7936         2.8144         2.8896       292.2884        53.0045      1130.9893
    1479.80400         6.0000         6.1547         2.3549      0.0031784        98.1627       0.302847         2.9773         2.8198         2.8159         2.8808       297.5545        53.0045      1119.4777
    1479.95640         6.0000         6.1908         2.3604      0.0045469        97.3125       0.308706         3.0377         2.8459         2.8173         2.8721       302.8206        53.0045      1107.9661
    1480.10880         6.0000         6.1952         2.3599      0.0036664        96.1859       0.309100         3.0250         2.8344         2.7745         2.8457       301.7563        53.0045      1111.8899
    1480.26120         6.0000         6.1871         2.3571      0.0018845        94.9487       0.307304         2.9830         2.8078         2.7139         2.8123       298.1553        53.0045      1121.9994
    1480.41360         6.0000         6.1789         2.3542      0.0001026        93.7114       0.305507         2.9411         2.7811         2.6533         2.7789       294.5542        53.0045      1132.1088
    1480.56600         6.0000         6.1620         2.3331     -0.0013440        93.2567       0.307178         2.8962         2.7642         2.6186         2.7510       291.8950        53.0045      1137.9249
    1480.71840         6.0000         6.1338         2.2879     -0.0023516        93.8265       0.313387         2.8477         2.7598         2.6177         2.7305       290.4688        53.0045      1138.1208
    1480.87080         6.0000         6.1056         2.2428     -0.0033593        94.3963       0.319596         2.7992         2.7555         2.6169         2.7100       289.0425        53.0045      1138.3168
    1481.02320         6.0000         6.0823         2.2153     -0.0036113        94.4855       0.322692         2.7853         2.7460         2.6119         2.6946       288.9768        53.0045      1138.4602
    1481.17560         6.0000         6.0867         2.2864      0.0003449        91.8979       0.308455         2.9641         2.7080         2.5835         2.7076       296.4885        53.0045      1138.3119
    1481.32800         6.0000         6.0911         2.3574      0.0043011        89.3103       0.294218         3.1428         2.6700         2.5551         2.7206       304.0001        53.0045      1138.1636
    1481.48040         6.0000         6.0955         2.4285      0.0082572        86.7227       0.279981         3.3216         2.6319         2.5268         2.7337       311.5117        53.0045      1138.0151
    1481.63280         6.0000         6.1412         2.4101      0.0056340        89.1876       0.279954         3.2426         2.6534         2.5529         2.7651       313.7611        53.0045      1139.5188
    1481.78520         6.0000         6.1930         2.3786      0.0020396        92.3982       0.282025         3.1255         2.6836         2.5871         2.7992       315.2339        53.0045      1141.2662
    1481.93760         6.0000         6.2448         2.3471     -0.0015547        95.6088       0.284095         3.0084         2.7138         2.6213         2.8334       316.7066        53.0045      1143.0137
    1482.09000         6.0000         6.3077         2.3227     -0.0025069        95.3354       0.290772         2.9410         2.7377         2.6506         2.8595       315.6175        53.0045      1142.7559
    1482.24240         6.0000         6.3784         2.3031     -0.0016272        92.6462       0.300642         2.9081         2.7571         2.6765         2.8801       312.7521        53.0045      1141.1078
    1482.39480         6.0000         6.4491         2.2835     -0.0007475        89.9571       0.310512         2.8752         2.7765         2.7025         2.9006       309.8867        53.0045      1139.4597
    1482.54720         6.0000         6.5251         2.2775      0.0026817        88.7900       0.317080         2.8741         2.7926         2.7236         2.9162       305.1329        53.0045      1137.5388
    1482.69960         6.0000         6.6132         2.3019      0.0117933        91.0151       0.316291         2.9437         2.8012         2.7338         2.9205       296.1703        53.0045      1135.0099
    1482.85200         6.0000         6.7013         2.3263      0.0209049        93.2402       0.315501         3.0134         2.8098         2.7440         2.9248       287.2076        53.0045      1132.4811
    1483.00440         6.0000         6.7902         2.3497      0.0296439        95.3678       0.314826         3.0808         2.8185         2.7550         2.9300       278.6508        53.0045      1130.2987
    1483.15680         6.0000         6.9054         2.3392      0.0258510        94.2185       0.318010         3.0730         2.8297         2.7892         2.9632       283.7438        53.0045      1139.7738
    1483.30920         6.0000         7.0206         2.3287      0.0220580        93.0692       0.321194         3.0652         2.8410         2.8234         2.9964       288.8369        53.0045      1149.2489
    1483.46160         6.0000         7.1357         2.3182      0.0182650        91.9199       0.324378         3.0574         2.8523         2.8575         3.0296       293.9300        53.0045      1158.7240
    1483.61400         6.0000         7.2461         2.3159      0.0130200        94.1906       0.326678         3.0338         2.8360         2.8621         3.0310       307.7729        53.0045      1154.6986
    1483.76640         6.0000         7.3549         2.3164      0.0072858        97.6134       0.328680         3.0050         2.8103         2.8566         3.0218       324.5630        53.0045      1146.1255
    1483.91880         6.0000         7.4637         2.3168      0.0015516       101.0362       0.330682         2.9761         2.7847         2.8511         3.0125       341.3532        53.0045      1137.5525
    1484.07120         6.0000         7.5151         2.3144     -0.0012375       102.5564       0.330527         2.9820         2.7633         2.8415         2.9908       349.8313        53.0045      1135.8656
    1484.22360         6.0000         7.5010         2.3085     -0.0006677       101.9068       0.327914         3.0277         2.7467         2.8270         2.9550       348.8299        53.0045      1142.0320
    1484.37600         6.0000         7.4870         2.3026     -0.0000980       101.2572       0.325301         3.0735         2.7301         2.8126         2.9192       347.8285        53.0045      1148.1984
    1484.52840         6.0000         7.3890         2.2998      0.0005873       100.5850       0.322367         3.0972         2.7248         2.8059         2.8958       344.5744        53.0045      1152.6643
