~Version Information Block
VERS .                 2.00:  CWLS LOG ASCII STANDARD - VERSION 2.00
WRAP .                   NO:  One line per depth step
~Well Information Block
#MNEM.UNIT        Data Type   Information
#---------- ----------------  -----------
STRT .M             9.14400:  START DEPTH
STOP .M          1999.48800:  STOP DEPTH
STEP .M             0.15240:  STEP
NULL .              -999.25:  NULL VALUE
COMP .                     :  COMPANY
WELL .            Ngatoro-2:  WELL
FLD  .                     :  FIELD
LOC  .                     :  LOCATION
CTRY .                     :  COUNTRY
STAT .                     :  STATE
CNTY .                     :  COUNTY
SRVC .     New Zealand Petroleum Co Ltd:  SERVICE COMPANY
DATE .                     :  DATE
API  .                     :  API NUMBER
UWI  .         100000127958:  UNIQUE WELL ID
LATI .          -39.1949429:  LATITUDE
LONG .          174.1849215:  LONGITUDE
~Curve Information Block
#MNEM.UNIT         API CODE   Curve Description
#---------- ----------------  -----------------
DEPTH.M                    :  
BS   .IN                   :  Bit Size (Created in Geolog)
CALI .IN                   :  Caliper Log (CALI)
DENS .G/C3                 :  Compensated Formation Density Log (RHOB)
DRHO .G/C3                 :  Density Log Correction (DRHO)
DTC  .US/F                 :  Delta T (DT)
DTS  .US/F                 :  Delta T Shear Lower Dipole (DT1)
GR   .GAPI                 :  Gamma-Ray Raw (Reeves PSD) (GRCF)
GR_CORR.GAPI                 :  Gamma ray corrected
NEUT .V/V                  :  Neutron Log Porosity (NPHI)
NEUT_CORR.V/V                  :  Corrected NPHI (limestone units)
PEF  .B/E                  :  Photoelectric Factor (PEDF)
RESD .OHMM                 :  Laterolog Deep Resistivity (LLD)
RESD_CORR.OHMM                 :  Borehole corrected LLD
RESS .OHMM                 :  Shallow Laterolog (LLS)
RESS_CORR.OHMM                 :  Borehole corrected LLS
SP   .MV                   :  Spontaneous Potential Log (SP)
TEMP .DEGC                 :  Temperature (TEMP)
TENS .KGF                  :  Cable tension at surface (TENS)
~Parameter Information Block
#MNEM.UNIT            Value   Description
#---------- ----------------  -----------
CUR_INT_BOT.M                2000:  Current interpolated bottom
PROJECT.     New Zealand Log QC Project:  
SET  .     A0_FINAL_INTER_REF_D:  
ELEVATION_AMSL.M              294.94:  Elevation above mean sea level
ELEVATION_REF.                   KB:  Measurement reference
FORMATION_AT_TD.             Manganui:  Formation at TD
GL_ELEVATION_AMSL.M            286.3000:  Ground level elevation above mean sea level
LICENCE_NUMBER.             PPL38706:  Licence number
ONSHORE_OR_OFFSHORE.              Onshore:  Onshore/offshore
PR_NUMBER.               PR1920:  Petroleum report number
SPUD_DATE.           12/10/1991:  Spud date
STATUS_AT_COMPLETION.     Completed as an oil producer:  Status at completion
TD_DATE.           26/10/1991:  Total depth date
TOTAL_DEPTH_DRILLED.M                2000:  Total depth drilled
~Other Information Block
# 
~A       DEPTH             BS           CALI           DENS           DRHO            DTC            DTS             GR        GR_CORR           NEUT      NEUT_CORR            PEF           RESD      RESD_CORR           RESS      RESS_CORR             SP           TEMP           TENS 
# ...
     831.18960         8.5000         8.5459      -999.2500   -999.2500000       105.7954      -999.2500       108.3535       108.0509    -999.250000    -999.250000      -999.2500         5.4211         5.4482         4.9258         4.9761       131.5357        39.7392       476.2245
     831.34200         8.5000         8.5459      -999.2500   -999.2500000       105.6331      -999.2500       111.7805       111.4683    -999.250000    -999.250000      -999.2500         5.4467         5.4733         4.9409         4.9911       132.3149        39.7419       476.8272
     831.49440         8.5000         8.5459      -999.2500   -999.2500000       105.4708      -999.2500       115.2075       114.8857    -999.250000    -999.250000      -999.2500         5.4723         5.4985         4.9559         5.0060       133.0941        39.7446       477.4299
     831.64680         8.5000         8.5459      -999.2500   -999.2500000       105.1680      -999.2500       113.0894       112.7735    -999.250000    -999.250000      -999.2500         5.4709         5.4981         4.9557         5.0058       132.4520        39.7450       476.3172
     831.79920         8.5000         8.5459      -999.2500   -999.2500000       104.8599      -999.2500       110.7597       110.4503    -999.250000    -999.250000      -999.2500         5.4685         5.4967         4.9549         5.0050       131.7558        39.7453       475.1390
     831.95160         8.5000         8.5459      -999.2500   -999.2500000       104.5518      -999.2500       108.4300       108.1271    -999.250000    -999.250000      -999.2500         5.4660         5.4953         4.9541         5.0043       131.0595        39.7456       473.9608
     832.10400         8.5000         8.5514      -999.2500   -999.2500000       104.1934      -999.2500       105.6385       105.3716    -999.250000    -999.250000      -999.2500         5.4809         5.5109         4.9808         5.0319       130.9326        39.7498       475.5331
     832.25640         8.5000         8.5595      -999.2500   -999.2500000       103.8114      -999.2500       102.6320       102.4149    -999.250000    -999.250000      -999.2500         5.5038         5.5344         5.0203         5.0728       131.0708        39.7558       478.3853
     832.40880         8.5000         8.5675      -999.2500   -999.2500000       103.4294      -999.2500        99.6255        99.4582    -999.250000    -999.250000      -999.2500         5.5267         5.5578         5.0598         5.1137       131.2089        39.7618       481.2375
     832.56120         8.5000         8.5907      -999.2500   -999.2500000       103.2512      -999.2500        98.8435        98.8056    -999.250000    -999.250000      -999.2500         5.5280         5.5603         5.0762         5.1339       131.3216        39.7651       481.7489
     832.71360         8.5000         8.6362      -999.2500   -999.2500000       103.3765      -999.2500       101.3762       101.5865    -999.250000    -999.250000      -999.2500         5.4971         5.5314         5.0582         5.1234       131.3965        39.7643       478.7719
     832.86600         8.5000         8.6818      -999.2500   -999.2500000       103.5019      -999.2500       103.9089       104.3674    -999.250000    -999.250000      -999.2500         5.4661         5.5025         5.0402         5.1128       131.4714        39.7635       475.7950
     833.01840         8.5000         8.7209      -999.2500   -999.2500000       103.5458      -999.2500       106.2851       106.9575    -999.250000    -999.250000      -999.2500         5.4371         5.4766         5.0146         5.0935       131.4908        39.7628       473.5056
     833.17080         8.5000         8.7133      -999.2500   -999.2500000       102.9971      -999.2500       107.5218       108.1584    -999.250000    -999.250000      -999.2500         5.4225         5.4728         4.9337         5.0115       131.1054        39.7620       476.2237
     833.32320         8.5000         8.7058      -999.2500   -999.2500000       102.4484      -999.2500       108.7585       109.3594    -999.250000    -999.250000      -999.2500         5.4078         5.4689         4.8529         4.9294       130.7201        39.7613       478.9417
     833.47560         8.5000         8.6982      -999.2500   -999.2500000       101.8997      -999.2500       109.9952       110.5603    -999.250000    -999.250000      -999.2500         5.3932         5.4650         4.7721         4.8473       130.3347        39.7605       481.6598
     833.62800         8.5000         8.7003      -999.2500   -999.2500000        98.1019      -999.2500       106.2166       106.7717    -999.250000    -999.250000      -999.2500         5.8439         5.8996         5.2686         5.3455       130.1838        39.7406       482.1127
     833.78040         8.5000         8.7043      -999.2500   -999.2500000        93.6847      -999.2500       101.4821       102.0320    -999.250000    -999.250000      -999.2500         6.3834         6.4176         5.8752         5.9543       130.0776        39.7170       482.1338
     833.93280         8.5000         8.7082      -999.2500   -999.2500000        89.2676      -999.2500        96.7475        97.2923    -999.250000    -999.250000      -999.2500         6.9229         6.9357         6.4817         6.5631       129.9713        39.6934       482.1548
     834.08520         8.5000         8.6958      -999.2500   -999.2500000        89.1383      -999.2500        98.2131        98.6910    -999.250000    -999.250000      -999.2500         6.8850         6.8973         6.4500         6.5292       130.2728        39.7238       481.7947
     834.23760         8.5000         8.6703      -999.2500   -999.2500000        92.3911      -999.2500       104.5691       104.9312    -999.250000    -999.250000      -999.2500         6.3916         6.4199         5.9149         5.9884       130.8958        39.7966       481.1339
     834.39000         8.5000         8.6448      -999.2500   -999.2500000        95.6439      -999.2500       110.9251       111.1714    -999.250000    -999.250000      -999.2500         5.8983         5.9425         5.3797         5.4476       131.5188        39.8695       480.4731
     834.54240         8.5000         8.6253      -999.2500   -999.2500000        98.4561      -999.2500       116.4351       116.5916    -999.250000    -999.250000      -999.2500         5.5156         5.5696         4.9788         5.0423       131.9525        39.9120       480.1433
     834.69480         8.5000         8.6211      -999.2500   -999.2500000       100.1254      -999.2500       119.7506       119.8843    -999.250000    -999.250000      -999.2500         5.4201         5.4676         4.9259         4.9886       131.8954        39.8756       480.6725
     834.84720         8.5000         8.6169      -999.2500   -999.2500000       101.7947      -999.2500       123.0661       123.1770    -999.250000    -999.250000      -999.2500         5.3247         5.3656         4.8730         4.9349       131.8383        39.8393       481.2017
     834.99960         8.5000         8.6127      -999.2500   -999.2500000       103.4640      -999.2500       126.3815       126.4696    -999.250000    -999.250000      -999.2500         5.2292         5.2635         4.8202         4.8813       131.7813        39.8029       481.7308
     835.15200         8.5000         8.6007      -999.2500   -999.2500000       103.8847      -999.2500       117.6934       117.7142    -999.250000    -999.250000      -999.2500         5.2518         5.2850         4.8509         4.9100       131.6118        39.8028       480.4550
     835.30440         8.5000         8.5887      -999.2500   -999.2500000       104.3020      -999.2500       108.9736       108.9270    -999.250000    -999.250000      -999.2500         5.2746         5.3068         4.8818         4.9390       131.4420        39.8028       479.1744
     835.45680         8.5000         8.5767      -999.2500   -999.2500000       104.7193      -999.2500       100.2539       100.1399    -999.250000    -999.250000      -999.2500         5.2975         5.3287         4.9127         4.9680       131.2723        39.8028       477.8939
