~Version Information Block
VERS .                 2.00:  CWLS LOG ASCII STANDARD - VERSION 2.00
WRAP .                   NO:  One line per depth step
~Well Information Block
#MNEM.UNIT        Data Type   Information
#---------- ----------------  -----------
STRT .M           527.15160:  START DEPTH
STOP .M          2099.31000:  STOP DEPTH
STEP .M             0.15240:  STEP
NULL .              -999.25:  NULL VALUE
COMP .                     :  COMPANY
WELL .            Ngatoro-8:  WELL
FLD  .                     :  FIELD
LOC  .                     :  LOCATION
CTRY .                     :  COUNTRY
STAT .                     :  STATE
CNTY .                     :  COUNTY
SRVC .     New Zealand Petroleum Co Ltd:  SERVICE COMPANY
DATE .                     :  DATE
API  .                     :  API NUMBER
UWI  .         100000210422:  UNIQUE WELL ID
LATI .          -39.2038856:  LATITUDE
LONG .          174.1703227:  LONGITUDE
~Curve Information Block
#MNEM.UNIT         API CODE   Curve Description
#---------- ----------------  -----------------
DEPTH.M                    :  
BS   .IN                   :  Bit Size (Created in Geolog)
CALI .IN                   :  Caliper (HCAL)
DENS .G/C3                 :  Bulk Density (RHOZ) and HR Bulk Density (RHO8)
DTC  .US/F                 :  Delta Time (DT)
GR   .GAPI                 :  Gamma Ray (GR) and HR Gamma Ray (HGR)
NEUT .V/V                  :  Neutron Porosity (NPHI) and HR Neutron Porosity (HTNP)
NEUT_CORR.V/V                  :  Corrected NPHI (limestone units)
PEF  .B/E                  :  Photoelectric Factor (PEF) and (PEFZ)
RESD .OHMM                 :  HALS Deep Res. (HLLD) and HR HALS Deep Res. (HRLD)
RESS .OHMM                 :  HALS Shallow Res. (HLLS) and HR HALS Shallow Res. (HRLS)
SP   .MV                   :  Spontaneous Potential (SP)
~Parameter Information Block
#MNEM.UNIT            Value   Description
#---------- ----------------  -----------
CUR_INT_BOT.M                2100:  Current interpolated bottom
PROJECT.     New Zealand Log QC Project:  
SET  .     A0_FINAL_INTER_REF_D:  
ELEVATION_AMSL.M                 328:  Elevation above mean sea level
ELEVATION_REF.                   KB:  Measurement reference
FORMATION_AT_TD.             Manganui:  Formation at TD
GL_ELEVATION_AMSL.M            322.5000:  Ground level elevation above mean sea level
LICENCE_NUMBER.             PPL38706:  Licence number
ONSHORE_OR_OFFSHORE.              Onshore:  Onshore/offshore
PR_NUMBER.               PR2216:  Petroleum report number
SPUD_DATE.           22/04/1996:  Spud date
STATUS_AT_COMPLETION.     Suspended with 7" casing cemented to TD:  Status at completion
TD_DATE.           29/04/1996:  Total depth date
TOTAL_DEPTH_DRILLED.M                2100:  Total depth drilled
~Other Information Block
# 
~A       DEPTH             BS           CALI           DENS            DTC             GR           NEUT      NEUT_CORR            PEF           RESD           RESS             SP 
# ...
    1775.30760         8.5000         8.3488         2.4150        90.1864        95.8852       0.241615       0.236474         3.2298         4.1812         4.5734        74.2181
    1775.46000         8.5000         8.3545         2.4267        89.6171        97.2616       0.234673       0.229740         3.2338         4.2250         4.6258        73.0857
    1775.61240         8.5000         8.3559         2.4362        89.6484        98.0094       0.231532       0.226569         3.2390         4.3807         4.7885        72.8091
    1775.76480         8.5000         8.3557         2.4449        89.8933        98.5335       0.229744       0.224666         3.2446         4.5761         4.9905        72.8369
    1775.91720         8.5000         8.3556         2.4536        90.1382        99.0577       0.227956       0.222763         3.2502         4.7716         5.1925        72.8648
    1776.06960         8.5000         8.3477         2.4523        89.9806        98.7196       0.229069       0.223900         3.2594         4.7726         5.2022        73.5353
    1776.22200         8.5000         8.3307         2.4392        89.3439        97.3558       0.233634       0.228654         3.2729         4.5424         4.9830        74.9704
    1776.37440         8.5000         8.3138         2.4260        88.7073        95.9921       0.238199       0.233407         3.2864         4.3121         4.7638        76.4055
    1776.52680         8.5000         8.3016         2.4217        87.5756        94.5719       0.239072       0.234446         3.3079         4.6014         5.1235        77.6871
    1776.67920         8.5000         8.3119         2.4591        84.1240        92.8878       0.222636       0.218076         3.3668         7.3257         8.1967        78.2489
    1776.83160         8.5000         8.3223         2.4965        80.6725        91.2037       0.206200       0.201706         3.4257        10.0500        11.2698        78.8107
    1776.98400         8.5000         8.3327         2.5339        77.2209        89.5196       0.189764       0.185336         3.4845        12.7743        14.3429        79.3726
    1777.13640         8.5000         8.3504         2.5329        79.6092        88.0217       0.194221       0.189509         3.4775        12.7468        14.2569        78.8037
    1777.28880         8.5000         8.3691         2.5274        82.6825        86.5456       0.201128       0.196092         3.4627        12.3965        13.8002        78.1021
    1777.44120         8.5000         8.3878         2.5220        85.7558        85.0695       0.208035       0.202674         3.4478        12.0463        13.3435        77.4006
    1777.59360         8.5000         8.3879         2.5038        87.9259        87.3030       0.216464       0.211132         3.4009        10.4137        11.5435        77.1924
    1777.74600         8.5000         8.3764         2.4778        89.5288        91.8669       0.225850       0.220769         3.3338         7.9757         8.8995        77.2943
    1777.89840         8.5000         8.3649         2.4517        91.1316        96.4308       0.235237       0.230406         3.2667         5.5376         6.2555        77.3961
    1778.05080         8.5000         8.3533         2.4301        91.7905        99.3405       0.240662       0.235979         3.2268         3.9189         4.4973        77.1205
    1778.20320         8.5000         8.3414         2.4174        90.5617        98.9417       0.238166       0.233428         3.2415         3.9388         4.5107        76.0901
    1778.35560         8.5000         8.3295         2.4047        89.3328        98.5429       0.235671       0.230876         3.2561         3.9587         4.5242        75.0596
    1778.50800         8.5000         8.3191         2.3935        88.1279        98.1309       0.232945       0.228082         3.2693         4.0204         4.5721        74.0380
    1778.66040         8.5000         8.3349         2.4092        87.3558        97.4808       0.226073       0.220903         3.2553         4.8371         5.2427        73.1752
    1778.81280         8.5000         8.3508         2.4248        86.5838        96.8307       0.219202       0.213725         3.2412         5.6538         5.9133        72.3125
    1778.96520         8.5000         8.3666         2.4405        85.8117        96.1806       0.212330       0.206547         3.2272         6.4705         6.5839        71.4497
    1779.11760         8.5000         8.3812         2.4442        86.4776        97.4408       0.216338       0.210728         3.2430         6.0594         6.2325        72.0910
    1779.27000         8.5000         8.3953         2.4443        87.5691        99.2662       0.223565       0.218270         3.2676         5.2851         5.5787        73.1773
    1779.42240         8.5000         8.4094         2.4444        88.6606       101.0916       0.230791       0.225811         3.2921         4.5108         4.9249        74.2637
    1779.57480         8.5000         8.4205         2.4473        89.2092       102.4327       0.234900       0.230098         3.3105         4.1278         4.5828        75.3168
    1779.72720         8.5000         8.4285         2.4530        89.1946       103.2713       0.235773       0.231009         3.3225         4.1507         4.5641        76.3353
    1779.87960         8.5000         8.4365         2.4588        89.1800       104.1099       0.236646       0.231919         3.3345         4.1737         4.5454        77.3539
    1780.03200         8.5000         8.4435         2.4629        89.0653       104.4191       0.237561       0.232865         3.3431         4.1889         4.5260        78.2057
    1780.18440         8.5000         8.4466         2.4607        88.5742       102.7368       0.238634       0.233945         3.3386         4.1747         4.5039        78.4299
    1780.33680         8.5000         8.4497         2.4586        88.0830       101.0545       0.239706       0.235025         3.3341         4.1606         4.4819        78.6541
    1780.48920         8.5000         8.4529         2.4565        87.5918        99.3722       0.240779       0.236106         3.3296         4.1464         4.4598        78.8783
    1780.64160         8.5000         8.4462         2.4570        87.5684        99.9240       0.240413       0.235755         3.3228         4.2093         4.5100        79.3378
    1780.79400         8.5000         8.4389         2.4577        87.5806       100.6461       0.239938       0.235296         3.3158         4.2781         4.5656        79.8153
    1780.94640         8.5000         8.4315         2.4584        87.5928       101.3683       0.239463       0.234836         3.3088         4.3468         4.6213        80.2928
    1781.09880         8.5000         8.4243         2.4594        87.7618       101.1915       0.237968       0.233284         3.3048         4.2940         4.5710        80.1180
    1781.25120         8.5000         8.4172         2.4604        88.0157       100.5269       0.235920       0.231140         3.3025         4.1752         4.4633        79.5893
    1781.40360         8.5000         8.4101         2.4614        88.2697        99.8624       0.233872       0.228995         3.3002         4.0563         4.3555        79.0606
    1781.55600         8.5000         8.4028         2.4599        88.4222        99.8587       0.232109       0.227145         3.2877         3.9791         4.2853        78.4596
    1781.70840         8.5000         8.3954         2.4540        88.4002       100.9927       0.230837       0.225802         3.2576         3.9735         4.2797        77.7342
    1781.86080         8.5000         8.3880         2.4480        88.3781       102.1266       0.229565       0.224459         3.2275         3.9678         4.2741        77.0088
    1782.01320         8.5000         8.3806         2.4426        88.3920       103.0437       0.228556       0.223392         3.2027         3.9798         4.2822        76.2675
