~Version Information Block
VERS .                 2.00:  CWLS LOG ASCII STANDARD - VERSION 2.00
WRAP .                   NO:  One line per depth step
~Well Information Block
#MNEM.UNIT        Data Type   Information
#---------- ----------------  -----------
STRT .M           514.50240:  START DEPTH
STOP .M          1925.26920:  STOP DEPTH
STEP .M             0.15240:  STEP
NULL .              -999.25:  NULL VALUE
COMP .                     :  COMPANY
WELL .            Ngatoro-6:  WELL
FLD  .                     :  FIELD
LOC  .                     :  LOCATION
CTRY .                     :  COUNTRY
STAT .                     :  STATE
CNTY .                     :  COUNTY
SRVC .     New Zealand Petroleum Co Ltd:  SERVICE COMPANY
DATE .                     :  DATE
API  .                     :  API NUMBER
UWI  .         100000210185:  UNIQUE WELL ID
LATI .          -39.2039386:  LATITUDE
LONG .          174.1707675:  LONGITUDE
~Curve Information Block
#MNEM.UNIT         API CODE   Curve Description
#---------- ----------------  -----------------
DEPTH.M                    :  
BS   .IN                   :  Bit Size (Created in Geolog)
CALI .IN                   :  CALIPER (HCAL)
DENS .G/C3                 :  Bulk Density (RHOZ) and HR Bulk Density (RHO8)
DTC  .US/F                 :  Delta Time Compressional (DTCO)
DTS  .US/F                 :  Delta-T Shear (DTSM)
GR   .GAPI                 :  Gamma Ray (GR) and HR Gamma Ray (HGR)
NEUT .V/V                  :  Neutron Porosity (NPHI) and HR Neutron Porosity (HTNP)
NEUT_CORR.V/V                  :  Corrected NPHI (limestone units)
PEF  .B/E                  :  HRDD Std Resolution Formation Photoelectric Factor (PEFZ) and (PEF8)
RESD .OHMM                 :  HALS Deep Res. (HLLD) and HR HALS Deep Res. (HRLD)
RESS .OHMM                 :  HALS Shallow Res. (HLLS) and HR HALS Shallow Res. (HRLS)
SP   .MV                   :  Spontaneous Potential (SP)
~Parameter Information Block
#MNEM.UNIT            Value   Description
#---------- ----------------  -----------
CUR_INT_BOT.M                1930:  Current interpolated bottom
PROJECT.     New Zealand Log QC Project:  
SET  .     A0_FINAL_INTER_REF_D:  
ELEVATION_AMSL.M                 328:  Elevation above mean sea level
ELEVATION_REF.                   KB:  Measurement reference
FORMATION_AT_TD.      Mount Messenger:  Formation at TD
GL_ELEVATION_AMSL.M            322.5000:  Ground level elevation above mean sea level
LICENCE_NUMBER.             PPL38706:  Licence number
ONSHORE_OR_OFFSHORE.              Onshore:  Onshore/offshore
PR_NUMBER.               PR2214:  Petroleum report number
SPUD_DATE.           27/03/1996:  Spud date
STATUS_AT_COMPLETION.     Suspended with 7" casing cemented in place:  Status at completion
TD_DATE.           04/04/1996:  Total depth date
TOTAL_DEPTH_DRILLED.M                1930:  Total depth drilled
~Other Information Block
# 
~A       DEPTH             BS           CALI           DENS            DTC            DTS             GR           NEUT      NEUT_CORR            PEF           RESD           RESS             SP 
# ...
     552.90720         8.5000      -999.2500         2.2074      -999.2500      -999.2500      -999.2500    -999.250000    -999.250000      -999.2500        14.1778        12.2041       195.6544
     553.05960         8.5000      -999.2500         2.2076      -999.2500      -999.2500      -999.2500    -999.250000    -999.250000      -999.2500        14.2769        12.3631       194.9469
     553.21200         8.5000      -999.2500         2.1999      -999.2500      -999.2500      -999.2500    -999.250000    -999.250000      -999.2500        13.8980        12.0851       193.8865
     553.36440         8.5000      -999.2500         2.1921      -999.2500      -999.2500      -999.2500    -999.250000    -999.250000      -999.2500        13.5190        11.8072       192.8262
     553.51680         8.5000      -999.2500         2.1883      -999.2500      -999.2500      -999.2500    -999.250000    -999.250000      -999.2500        13.2691        11.6252       191.7401
     553.66920         8.5000      -999.2500         2.2168      -999.2500      -999.2500      -999.2500    -999.250000    -999.250000      -999.2500        14.0601        12.2184       190.4462
     553.82160         8.5000      -999.2500         2.2453      -999.2500      -999.2500      -999.2500    -999.250000    -999.250000      -999.2500        14.8512        12.8115       189.1524
     553.97400         8.5000      -999.2500         2.2738      -999.2500      -999.2500      -999.2500    -999.250000    -999.250000      -999.2500        15.6423        13.4046       187.8586
     554.12640         8.5000      -999.2500         2.2639      -999.2500      -999.2500      -999.2500    -999.250000    -999.250000      -999.2500        15.1864        13.0675       187.5526
     554.27880         8.5000      -999.2500         2.2461      -999.2500      -999.2500      -999.2500    -999.250000    -999.250000      -999.2500        14.4741        12.5390       187.4497
     554.43120         8.5000      -999.2500         2.2283      -999.2500      -999.2500      -999.2500    -999.250000    -999.250000      -999.2500        13.7617        12.0105       187.3468
     554.58360         8.5000      -999.2500         2.2163      -999.2500      -999.2500      -999.2500    -999.250000    -999.250000      -999.2500        13.4350        11.7892       187.5121
     554.73600         8.5000      -999.2500         2.2091      -999.2500      -999.2500      -999.2500    -999.250000    -999.250000      -999.2500        13.4257        11.8206       187.8980
     554.88840         8.5000      -999.2500         2.2019      -999.2500      -999.2500      -999.2500    -999.250000    -999.250000      -999.2500        13.4163        11.8520       188.2838
     555.04080         8.5000      -999.2500         2.2011      -999.2500      -999.2500        85.5836    -999.250000    -999.250000      -999.2500        13.3978        11.8606       188.6135
     555.19320         8.5000      -999.2500         2.2176      -999.2500      -999.2500        86.4007    -999.250000    -999.250000      -999.2500        13.3541        11.8070       188.7892
     555.34560         8.5000      -999.2500         2.2342      -999.2500      -999.2500        87.2178    -999.250000    -999.250000      -999.2500        13.3103        11.7533       188.9649
     555.49800         8.5000      -999.2500         2.2507      -999.2500      -999.2500        88.0349    -999.250000    -999.250000      -999.2500        13.2666        11.6997       189.1406
     555.65040         8.5000      -999.2500         2.2488      -999.2500      -999.2500        88.0806    -999.250000    -999.250000      -999.2500        13.2316        11.6505       189.3122
     555.80280         8.5000      -999.2500         2.2467      -999.2500      -999.2500        88.1160    -999.250000    -999.250000      -999.2500        13.1968        11.6014       189.4837
     555.95520         8.5000      -999.2500         2.2445      -999.2500      -999.2500        88.1513    -999.250000    -999.250000      -999.2500        13.1620        11.5523       189.6552
     556.10760         8.5000      -999.2500         2.2364      -999.2500      -999.2500        89.2540    -999.250000    -999.250000      -999.2500        13.1287        11.4916       189.5073
     556.26000         8.5000      -999.2500         2.2257      -999.2500      -999.2500        90.8010    -999.250000    -999.250000      -999.2500        13.0960        11.4259       189.2264
     556.41240         8.5000      -999.2500         2.2151      -999.2500      -999.2500        92.3480    -999.250000    -999.250000      -999.2500        13.0634        11.3603       188.9455
     556.56480         8.5000      -999.2500         2.2084      -999.2500      -999.2500        93.1691    -999.250000    -999.250000      -999.2500        13.1217        11.3834       188.4597
     556.71720         8.5000      -999.2500         2.2072      -999.2500      -999.2500        93.0087    -999.250000    -999.250000      -999.2500        13.3032        11.5264       187.6967
     556.86960         8.5000      -999.2500         2.2060      -999.2500      -999.2500        92.8484    -999.250000    -999.250000      -999.2500        13.4847        11.6695       186.9337
     557.02200         8.5000      -999.2500         2.2045      -999.2500      -999.2500        92.9320    -999.250000    -999.250000      -999.2500        13.6362        11.7820       186.1566
     557.17440         8.5000      -999.2500         2.2011      -999.2500      -999.2500        94.4615    -999.250000    -999.250000      -999.2500        13.6096        11.7138       185.2956
     557.32680         8.5000      -999.2500         2.1976      -999.2500      -999.2500        95.9910    -999.250000    -999.250000      -999.2500        13.5831        11.6457       184.4346
     557.47920         8.5000      -999.2500         2.1942      -999.2500      -999.2500        97.5205    -999.250000    -999.250000      -999.2500        13.5566        11.5775       183.5735
     557.63160         8.5000      -999.2500         2.1903      -999.2500      -999.2500        95.7175       0.357848    -999.250000      -999.2500        13.5407        11.5835       183.0923
     557.78400         8.5000      -999.2500         2.1864      -999.2500      -999.2500        93.3878       0.354516    -999.250000      -999.2500        13.5266        11.6012       182.6711
     557.93640         8.5000      -999.2500         2.1825      -999.2500      -999.2500        91.0580       0.351183    -999.250000      -999.2500        13.5125        11.6189       182.2499
     558.08880         8.5000      -999.2500         2.1863      -999.2500      -999.2500        91.6215       0.345064    -999.250000      -999.2500        13.6044        11.6921       182.0146
     558.24120         8.5000      -999.2500         2.1957      -999.2500      -999.2500        94.2572       0.336949    -999.250000      -999.2500        13.7724        11.8051       181.9126
     558.39360         8.5000      -999.2500         2.2051      -999.2500      -999.2500        96.8929       0.328835    -999.250000      -999.2500        13.9404        11.9181       181.8106
     558.54600         8.5000      -999.2500         2.2117      -999.2500      -999.2500        98.5979       0.323426    -999.250000         2.9439        13.8901        11.8634       181.8625
     558.69840         8.5000      -999.2500         2.2120      -999.2500      -999.2500        98.1499       0.324277    -999.250000         2.9444        13.3351        11.4211       182.2704
     558.85080         8.5000      -999.2500         2.2122      -999.2500      -999.2500        97.7020       0.325128    -999.250000         2.9449        12.7801        10.9787       182.6783
     559.00320         8.5000      -999.2500         2.2125      -999.2500      -999.2500        97.2341       0.325927    -999.250000         2.9449        12.2440        10.5515       183.0819
     559.15560         8.5000      -999.2500         2.2124      -999.2500      -999.2500        95.8295       0.324279    -999.250000         2.9228        12.5864        10.8334       183.2840
