~Version Information Block
VERS .                 2.00:  CWLS LOG ASCII STANDARD - VERSION 2.00
WRAP .                   NO:  One line per depth step
~Well Information Block
#MNEM.UNIT        Data Type   Information
#---------- ----------------  -----------
STRT .M             5.63880:  START DEPTH
STOP .M          2149.90680:  STOP DEPTH
STEP .M             0.15240:  STEP
NULL .              -999.25:  NULL VALUE
COMP .                     :  COMPANY
WELL .            Ngatoro-4:  WELL
FLD  .                     :  FIELD
LOC  .                     :  LOCATION
CTRY .                     :  COUNTRY
STAT .                     :  STATE
CNTY .                     :  COUNTY
SRVC .     New Zealand Petroleum Co Ltd:  SERVICE COMPANY
DATE .                     :  DATE
API  .                     :  API NUMBER
UWI  .         100000159749:  UNIQUE WELL ID
LATI .           -39.193014:  LATITUDE
LONG .          174.1756345:  LONGITUDE
~Curve Information Block
#MNEM.UNIT         API CODE   Curve Description
#---------- ----------------  -----------------
DEPTH.M                    :  
BS   .IN                   :  Bit Size (Created in Geolog)
CALI .IN                   :  Caliper Log (CALI)
DRHO .G/C3                 :  Density Log Correction (DRHO)
DTC  .US/F                 :  Delta T (DT)
DTS  .US/F                 :  Delta T Shear Lower Dipole (DT1)
GR   .GAPI                 :  Gamma-Ray Log (GR)
GR_CORR.GAPI                 :  Gamma ray corrected
NEUT .V/V                  :  Neutron Log Porosity (NPHI)
NEUT_CORR.V/V                  :  Corrected NPHI (limestone units)
PEF  .B/E                  :  Photoelectric Factor (PEDF)
RESD .OHMM                 :  Laterolog Deep Resistivity (LLD)
RESD_CORR.OHMM                 :  Borehole corrected LLD
RESS .OHMM                 :  Shallow Laterolog (LLS)
RESS_CORR.OHMM                 :  Borehole corrected LLS
SP   .MV                   :  Spontaneous Potential Log (SP)
TEMP .DEGC                 :  Temperature (TEMP)
TENS .KGF                  :  Cable tension at surface (TENS)
~Parameter Information Block
#MNEM.UNIT            Value   Description
#---------- ----------------  -----------
CUR_INT_BOT.M                2150:  Current interpolated bottom
PROJECT.     New Zealand Log QC Project:  
SET  .     A0_FINAL_INTER_REF_D:  
ELEVATION_AMSL.M               297.7:  Elevation above mean sea level
ELEVATION_REF.                   KB:  Measurement reference
FORMATION_AT_TD.                 Moki:  Formation at TD
GL_ELEVATION_AMSL.M            292.8000:  Ground level elevation above mean sea level
LICENCE_NUMBER.             PPL38706:  Licence number
ONSHORE_OR_OFFSHORE.              Onshore:  Onshore/offshore
PR_NUMBER.               PR1914:  Petroleum report number
SPUD_DATE.           07/03/1993:  Spud date
STATUS_AT_COMPLETION.     Suspended as a potential oil producer:  Status at completion
TD_DATE.           21/03/1993:  Total depth date
TOTAL_DEPTH_DRILLED.M                2150:  Total depth drilled
~Other Information Block
# 
~A       DEPTH             BS           CALI           DRHO            DTC            DTS             GR        GR_CORR           NEUT      NEUT_CORR            PEF           RESD      RESD_CORR           RESS      RESS_CORR             SP           TEMP           TENS 
# ...
    1747.57080         8.5000         8.4951      0.0029896        56.5315        57.2025       116.0718       115.3659       0.211619       0.209723         3.1420         3.6484         3.6613         4.0879         4.1300        33.2465        63.8943       520.7756
    1747.72320         8.5000         8.4893      0.0044535        56.5273        57.1750       113.9900       113.3701       0.207893       0.206180         3.1634         3.8121         3.8259         4.2515         4.2918        33.3331        63.8991       519.5966
    1747.87560         8.5000         8.4835      0.0059173        56.5232        57.1474       111.9082       111.3743       0.204166       0.202636         3.1847         3.9758         3.9906         4.4150         4.4537        33.4198        63.9038       518.4176
    1748.02800         8.5000         8.4794      0.0069537        56.5193        57.1251       110.3207       109.8584       0.202172       0.200756         3.1973         4.0762         4.0914         4.5113         4.5488        33.5592        63.9077       517.4177
    1748.18040         8.5000         8.4833      0.0060912        56.5170        57.1254       110.9290       110.4750       0.207875       0.206268         3.1706         3.8951         3.9092         4.3085         4.3477        33.9327        63.9076       517.2132
    1748.33280         8.5000         8.4871      0.0052287        56.5146        57.1257       111.5373       111.0916       0.213578       0.211781         3.1438         3.7140         3.7269         4.1058         4.1467        34.3063        63.9076       517.0087
    1748.48520         8.5000         8.4909      0.0043662        56.5122        57.1260       112.1456       111.7081       0.219281       0.217293         3.1171         3.5329         3.5446         3.9031         3.9456        34.6798        63.9075       516.8043
    1748.63760         8.5000         8.4931      0.0057459        56.5360        57.1117       112.8409       112.3782       0.221622       0.219542         3.1101         3.4804         3.4918         3.8447         3.8878        34.6435        63.9166       517.4464
    1748.79000         8.5000         8.4950      0.0073667        56.5627        57.0958       113.5456       113.0540       0.223602       0.221439         3.1053         3.4418         3.4529         3.8019         3.8454        34.5631        63.9266       518.1796
    1748.94240         8.5000         8.4970      0.0089876        56.5893        57.0800       114.2503       113.7299       0.225581       0.223337         3.1004         3.4031         3.4140         3.7591         3.8030        34.4827        63.9366       518.9127
    1749.09480         8.5000         8.4882      0.0098615        56.5915        57.0783       113.8432       113.3481       0.223162       0.221122         3.1016         3.3995         3.4099         3.7545         3.7974        34.5097        63.9420       519.1529
    1749.24720         8.5000         8.4730      0.0102816        56.5787        57.0852       112.7606       112.3236       0.218070       0.216408         3.1066         3.4173         3.4269         3.7730         3.8141        34.6018        63.9447       519.0936
    1749.39960         8.5000         8.4578      0.0107016        56.5659        57.0921       111.6780       111.2992       0.212979       0.211695         3.1115         3.4350         3.4439         3.7916         3.8307        34.6940        63.9473       519.0342
    1749.55200         8.5000         8.4484      0.0108502        56.5540        57.0991       111.2444       110.7593       0.211252       0.210174         3.1085         3.4074         3.4155         3.7605         3.7988        34.7936        63.9533       518.5914
    1749.70440         8.5000         8.4504      0.0104745        56.5436        57.1063       112.0640       111.1547       0.216022       0.214818         3.0904         3.2924         3.2996         3.6338         3.6730        34.9074        63.9659       517.4080
    1749.85680         8.5000         8.4524      0.0100987        56.5333        57.1135       112.8836       111.5501       0.220792       0.219462         3.0722         3.1774         3.1837         3.5070         3.5472        35.0211        63.9784       516.2245
    1750.00920         8.5000         8.4542      0.0097710        56.5235        57.1199       113.3947       111.6953       0.225432       0.223980         3.0519         3.0549         3.0601         3.3724         3.4136        35.1279        63.9900       515.1830
    1750.16160         8.5000         8.4548      0.0101897        56.5228        57.1139       109.1046       107.9452       0.228049       0.226546         2.9984         2.8151         2.8177         3.1164         3.1588        35.1246        63.9866       516.3503
    1750.31400         8.5000         8.4554      0.0106084        56.5222        57.1079       104.8146       104.1952       0.230667       0.229113         2.9448         2.5753         2.5754         2.8605         2.9041        35.1214        63.9832       517.5176
    1750.46640         8.5000         8.4559      0.0110271        56.5215        57.1018       100.5246       100.4452       0.233284       0.231679         2.8913         2.3356         2.3330         2.6045         2.6493        35.1182        63.9798       518.6849
    1750.61880         8.5000         8.4541      0.0103232        56.5262        57.0908        98.4618        98.5449       0.231304       0.229771         2.8853         2.3300         2.3274         2.5988         2.6435        34.9283        63.9823       518.5717
    1750.77120         8.5000         8.4515      0.0093017        56.5324        57.0785        97.0288        97.1677       0.228025       0.226596         2.8927         2.3907         2.3886         2.6638         2.7081        34.6856        63.9863       518.0964
    1750.92360         8.5000         8.4489      0.0082803        56.5386        57.0661        95.5959        95.7906       0.224746       0.223422         2.9002         2.4513         2.4499         2.7288         2.7727        34.4429        63.9904       517.6212
    1751.07600         8.5000         8.4509      0.0083426        56.5476        57.0698        96.2496        96.2679       0.222819       0.221482         2.9048         2.5091         2.5085         2.7929         2.8366        34.2983        63.9950       518.5691
    1751.22840         8.5000         8.4576      0.0094943        56.5593        57.0896        99.0011        98.6095       0.222250       0.220782         2.9066         2.5641         2.5643         2.8559         2.8999        34.2525        64.0001       520.9479
    1751.38080         8.5000         8.4642      0.0106459        56.5710        57.1095       101.7525       100.9511       0.221681       0.220082         2.9083         2.6190         2.6201         2.9189         2.9632        34.2066        64.0052       523.3266
    1751.53320         8.5000         8.4709      0.0112296        56.5768        57.1276       103.5899       102.5156       0.219554       0.217871         2.9189         2.6643         2.6662         2.9708         3.0154        34.1522        64.0095       524.7846
    1751.68560         8.5000         8.4778      0.0097740        56.5612        57.1397       102.1458       101.2900       0.211836       0.210234         2.9609         2.6751         2.6775         2.9828         3.0280        34.0669        64.0109       522.9368
    1751.83800         8.5000         8.4847      0.0083184        56.5457        57.1517       100.7016       100.0645       0.204118       0.202597         3.0029         2.6860         2.6887         2.9948         3.0405        33.9816        64.0123       521.0890
    1751.99040         8.5000         8.4916      0.0068627        56.5301        57.1638        99.2574        98.8389       0.196400       0.194959         3.0449         2.6968         2.7000         3.0069         3.0531        33.8964        64.0137       519.2411
