~Version Information Block
VERS .                 2.00:  CWLS LOG ASCII STANDARD - VERSION 2.00
WRAP .                   NO:  One line per depth step
~Well Information Block
#MNEM.UNIT        Data Type   Information
#---------- ----------------  -----------
STRT .M           514.50240:  START DEPTH
STOP .M          1925.26920:  STOP DEPTH
STEP .M             0.15240:  STEP
NULL .              -999.25:  NULL VALUE
COMP .                     :  COMPANY
WELL .            Ngatoro-6:  WELL
FLD  .                     :  FIELD
LOC  .                     :  LOCATION
CTRY .                     :  COUNTRY
STAT .                     :  STATE
CNTY .                     :  COUNTY
SRVC .     New Zealand Petroleum Co Ltd:  SERVICE COMPANY
DATE .                     :  DATE
API  .                     :  API NUMBER
UWI  .         100000210185:  UNIQUE WELL ID
LATI .          -39.2039386:  LATITUDE
LONG .          174.1707675:  LONGITUDE
~Curve Information Block
#MNEM.UNIT         API CODE   Curve Description
#---------- ----------------  -----------------
DEPTH.M                    :  
BS   .IN                   :  Bit Size (Created in Geolog)
CALI .IN                   :  CALIPER (HCAL)
DENS .G/C3                 :  Bulk Density (RHOZ) and HR Bulk Density (RHO8)
DTC  .US/F                 :  Delta Time Compressional (DTCO)
DTS  .US/F                 :  Delta-T Shear (DTSM)
GR   .GAPI                 :  Gamma Ray (GR) and HR Gamma Ray (HGR)
NEUT .V/V                  :  Neutron Porosity (NPHI) and HR Neutron Porosity (HTNP)
NEUT_CORR.V/V                  :  Corrected NPHI (limestone units)
PEF  .B/E                  :  HRDD Std Resolution Formation Photoelectric Factor (PEFZ) and (PEF8)
RESD .OHMM                 :  HALS Deep Res. (HLLD) and HR HALS Deep Res. (HRLD)
RESS .OHMM                 :  HALS Shallow Res. (HLLS) and HR HALS Shallow Res. (HRLS)
SP   .MV                   :  Spontaneous Potential (SP)
~Parameter Information Block
#MNEM.UNIT            Value   Description
#---------- ----------------  -----------
CUR_INT_BOT.M                1930:  Current interpolated bottom
PROJECT.     New Zealand Log QC Project:  
SET  .     A0_FINAL_INTER_REF_D:  
ELEVATION_AMSL.M                 328:  Elevation above mean sea level
ELEVATION_REF.                   KB:  Measurement reference
FORMATION_AT_TD.      Mount Messenger:  Formation at TD
GL_ELEVATION_AMSL.M            322.5000:  Ground level elevation above mean sea level
LICENCE_NUMBER.             PPL38706:  Licence number
ONSHORE_OR_OFFSHORE.              Onshore:  Onshore/offshore
PR_NUMBER.               PR2214:  Petroleum report number
SPUD_DATE.           27/03/1996:  Spud date
STATUS_AT_COMPLETION.     Suspended with 7" casing cemented in place:  Status at completion
TD_DATE.           04/04/1996:  Total depth date
TOTAL_DEPTH_DRILLED.M                1930:  Total depth drilled
~Other Information Block
# 
~A       DEPTH             BS           CALI           DENS            DTC            DTS             GR           NEUT      NEUT_CORR            PEF           RESD           RESS             SP 
# ...
    1813.86480         8.5000         8.2065         2.4161        94.3881       166.3468       100.9288       0.230887       0.231829         3.1514         3.7865         3.9369       322.6476
    1814.01720         8.5000         8.1923         2.4161        94.4242       169.0172       101.5120       0.232331       0.233606         3.1500         3.8029         3.9719       322.1157
    1814.16960         8.5000         8.1721         2.4256        95.1899       170.0214       100.2149       0.227594       0.227991         3.1903         3.9639         4.1482       320.9216
    1814.32200         8.5000         8.1519         2.4351        95.9557       171.0256        98.9178       0.222857       0.222375         3.2307         4.1250         4.3245       319.7275
    1814.47440         8.5000         8.1317         2.4446        96.7215       172.0297        97.6208       0.218120       0.216760         3.2710         4.2861         4.5008       318.5334
    1814.62680         8.5000         8.1493         2.4288        96.4242       168.2552        97.2008       0.221337       0.220580         3.2636         4.2023         4.4155       317.8510
    1814.77920         8.5000         8.1746         2.4078        95.9122       163.5158        96.9580       0.226161       0.226305         3.2465         4.0691         4.2774       317.2718
    1814.93160         8.5000         8.1998         2.3869        95.4003       158.7765        96.7152       0.230984       0.232030         3.2295         3.9359         4.1393       316.6927
    1815.08400         8.5000         8.1842         2.3650        96.1348       161.2346        94.1131       0.229050       0.229874         3.1845         4.1087         4.3149       316.6596
    1815.23640         8.5000         8.1352         2.3424        97.8841       169.5534        89.5900       0.221613       0.221302         3.1168         4.5306         4.7459       317.0712
    1815.38880         8.5000         8.0862         2.3199        99.6335       177.8723        85.0669       0.214175       0.212729         3.0491         4.9525         5.1769       317.4828
    1815.54120         8.5000         8.0483         2.3035       100.4012       183.9879        82.8707       0.210670       0.208666         2.9950         5.1391         5.3758       317.3755
    1815.69360         8.5000         8.0399         2.3040        98.5193       184.1570        86.9551       0.217777       0.216774         2.9775         4.6903         4.9482       315.8678
    1815.84600         8.5000         8.0316         2.3044        96.6374       184.3261        91.0394       0.224884       0.224881         2.9600         4.2415         4.5205       314.3601
    1815.99840         8.5000         8.0233         2.3049        94.7554       184.4952        95.1237       0.231990       0.232989         2.9425         3.7927         4.0929       312.8524
    1816.15080         8.5000         8.0708         2.3364        93.9085       182.8739        98.9802       0.241625       0.242819         3.0151         3.7260         4.0158       310.8026
    1816.30320         8.5000         8.1190         2.3682        93.0725       181.2336       102.8343       0.251286       0.252667         3.0887         3.6633         3.9424       308.7471
    1816.45560         8.5000         8.1671         2.4001        92.2366       179.5933       106.6884       0.260947       0.262515         3.1623         3.6007         3.8690       306.6915
    1816.60800         8.5000         8.1916         2.4225        90.7024       177.6978       106.7467       0.254671       0.255861         3.2268         3.8064         4.0703       305.5500
    1816.76040         8.5000         8.2064         2.4411        88.8813       175.6974       105.2444       0.241842       0.242422         3.2877         4.1224         4.3844       304.7843
    1816.91280         8.5000         8.2212         2.4596        87.0601       173.6970       103.7421       0.229013       0.228982         3.3485         4.4384         4.6986       304.0186
    1817.06520         8.5000         8.1929         2.4622        86.1355       173.3579       102.1657       0.224607       0.224645         3.3522         4.5383         4.7834       303.6175
    1817.21760         8.5000         8.1069         2.4434        86.4099       175.2407       100.4901       0.231466       0.232482         3.2795         4.3493         4.5614       303.7041
    1817.37000         8.5000         8.0209         2.4245        86.6843       177.1234        98.8145       0.238324       0.240318         3.2068         4.1603         4.3394       303.7906
    1817.52240         8.5000         7.9449         2.4050        87.0334       178.8287        97.4654       0.244627       0.247428         3.1454         3.9784         4.1274       303.4795
    1817.67480         8.5000         7.9271         2.3815        87.8165       179.5039        98.0113       0.247707       0.250321         3.1498         3.8376         3.9739       300.8603
    1817.82720         8.5000         7.9093         2.3580        88.5996       180.1791        98.5572       0.250786       0.253213         3.1543         3.6969         3.8203       298.2411
    1817.97960         8.5000         7.8915         2.3344        89.3827       180.8542        99.1031       0.253865       0.256106         3.1587         3.5561         3.6668       295.6219
    1818.13200         8.5000         7.8935         2.3484        89.3963       181.3576        99.7746       0.250927       0.253432         3.1273         3.5785         3.6847       296.0937
    1818.28440         8.5000         7.8986         2.3681        89.2911       181.8344       100.4655       0.247058       0.249898         3.0903         3.6261         3.7291       297.0432
    1818.43680         8.5000         7.9036         2.3878        89.1858       182.3111       101.1564       0.243190       0.246364         3.0533         3.6738         3.7735       297.9927
    1818.58920         8.5000         7.9076         2.3946        89.4717       182.0293       101.6588       0.241517       0.244845         3.0614         3.6701         3.7611       298.2603
    1818.74160         8.5000         7.9108         2.3923        90.0346       181.2099       102.0276       0.241399       0.244754         3.1014         3.6301         3.7085       298.0450
    1818.89400         8.5000         7.9141         2.3899        90.5976       180.3905       102.3964       0.241281       0.244663         3.1414         3.5901         3.6559       297.8295
    1819.04640         8.5000         7.9174         2.3843        91.2848       180.1875       101.4185       0.239942       0.243067         3.1547         3.5556         3.6089       298.1693
    1819.19880         8.5000         7.9209         2.3713        92.2561       181.3923        97.3640       0.235813       0.238033         3.1069         3.5336         3.5745       299.7776
    1819.35120         8.5000         7.9244         2.3583        93.2274       182.5971        93.3095       0.231684       0.232999         3.0591         3.5116         3.5401       301.3859
    1819.50360         8.5000         7.9277         2.3458        94.1452       183.7612        89.3981       0.227778       0.228228         3.0125         3.4907         3.5073       302.9456
    1819.65600         8.5000         7.9213         2.3492        92.8509       183.2417        91.4009       0.233086       0.234288         3.0166         3.5134         3.5390       302.4976
    1819.80840         8.5000         7.9149         2.3527        91.5567       182.7221        93.4036       0.238394       0.240348         3.0207         3.5362         3.5708       302.0496
    1819.96080         8.5000         7.9085         2.3562        90.2624       182.2026        95.4064       0.243701       0.246408         3.0248         3.5589         3.6025       301.6016
    1820.11320         8.5000         7.9186         2.3685        89.8562       181.0484        96.9972       0.245082       0.248201         3.0391         3.6028         3.6519       300.6609
