~Version Information Block
VERS .                 2.00:  CWLS LOG ASCII STANDARD - VERSION 2.00
WRAP .                   NO:  One line per depth step
~Well Information Block
#MNEM.UNIT        Data Type   Information
#---------- ----------------  -----------
STRT .M           387.55320:  START DEPTH
STOP .M          1999.48800:  STOP DEPTH
STEP .M             0.15240:  STEP
NULL .              -999.25:  NULL VALUE
COMP .                     :  COMPANY
WELL .           Ngatoro-13:  WELL
FLD  .                     :  FIELD
LOC  .                     :  LOCATION
CTRY .                     :  COUNTRY
STAT .                     :  STATE
CNTY .                     :  COUNTY
SRVC .     Greymouth Petroleum Ltd:  SERVICE COMPANY
DATE .                     :  DATE
API  .                     :  API NUMBER
UWI  .         100000787699:  UNIQUE WELL ID
LATI .            -39.21139:  LATITUDE
LONG .            174.18349:  LONGITUDE
~Curve Information Block
#MNEM.UNIT         API CODE   Curve Description
#---------- ----------------  -----------------
DEPTH.M                    :  
BS   .IN                   :  Bit Size (Created in Geolog)
CALI .IN                   :  HRCC Cal. Caliper (HCAL)
DENS .G/C3                 :  HRDD Standard Resolution Formation Density (RHOZ) and (RHO8)
DRHO .G/C3                 :  HRDD Density Correction (HDRA)
DTC  .US/F                 :  Delta-T Compressional (DTCO)
DTS  .US/F                 :  Delta-T Shear (DTSM)
GR   .GAPI                 :  Gamma-Ray (GR) and HiRes Gamma-Ray (EHGR)
NEUT .V/V                  :  Enhanced Thermal Neutron Porosity(NPOR) and (HNPO)
PEF  .B/E                  :  HRDD Std Resolution Formation Photoelectric Factor (PEFZ) and (PEF8)
RESD .OHMM                 :  HALS Laterolog Deep R (HLLD) and HALS HiRes Deep Res (HRLD)
RESS .OHMM                 :  HALS Shallow Res. (HLLS) and HR HALS Shallow Res. (HRLS)
SP   .MV                   :  SP Shifted (SP)
TENS .KGF                  :  Cable Tension (TENS)
~Parameter Information Block
#MNEM.UNIT            Value   Description
#---------- ----------------  -----------
CUR_INT_BOT.M                2032:  Current interpolated bottom
PROJECT.     New Zealand Log QC Project:  
SET  .     A0_FINAL_INTER_REF_D:  
ELEVATION_AMSL.M              323.75:  Elevation above mean sea level
ELEVATION_REF.                   DF:  Measurement reference
FORMATION_AT_TD.                 Moki:  Formation at TD
GL_ELEVATION_AMSL.M            323.3000:  Ground level elevation above mean sea level
LICENCE_NUMBER.             PMP38148:  Licence number
ONSHORE_OR_OFFSHORE.              Onshore:  Onshore/offshore
PR_NUMBER.               PR3545:  Petroleum report number
SPUD_DATE.           28/10/2006:  Spud date
STATUS_AT_COMPLETION.     Completed ready for perforating:  Status at completion
TD_DATE.           10/11/2006:  Total depth date
TOTAL_DEPTH_DRILLED.M                2032:  Total depth drilled
~Other Information Block
# 
~A       DEPTH             BS           CALI           DENS           DRHO            DTC            DTS             GR           NEUT            PEF           RESD           RESS             SP           TENS 
# ...
    1677.31440         8.5000         8.4742         2.3447         0.0143        92.9392       203.5820        96.9769       0.265391         3.0702         5.4841         5.1809       199.7548      1502.6483
    1677.46680         8.5000         8.4914         2.4060         0.0195        91.3182       200.5986        97.8067       0.254948         3.1645         6.0300         5.7176       199.4746      1494.9688
    1677.61920         8.5000         8.5337         2.4092         0.0156        93.8105       199.2392        98.3501       0.255389         3.1589         5.9114         5.6182       199.3476      1487.7574
    1677.77160         8.5000         8.5830         2.3963         0.0091        97.4486       198.3320        98.8139       0.258861         3.1254         5.6078         5.3416       199.2632      1480.6765
    1677.92400         8.5000         8.6324         2.3834         0.0026       101.0866       197.4248        99.2776       0.262332         3.0920         5.3042         5.0651       199.1789      1473.5955
    1678.07640         8.5000         8.6443         2.3669        -0.0005       102.7094       194.4663        98.5940       0.265422         3.0485         5.0474         4.8000       199.2151      1474.4879
    1678.22880         8.5000         8.6191         2.3469        -0.0002       102.3274       189.4672        96.7691       0.268131         2.9951         4.8370         4.5464       199.3712      1483.3120
    1678.38120         8.5000         8.5939         2.3268         0.0002       101.9455       184.4681        94.9443       0.270840         2.9417         4.6266         4.2927       199.5274      1492.1361
    1678.53360         8.5000         8.5634         2.3137         0.0029       101.8346       180.6516        93.0758       0.272551         2.8998         4.4483         4.0834       199.6161      1499.6493
    1678.68600         8.5000         8.5139         2.3248         0.0141       102.6822       181.0164        91.0534       0.270735         2.8990         4.3838         4.0308       199.4665      1502.5280
    1678.83840         8.5000         8.4645         2.3360         0.0253       103.5298       181.3813        89.0309       0.268920         2.8982         4.3192         3.9781       199.3169      1505.4066
    1678.99080         8.5000         8.4150         2.3472         0.0365       104.3774       181.7461        87.0084       0.267104         2.8973         4.2547         3.9255       199.1673      1508.2853
    1679.14320         8.5000         8.4129         2.3642         0.0300       108.4006       184.0935        87.0057       0.259570         2.9341         4.6760         4.3248       198.9623      1489.1440
    1679.29560         8.5000         8.4139         2.3816         0.0223       112.6278       186.5682        87.1327       0.251668         2.9732         5.1285         4.7532       198.7538      1468.5881
    1679.44800         8.5000         8.4149         2.3990         0.0146       116.8551       189.0429        87.2598       0.243766         3.0124         5.5810         5.1815       198.5452      1448.0322
    1679.60040         8.5000         8.3957         2.3744         0.0122       118.1905       190.4698        87.7994       0.247716         2.9769         5.3739         4.9910       198.6407      1437.2527
    1679.75280         8.5000         8.3662         2.3282         0.0126       118.0282       191.3540        88.5528       0.257804         2.9028         4.8252         4.4799       198.8937      1431.5365
    1679.90520         8.5000         8.3367         2.2819         0.0129       117.8658       192.2382        89.3062       0.267892         2.8287         4.2764         3.9689       199.1468      1425.8203
    1680.05760         8.5000         8.3428         2.2671         0.0131       117.9752       193.7974        90.8385       0.273818         2.8132         3.9840         3.7033       199.3534      1427.6882
    1680.21000         8.5000         8.4074         2.3039         0.0128       118.5319       196.4673        93.6529       0.272896         2.8942         4.1132         3.8418       199.4838      1442.0387
    1680.36240         8.5000         8.4721         2.3407         0.0126       119.0885       199.1372        96.4673       0.271973         2.9751         4.2425         3.9803       199.6142      1456.3890
    1680.51480         8.5000         8.5317         2.3699         0.0119       119.4842       201.0826        99.0162       0.271288         3.0398         4.3555         4.1036       199.7386      1470.0894
    1680.66720         8.5000         8.5444         2.3283         0.0068       118.3835       196.2918        99.0977       0.272804         2.9530         4.3171         4.0858       199.8073      1477.7454
    1680.81960         8.5000         8.5572         2.2867         0.0017       117.2827       191.5010        99.1792       0.274321         2.8663         4.2787         4.0679       199.8759      1485.4014
    1680.97200         8.5000         8.5700         2.2451        -0.0034       116.1820       186.7102        99.2606       0.275837         2.7795         4.2402         4.0501       199.9446      1493.0574
    1681.12440         8.5000         8.5761         2.2788        -0.0021       115.6975       186.5385        96.8680       0.262418         2.8349         4.3000         4.1104       199.7555      1482.7007
    1681.27680         8.5000         8.5807         2.3293         0.0007       115.3518       187.4064        93.9184       0.245638         2.9222         4.3819         4.1884       199.5085      1468.2897
    1681.42920         8.5000         8.5852         2.3799         0.0035       115.0061       188.2743        90.9688       0.228858         3.0096         4.4638         4.2663       199.2615      1453.8787
    1681.58160         8.5000         8.5903         2.3806         0.0035       116.0326       191.6549        90.2806       0.226699         3.0367         4.7477         4.5647       199.1104      1441.8193
    1681.73400         8.5000         8.5959         2.3381         0.0010       118.2496       197.2156        91.5544       0.237227         3.0117         5.2070         5.0545       199.0426      1431.8003
    1681.88640         8.5000         8.6014         2.2956        -0.0016       120.4667       202.7762        92.8281       0.247755         2.9866         5.6663         5.5443       198.9748      1421.7813
    1682.03880         8.5000         8.5968         2.2598        -0.0034       120.6511       205.4594        93.3046       0.256054         2.9570         5.8487         5.7556       198.9735      1415.3436
    1682.19120         8.5000         8.5626         2.2438        -0.0034       114.8840       199.7178        91.4468       0.257826         2.9140         5.2205         5.1517       199.1670      1419.3921
    1682.34360         8.5000         8.5285         2.2278        -0.0034       109.1169       193.9761        89.5890       0.259597         2.8710         4.5924         4.5477       199.3606      1423.4404
    1682.49600         8.5000         8.4943         2.2118        -0.0033       103.3499       188.2345        87.7312       0.261369         2.8280         3.9642         3.9438       199.5541      1427.4889
    1682.64840         8.5000         8.4957         2.2664         0.0076        99.2607       181.1506        90.0290       0.255338         2.9079         4.2922         4.2743       199.3970      1430.8967
    1682.80080         8.5000         8.4982         2.3228         0.0189        95.2166       174.0306        92.4388       0.249097         2.9912         4.6459         4.6301       199.2304      1434.2874
    1682.95320         8.5000         8.5006         2.3793         0.0302        91.1726       166.9106        94.8486       0.242855         3.0744         4.9997         4.9859       199.0638      1437.6780
    1683.10560         8.5000         8.5201         2.4080         0.0330        91.0366       165.9145        95.4092       0.243878         3.0995         5.7278         5.7128       198.7297      1443.9373
