~Version Information Block
VERS .                 2.00:  CWLS LOG ASCII STANDARD - VERSION 2.00
WRAP .                   NO:  One line per depth step
~Well Information Block
#MNEM.UNIT        Data Type   Information
#---------- ----------------  -----------
STRT .M           530.50440:  START DEPTH
STOP .M          1878.48240:  STOP DEPTH
STEP .M             0.15240:  STEP
NULL .              -999.25:  NULL VALUE
COMP .                     :  COMPANY
WELL .            Ngatoro-7:  WELL
FLD  .                     :  FIELD
LOC  .                     :  LOCATION
CTRY .                     :  COUNTRY
STAT .                     :  STATE
CNTY .                     :  COUNTY
SRVC .     New Zealand Petroleum Co Ltd:  SERVICE COMPANY
DATE .                     :  DATE
API  .                     :  API NUMBER
UWI  .         100000210191:  UNIQUE WELL ID
LATI .          -39.2039075:  LATITUDE
LONG .          174.1707218:  LONGITUDE
~Curve Information Block
#MNEM.UNIT         API CODE   Curve Description
#---------- ----------------  -----------------
DEPTH.M                    :  
BS   .IN                   :  Bit Size (Created in Geolog)
CALI .IN                   :  Caliper (HCAL)
DENS .G/C3                 :  Bulk Density (RHOZ) and HR Bulk Density (RHO8)
DTC  .US/F                 :  Delta Time (DTC)
GR   .GAPI                 :  Gamma Ray (GR) and HR Gamma Ray (HGR)
NEUT .V/V                  :  Neutron Porosity (NPHI) and HR Neutron Porosity (HTNP)
NEUT_CORR.V/V                  :  Corrected NPHI (limestone units)
PEF  .B/E                  :  HRDD Std Resolution Formation Photoelectric Factor (PEFZ) and (PEF8)
RESD .OHMM                 :  HALS Deep Res. (HLLD) and HR HALS Deep Res. (HRLD)
RESS .OHMM                 :  HALS Shallow Res. (HLLS) and HR HALS Shallow Res. (HRLS)
SP   .MV                   :  Spontaneous Potential (SP)
~Parameter Information Block
#MNEM.UNIT            Value   Description
#---------- ----------------  -----------
CUR_INT_BOT.M                1879:  Current interpolated bottom
PROJECT.     New Zealand Log QC Project:  
SET  .     A0_FINAL_INTER_REF_D:  
ELEVATION_AMSL.M                 327:  Elevation above mean sea level
ELEVATION_REF.                   KB:  Measurement reference
FORMATION_AT_TD.      Mount Messenger:  Formation at TD
GL_ELEVATION_AMSL.M            321.4000:  Ground level elevation above mean sea level
LICENCE_NUMBER.             PPL38706:  Licence number
ONSHORE_OR_OFFSHORE.              Onshore:  Onshore/offshore
PR_NUMBER.               PR2215:  Petroleum report number
SPUD_DATE.           09/04/1996:  Spud date
STATUS_AT_COMPLETION.     Suspended with 7" casing cemented in place:  Status at completion
TD_DATE.           18/04/1996:  Total depth date
TOTAL_DEPTH_DRILLED.M                1879:  Total depth drilled
~Other Information Block
# 
~A       DEPTH             BS           CALI           DENS            DTC             GR           NEUT      NEUT_CORR            PEF           RESD           RESS             SP 
# ...
    1511.19840         8.5000         8.7240         2.4004        79.3245        98.5674       0.278078       0.277836         3.3900         3.1789         3.7245       145.6366
    1511.35080         8.5000         8.7165         2.4002        81.4254        98.0287       0.269618       0.268267         3.4029         3.3048         3.9092       146.4539
    1511.50320         8.5000         8.7093         2.4001        83.4694        97.4428       0.261351       0.258912         3.4155         3.4274         4.0899       147.2394
    1511.65560         8.5000         8.7184         2.4056        82.8606        94.6561       0.262068       0.259555         3.4099         3.4036         4.0843       146.5408
    1511.80800         8.5000         8.7274         2.4111        82.2518        91.8694       0.262785       0.260197         3.4043         3.3797         4.0786       145.8423
    1511.96040         8.5000         8.7365         2.4167        81.6431        89.0827       0.263503       0.260840         3.3987         3.3559         4.0729       145.1438
    1512.11280         8.5000         8.7363         2.4392        82.5107        88.2521       0.253617       0.250851         3.4152         3.4975         4.2455       144.6553
    1512.26520         8.5000         8.7329         2.4677        83.8965        88.1081       0.240008       0.237128         3.4394         3.6973         4.4806       144.2406
    1512.41760         8.5000         8.7295         2.4963        85.2824        87.9642       0.226400       0.223406         3.4637         3.8971         4.7158       143.8260
    1512.57000         8.5000         8.7250         2.5012        87.7137        88.2574       0.225097       0.222335         3.4836         4.1173         4.9894       143.8670
    1512.72240         8.5000         8.7192         2.4784        91.3754        89.0654       0.238280       0.236156         3.4985         4.3615         5.3081       144.4445
    1512.87480         8.5000         8.7134         2.4555        95.0372        89.8733       0.251463       0.249977         3.5133         4.6058         5.6269       145.0221
    1513.02720         8.5000         8.7158         2.4322        98.0490        90.8079       0.263451       0.262528         3.5084         4.6744         5.7229       145.3544
    1513.17960         8.5000         8.7553         2.4065        98.0692        92.3256       0.269937       0.269237         3.4128         3.9346         4.7938       144.5583
    1513.33200         8.5000         8.7948         2.3808        98.0894        93.8433       0.276423       0.275946         3.3172         3.1948         3.8647       143.7621
    1513.48440         8.5000         8.8343         2.3551        98.1096        95.3610       0.282909       0.282655         3.2216         2.4549         2.9356       142.9660
    1513.63680         8.5000         8.8020         2.3528        97.1479        96.0334       0.285261       0.285390         3.2245         2.4776         2.9316       142.3686
    1513.78920         8.5000         8.7616         2.3533        96.0742        96.6094       0.287143       0.287672         3.2387         2.5873         3.0331       141.7939
    1513.94160         8.5000         8.7212         2.3538        95.0005        97.1854       0.289024       0.289955         3.2529         2.6970         3.1346       141.2192
    1514.09400         8.5000         8.7114         2.3599        94.7652        96.6094       0.287451       0.288115         3.2907         2.7616         3.1707       141.1782
    1514.24640         8.5000         8.7207         2.3695        95.0507        95.3178       0.283732       0.283715         3.3434         2.7983         3.1662       141.4689
    1514.39880         8.5000         8.7300         2.3791        95.3361        94.0262       0.280013       0.279315         3.3960         2.8350         3.1617       141.7596
    1514.55120         8.5000         8.7236         2.3800        95.6919        93.1029       0.276118       0.274863         3.4163         2.8585         3.1449       142.0598
    1514.70360         8.5000         8.6860         2.3638        96.1867        92.9074       0.271872       0.270305         3.3728         2.8557         3.1038       142.3789
    1514.85600         8.5000         8.6484         2.3476        96.6815        92.7120       0.267627       0.265748         3.3293         2.8530         3.0628       142.6980
    1515.00840         8.5000         8.6132         2.3299        97.1088        92.2987       0.263699       0.261523         3.2838         2.8384         3.0117       143.0160
    1515.16080         8.5000         8.6182         2.2869        96.3793        88.1488       0.265210       0.262996         3.2033         2.6212         2.7889       143.3163
    1515.31320         8.5000         8.6232         2.2438        95.6499        83.9990       0.266721       0.264470         3.1228         2.4041         2.5662       143.6166
    1515.46560         8.5000         8.6281         2.2007        94.9204        79.8492       0.268232       0.265943         3.0423         2.1869         2.3435       143.9169
    1515.61800         8.5000         8.6404         2.1995        94.7955        78.1160       0.274485       0.273126         3.0515         2.0855         2.2484       143.6561
    1515.77040         8.5000         8.6547         2.2106        94.8468        77.0873       0.282120       0.281972         3.0869         2.0178         2.1906       143.2318
    1515.92280         8.5000         8.6691         2.2216        94.8981        76.0585       0.289756       0.290819         3.1222         1.9501         2.1328       142.8075
    1516.07520         8.5000         8.6974         2.2498        94.5362        75.8216       0.291325       0.292571         3.1543         1.9805         2.1664       142.6326
    1516.22760         8.5000         8.7401         2.2956        93.7500        76.3974       0.286668       0.287040         3.1831         2.1116         2.2938       142.7135
    1516.38000         8.5000         8.7828         2.3413        92.9639        76.9732       0.282010       0.281509         3.2118         2.2428         2.4212       142.7944
    1516.53240         8.5000         8.8104         2.3769        92.3451        78.5080       0.278397       0.277240         3.2401         2.3617         2.5402       142.7516
    1516.68480         8.5000         8.7819         2.3746        92.3466        83.5944       0.278652       0.277645         3.2667         2.4356         2.6281       142.2503
    1516.83720         8.5000         8.7534         2.3723        92.3480        88.6809       0.278907       0.278050         3.2933         2.5095         2.7159       141.7490
    1516.98960         8.5000         8.7249         2.3700        92.3495        93.7674       0.279162       0.278455         3.3199         2.5835         2.8037       141.2477
    1517.14200         8.5000         8.7569         2.3818        93.4926        93.0901       0.277544       0.276431         3.3513         2.6071         2.8410       141.5049
    1517.29440         8.5000         8.7932         2.3946        94.7194        91.9908       0.275789       0.274228         3.3832         2.6270         2.8746       141.8178
    1517.44680         8.5000         8.8296         2.4075        95.9461        90.8914       0.274033       0.272025         3.4150         2.6470         2.9081       142.1306
    1517.59920         8.5000         8.8178         2.4083        96.6588        92.1046       0.275138       0.273385         3.4132         2.6892         2.9537       142.5037
    1517.75160         8.5000         8.7802         2.4026        97.0958        94.5581       0.277776       0.276656         3.3934         2.7435         3.0058       142.9091
    1517.90400         8.5000         8.7426         2.3969        97.5327        97.0115       0.280414       0.279926         3.3735         2.7977         3.0579       143.3144
