~Version Information Block
VERS .                 2.00:  CWLS LOG ASCII STANDARD - VERSION 2.00
WRAP .                   NO:  One line per depth step
~Well Information Block
#MNEM.UNIT        Data Type   Information
#---------- ----------------  -----------
STRT .M             5.63880:  START DEPTH
STOP .M          2149.90680:  STOP DEPTH
STEP .M             0.15240:  STEP
NULL .              -999.25:  NULL VALUE
COMP .                     :  COMPANY
WELL .            Ngatoro-4:  WELL
FLD  .                     :  FIELD
LOC  .                     :  LOCATION
CTRY .                     :  COUNTRY
STAT .                     :  STATE
CNTY .                     :  COUNTY
SRVC .     New Zealand Petroleum Co Ltd:  SERVICE COMPANY
DATE .                     :  DATE
API  .                     :  API NUMBER
UWI  .         100000159749:  UNIQUE WELL ID
LATI .           -39.193014:  LATITUDE
LONG .          174.1756345:  LONGITUDE
~Curve Information Block
#MNEM.UNIT         API CODE   Curve Description
#---------- ----------------  -----------------
DEPTH.M                    :  
BS   .IN                   :  Bit Size (Created in Geolog)
CALI .IN                   :  Caliper Log (CALI)
DRHO .G/C3                 :  Density Log Correction (DRHO)
DTC  .US/F                 :  Delta T (DT)
DTS  .US/F                 :  Delta T Shear Lower Dipole (DT1)
GR   .GAPI                 :  Gamma-Ray Log (GR)
GR_CORR.GAPI                 :  Gamma ray corrected
NEUT .V/V                  :  Neutron Log Porosity (NPHI)
NEUT_CORR.V/V                  :  Corrected NPHI (limestone units)
PEF  .B/E                  :  Photoelectric Factor (PEDF)
RESD .OHMM                 :  Laterolog Deep Resistivity (LLD)
RESD_CORR.OHMM                 :  Borehole corrected LLD
RESS .OHMM                 :  Shallow Laterolog (LLS)
RESS_CORR.OHMM                 :  Borehole corrected LLS
SP   .MV                   :  Spontaneous Potential Log (SP)
TEMP .DEGC                 :  Temperature (TEMP)
TENS .KGF                  :  Cable tension at surface (TENS)
~Parameter Information Block
#MNEM.UNIT            Value   Description
#---------- ----------------  -----------
CUR_INT_BOT.M                2150:  Current interpolated bottom
PROJECT.     New Zealand Log QC Project:  
SET  .     A0_FINAL_INTER_REF_D:  
ELEVATION_AMSL.M               297.7:  Elevation above mean sea level
ELEVATION_REF.                   KB:  Measurement reference
FORMATION_AT_TD.                 Moki:  Formation at TD
GL_ELEVATION_AMSL.M            292.8000:  Ground level elevation above mean sea level
LICENCE_NUMBER.             PPL38706:  Licence number
ONSHORE_OR_OFFSHORE.              Onshore:  Onshore/offshore
PR_NUMBER.               PR1914:  Petroleum report number
SPUD_DATE.           07/03/1993:  Spud date
STATUS_AT_COMPLETION.     Suspended as a potential oil producer:  Status at completion
TD_DATE.           21/03/1993:  Total depth date
TOTAL_DEPTH_DRILLED.M                2150:  Total depth drilled
~Other Information Block
# 
~A       DEPTH             BS           CALI           DRHO            DTC            DTS             GR        GR_CORR           NEUT      NEUT_CORR            PEF           RESD      RESD_CORR           RESS      RESS_CORR             SP           TEMP           TENS 
# ...
     714.29880         8.5000      -999.2500      0.0043369      -999.2500      -999.2500        87.7380      -999.2500       0.281181    -999.250000         2.8167        13.9530      -999.2500         8.8317      -999.2500      -999.2500      -999.2500       353.8394
     714.45120         8.5000      -999.2500      0.0047527      -999.2500      -999.2500        89.2756      -999.2500       0.283118    -999.250000         2.8169        14.1536      -999.2500         9.0590      -999.2500      -999.2500      -999.2500       353.9114
     714.60360         8.5000      -999.2500      0.0052311      -999.2500      -999.2500        90.5787      -999.2500       0.279527    -999.250000         2.8173        14.2589      -999.2500         9.1781      -999.2500      -999.2500      -999.2500       353.7983
     714.75600         8.5000      -999.2500      0.0057391      -999.2500      -999.2500        91.7713      -999.2500       0.273333    -999.250000         2.8179        14.3194      -999.2500         9.2462      -999.2500      -999.2500      -999.2500       353.5980
     714.90840         8.5000      -999.2500      0.0062471      -999.2500      -999.2500        92.9640      -999.2500       0.267139    -999.250000         2.8184        14.3798      -999.2500         9.3144      -999.2500      -999.2500      -999.2500       353.3977
     715.06080         8.5000      -999.2500      0.0063080      -999.2500      -999.2500        91.5899      -999.2500       0.259638    -999.250000         2.8260        14.7726      -999.2500         9.4646      -999.2500      -999.2500      -999.2500       353.4078
     715.21320         8.5000      -999.2500      0.0056955      -999.2500      -999.2500        86.3488      -999.2500       0.250168    -999.250000         2.8445        15.6660      -999.2500         9.7386      -999.2500      -999.2500      -999.2500       353.7348
     715.36560         8.5000      -999.2500      0.0050830      -999.2500      -999.2500        81.1077      -999.2500       0.240697    -999.250000         2.8629        16.5594      -999.2500        10.0126      -999.2500      -999.2500      -999.2500       354.0619
     715.51800         8.5000      -999.2500      0.0046176      -999.2500      -999.2500        76.5776        77.4827       0.234475       0.237017         2.8713        17.3276      -999.2500        10.2631      -999.2500      -999.2500      -999.2500       354.3294
     715.67040         8.5000      -999.2500      0.0052505      -999.2500      -999.2500        77.3567        77.9588       0.252498       0.253716         2.8044        17.1609      -999.2500        10.3381      -999.2500      -999.2500      -999.2500       354.1523
     715.82280         8.5000      -999.2500      0.0058835      -999.2500      -999.2500        78.1357        78.4348       0.270521       0.270415         2.7375        16.9942      -999.2500        10.4131      -999.2500      -999.2500      -999.2500       353.9753
     715.97520         8.5000      -999.2500      0.0065165      -999.2500      -999.2500        78.9148        78.9109       0.288544       0.287115         2.6707        16.8275      -999.2500        10.4882      -999.2500      -999.2500      -999.2500       353.7982
     716.12760         8.5000      -999.2500      0.0057055      -999.2500      -999.2500        80.1056        79.9711       0.294718       0.293392         2.6373        16.7877      -999.2500        10.8135      -999.2500      -999.2500      -999.2500       353.8146
     716.28000         8.5000      -999.2500      0.0046139      -999.2500      -999.2500        81.3764        81.1448       0.298590       0.297643         2.6104        16.7726      -999.2500        11.1875      -999.2500      -999.2500      -999.2500       353.8686
     716.43240         8.5000      -999.2500      0.0035224      -999.2500      -999.2500        82.6471        82.3186       0.302462       0.301894         2.5835        16.7576      -999.2500        11.5615      -999.2500      -999.2500      -999.2500       353.9226
     716.58480         8.5000      -999.2500      0.0030569      -999.2500      -999.2500        82.3923        82.1584       0.304432       0.304047         2.5792        16.8934      -999.2500        11.8752      -999.2500      -999.2500      -999.2500       354.0569
     716.73720         8.5000      -999.2500      0.0030906      -999.2500      -999.2500        80.9213        80.9350       0.304885       0.304526         2.5928        17.1496      -999.2500        12.1408      -999.2500      -999.2500      -999.2500       354.2552
     716.88960         8.5000      -999.2500      0.0031243      -999.2500      -999.2500        79.4503        79.7116       0.305339       0.305005         2.6064        17.4058      -999.2500        12.4064      -999.2500      -999.2500      -999.2500       354.4535
     717.04200         8.5000         8.5215      0.0028359      -999.2500      -999.2500        78.2698        78.5861       0.302158       0.301709         2.6158        17.5312        17.5194        12.4660        12.4925      -999.2500      -999.2500       354.5860
     717.19440         8.5000         8.5215      0.0017008      -999.2500      -999.2500        77.8530        77.7181       0.289427       0.288488         2.6141        17.3125        17.3034        11.9845        12.0148      -999.2500      -999.2500       354.5455
     717.34680         8.5000         8.5214      0.0005658      -999.2500      -999.2500        77.4361        76.8501       0.276695       0.275267         2.6124        17.0939        17.0875        11.5029        11.5370      -999.2500      -999.2500       354.5050
     717.49920         8.5000         8.5214     -0.0005693      -999.2500      -999.2500        77.0192        75.9820       0.263963       0.262047         2.6108        16.8752        16.8715        11.0214        11.0593      -999.2500      -999.2500       354.4645
     717.65160         8.5000         8.5717      0.0049456      -999.2500      -999.2500        70.9544        70.5884       0.229482       0.226392         2.8701        23.7491        23.5996        13.9503        14.0015      -999.2500      -999.2500       354.6158
     717.80400         8.5000         8.6222      0.0104955      -999.2500      -999.2500        64.8599        65.1708       0.194885       0.190619         3.1309        30.6605        30.3643        16.8971        16.9618      -999.2500      -999.2500       354.7679
     717.95640         8.5000         8.6727      0.0160455      -999.2500      -999.2500        58.7653        59.7532       0.160289       0.154846         3.3916        37.5719        37.1291        19.8440        19.9221      -999.2500      -999.2500       354.9202
     718.10880         8.5000         8.6488      0.0170516      -999.2500      -999.2500        58.5263        59.3704       0.171094       0.165105         3.3632        37.9886        37.5325        19.6287        19.6904      -999.2500      -999.2500       356.3346
     718.26120         8.5000         8.5949      0.0162368      -999.2500      -999.2500        60.6338        61.0053       0.200095       0.193810         3.2188        35.8026        35.3867        18.1462        18.1797      -999.2500      -999.2500       358.2549
     718.41360         8.5000         8.5411      0.0154220      -999.2500      -999.2500        62.7413        62.6401       0.229095       0.222515         3.0745        33.6167        33.2408        16.6637        16.6689      -999.2500      -999.2500       360.1751
     718.56600         8.5000         8.5081      0.0135248      -999.2500      -999.2500        65.0647        64.8092       0.252879       0.245998         2.9319        30.3154        30.0075        15.1120        15.1066      -999.2500      -999.2500       360.3871
     718.71840         8.5000         8.5023      0.0102107      -999.2500      -999.2500        67.6706        67.6777       0.269834       0.262644         2.7914        25.5539        25.3504        13.4697        13.4769      -999.2500      -999.2500       358.3629
