~Version Information Block
VERS .                 2.00:  CWLS LOG ASCII STANDARD - VERSION 2.00
WRAP .                   NO:  One line per depth step
~Well Information Block
#MNEM.UNIT        Data Type   Information
#---------- ----------------  -----------
STRT .M           530.50440:  START DEPTH
STOP .M          1878.48240:  STOP DEPTH
STEP .M             0.15240:  STEP
NULL .              -999.25:  NULL VALUE
COMP .                     :  COMPANY
WELL .            Ngatoro-7:  WELL
FLD  .                     :  FIELD
LOC  .                     :  LOCATION
CTRY .                     :  COUNTRY
STAT .                     :  STATE
CNTY .                     :  COUNTY
SRVC .     New Zealand Petroleum Co Ltd:  SERVICE COMPANY
DATE .                     :  DATE
API  .                     :  API NUMBER
UWI  .         100000210191:  UNIQUE WELL ID
LATI .          -39.2039075:  LATITUDE
LONG .          174.1707218:  LONGITUDE
~Curve Information Block
#MNEM.UNIT         API CODE   Curve Description
#---------- ----------------  -----------------
DEPTH.M                    :  
BS   .IN                   :  Bit Size (Created in Geolog)
CALI .IN                   :  Caliper (HCAL)
DENS .G/C3                 :  Bulk Density (RHOZ) and HR Bulk Density (RHO8)
DTC  .US/F                 :  Delta Time (DTC)
GR   .GAPI                 :  Gamma Ray (GR) and HR Gamma Ray (HGR)
NEUT .V/V                  :  Neutron Porosity (NPHI) and HR Neutron Porosity (HTNP)
NEUT_CORR.V/V                  :  Corrected NPHI (limestone units)
PEF  .B/E                  :  HRDD Std Resolution Formation Photoelectric Factor (PEFZ) and (PEF8)
RESD .OHMM                 :  HALS Deep Res. (HLLD) and HR HALS Deep Res. (HRLD)
RESS .OHMM                 :  HALS Shallow Res. (HLLS) and HR HALS Shallow Res. (HRLS)
SP   .MV                   :  Spontaneous Potential (SP)
~Parameter Information Block
#MNEM.UNIT            Value   Description
#---------- ----------------  -----------
CUR_INT_BOT.M                1879:  Current interpolated bottom
PROJECT.     New Zealand Log QC Project:  
SET  .     A0_FINAL_INTER_REF_D:  
ELEVATION_AMSL.M                 327:  Elevation above mean sea level
ELEVATION_REF.                   KB:  Measurement reference
FORMATION_AT_TD.      Mount Messenger:  Formation at TD
GL_ELEVATION_AMSL.M            321.4000:  Ground level elevation above mean sea level
LICENCE_NUMBER.             PPL38706:  Licence number
ONSHORE_OR_OFFSHORE.              Onshore:  Onshore/offshore
PR_NUMBER.               PR2215:  Petroleum report number
SPUD_DATE.           09/04/1996:  Spud date
STATUS_AT_COMPLETION.     Suspended with 7" casing cemented in place:  Status at completion
TD_DATE.           18/04/1996:  Total depth date
TOTAL_DEPTH_DRILLED.M                1879:  Total depth drilled
~Other Information Block
# 
~A       DEPTH             BS           CALI           DENS            DTC             GR           NEUT      NEUT_CORR            PEF           RESD           RESS             SP 
# ...
    1339.74840         8.5000         9.2760         2.3888      -999.2500        99.2686       0.301778       0.300002         3.4043         2.4258         2.6261       140.4041
    1339.90080         8.5000         9.2730         2.3876      -999.2500        99.5643       0.307153       0.304997         3.4114         2.4248         2.6236       140.3180
    1340.05320         8.5000         9.2707         2.3860      -999.2500       100.2412       0.312696       0.310509         3.4100         2.4233         2.6205       140.1596
    1340.20560         8.5000         9.2694         2.3838      -999.2500       101.6288       0.318556       0.316985         3.3925         2.4209         2.6166       139.8661
    1340.35800         8.5000         9.2682         2.3816      -999.2500       103.0164       0.324415       0.323461         3.3751         2.4186         2.6127       139.5726
    1340.51040         8.5000         9.2673         2.3797      -999.2500       104.3538       0.329606       0.329167         3.3611         2.4167         2.6092       139.3228
    1340.66280         8.5000         9.2722         2.3827      -999.2500       105.0072       0.325655       0.324369         3.3932         2.4200         2.6128       139.6684
    1340.81520         8.5000         9.2771         2.3857      -999.2500       105.6605       0.321704       0.319570         3.4252         2.4234         2.6163       140.0139
    1340.96760         8.5000         9.2819         2.3887      -999.2500       106.3138       0.317753       0.314772         3.4573         2.4267         2.6199       140.3595
    1341.12000         8.5000         9.2934         2.3889      -999.2500       105.9202       0.316230       0.313109         3.4600         2.4235         2.6164       140.3691
    1341.27240         8.5000         9.3066         2.3884      -999.2500       105.2439       0.315362       0.312291         3.4548         2.4185         2.6111       140.2880
    1341.42480         8.5000         9.3199         2.3880      -999.2500       104.5676       0.314494       0.311474         3.4496         2.4136         2.6058       140.2069
    1341.57720         8.5000         9.3194         2.3890      -999.2500       103.4581       0.314473       0.311459         3.4467         2.4089         2.6011       140.2804
    1341.72960         8.5000         9.3056         2.3915      -999.2500       101.9266       0.315277       0.312226         3.4458         2.4045         2.5969       140.5045
    1341.88200         8.5000         9.2917         2.3940      -999.2500       100.3951       0.316081       0.312993         3.4450         2.4002         2.5927       140.7285
    1342.03440         8.5000         9.2808         2.3953      -999.2500        99.0432       0.315319       0.312337         3.4432         2.3986         2.5914       140.9191
    1342.18680         8.5000         9.2799         2.3926      -999.2500        98.3077       0.309186       0.306803         3.4385         2.4065         2.5999       140.9946
    1342.33920         8.5000         9.2789         2.3899      -999.2500        97.5722       0.303052       0.301268         3.4338         2.4144         2.6085       141.0702
    1342.49160         8.5000         9.2780         2.3871      -999.2500        96.8367       0.296918       0.295734         3.4290         2.4223         2.6171       141.1457
    1342.64400         8.5000         9.2866         2.3868      -999.2500        97.3598       0.300883       0.299267         3.4365         2.4181         2.6124       140.9727
    1342.79640         8.5000         9.2957         2.3866      -999.2500        97.9562       0.305436       0.303330         3.4447         2.4133         2.6069       140.7853
    1342.94880         8.5000         9.3049         2.3864      -999.2500        98.5527       0.309990       0.307393         3.4529         2.4084         2.6014       140.5979
    1343.10120         8.5000         9.3209         2.3851      -999.2500        99.4662       0.313861       0.311237         3.4558         2.4055         2.5980       140.4689
    1343.25360         8.5000         9.3403         2.3831      -999.2500       100.5401       0.317387       0.314971         3.4560         2.4035         2.5957       140.3696
    1343.40600         8.5000         9.3598         2.3811      -999.2500       101.6140       0.320913       0.318704         3.4561         2.4015         2.5934       140.2702
    1343.55840         8.5000         9.3706         2.3801      -999.2500       102.1566       0.323685       0.321740         3.4508         2.4029         2.5945       140.1422
    1343.71080         8.5000         9.3675         2.3808      -999.2500       101.8440       0.325244       0.323652         3.4368         2.4097         2.6010       139.9679
    1343.86320         8.5000         9.3643         2.3815      -999.2500       101.5314       0.326802       0.325565         3.4227         2.4165         2.6075       139.7936
    1344.01560         8.5000         9.3616         2.3823      -999.2500       101.3592       0.328215       0.327304         3.4135         2.4231         2.6139       139.7267
    1344.16800         8.5000         9.3632         2.3841      -999.2500       102.4180       0.328361       0.327524         3.4465         2.4283         2.6197       140.6011
    1344.32040         8.5000         9.3648         2.3859      -999.2500       103.4768       0.328507       0.327744         3.4795         2.4335         2.6255       141.4754
    1344.47280         8.5000         9.3663         2.3877      -999.2500       104.5356       0.328654       0.327964         3.5125         2.4386         2.6313       142.3497
    1344.62520         8.5000         9.3399         2.3886      -999.2500       105.6420       0.321932       0.321088         3.5018         2.4369         2.6305       142.1488
    1344.77760         8.5000         9.3073         2.3894      -999.2500       106.7588       0.313718       0.312671         3.4815         2.4337         2.6282       141.7142
    1344.93000         8.5000         9.2747         2.3901      -999.2500       107.8755       0.305504       0.304254         3.4612         2.4305         2.6260       141.2797
    1345.08240         8.5000         9.2592         2.3903      -999.2500       107.5537       0.302815       0.301335         3.4606         2.4230         2.6196       141.2225
    1345.23480         8.5000         9.2583         2.3901      -999.2500       106.0097       0.304818       0.303086         3.4766         2.4119         2.6097       141.4859
    1345.38720         8.5000         9.2573         2.3898      -999.2500       104.4658       0.306821       0.304837         3.4926         2.4008         2.5998       141.7492
    1345.53960         8.5000         9.2577         2.3888      -999.2500       103.1827       0.309992       0.307961         3.5039         2.3875         2.5864       141.8709
    1345.69200         8.5000         9.2617         2.3859      -999.2500       102.6428       0.316493       0.314994         3.5021         2.3678         2.5633       141.5887
    1345.84440         8.5000         9.2658         2.3830      -999.2500       102.1029       0.322993       0.322027         3.5003         2.3481         2.5403       141.3066
    1345.99680         8.5000         9.2698         2.3801      -999.2500       101.5630       0.329493       0.329061         3.4985         2.3284         2.5172       141.0245
    1346.14920         8.5000         9.2770         2.3996      -999.2500        98.3180       0.315824       0.314718         3.5320         2.4035         2.5904       140.8936
    1346.30160         8.5000         9.2842         2.4196      -999.2500        95.0150       0.301722       0.299917         3.5663         2.4806         2.6656       140.7660
    1346.45400         8.5000         9.2914         2.4397      -999.2500        91.7120       0.287620       0.285115         3.6006         2.5577         2.7409       140.6384
