~Version Information Block
VERS .                 2.00:  CWLS LOG ASCII STANDARD - VERSION 2.00
WRAP .                   NO:  One line per depth step
~Well Information Block
#MNEM.UNIT        Data Type   Information
#---------- ----------------  -----------
STRT .M           514.50240:  START DEPTH
STOP .M          1925.26920:  STOP DEPTH
STEP .M             0.15240:  STEP
NULL .              -999.25:  NULL VALUE
COMP .                     :  COMPANY
WELL .            Ngatoro-6:  WELL
FLD  .                     :  FIELD
LOC  .                     :  LOCATION
CTRY .                     :  COUNTRY
STAT .                     :  STATE
CNTY .                     :  COUNTY
SRVC .     New Zealand Petroleum Co Ltd:  SERVICE COMPANY
DATE .                     :  DATE
API  .                     :  API NUMBER
UWI  .         100000210185:  UNIQUE WELL ID
LATI .          -39.2039386:  LATITUDE
LONG .          174.1707675:  LONGITUDE
~Curve Information Block
#MNEM.UNIT         API CODE   Curve Description
#---------- ----------------  -----------------
DEPTH.M                    :  
BS   .IN                   :  Bit Size (Created in Geolog)
CALI .IN                   :  CALIPER (HCAL)
DENS .G/C3                 :  Bulk Density (RHOZ) and HR Bulk Density (RHO8)
DTC  .US/F                 :  Delta Time Compressional (DTCO)
DTS  .US/F                 :  Delta-T Shear (DTSM)
GR   .GAPI                 :  Gamma Ray (GR) and HR Gamma Ray (HGR)
NEUT .V/V                  :  Neutron Porosity (NPHI) and HR Neutron Porosity (HTNP)
NEUT_CORR.V/V                  :  Corrected NPHI (limestone units)
PEF  .B/E                  :  HRDD Std Resolution Formation Photoelectric Factor (PEFZ) and (PEF8)
RESD .OHMM                 :  HALS Deep Res. (HLLD) and HR HALS Deep Res. (HRLD)
RESS .OHMM                 :  HALS Shallow Res. (HLLS) and HR HALS Shallow Res. (HRLS)
SP   .MV                   :  Spontaneous Potential (SP)
~Parameter Information Block
#MNEM.UNIT            Value   Description
#---------- ----------------  -----------
CUR_INT_BOT.M                1930:  Current interpolated bottom
PROJECT.     New Zealand Log QC Project:  
SET  .     A0_FINAL_INTER_REF_D:  
ELEVATION_AMSL.M                 328:  Elevation above mean sea level
ELEVATION_REF.                   KB:  Measurement reference
FORMATION_AT_TD.      Mount Messenger:  Formation at TD
GL_ELEVATION_AMSL.M            322.5000:  Ground level elevation above mean sea level
LICENCE_NUMBER.             PPL38706:  Licence number
ONSHORE_OR_OFFSHORE.              Onshore:  Onshore/offshore
PR_NUMBER.               PR2214:  Petroleum report number
SPUD_DATE.           27/03/1996:  Spud date
STATUS_AT_COMPLETION.     Suspended with 7" casing cemented in place:  Status at completion
TD_DATE.           04/04/1996:  Total depth date
TOTAL_DEPTH_DRILLED.M                1930:  Total depth drilled
~Other Information Block
# 
~A       DEPTH             BS           CALI           DENS            DTC            DTS             GR           NEUT      NEUT_CORR            PEF           RESD           RESS             SP 
# ...
     642.51840         8.5000         8.2872         2.2265      -999.2500      -999.2500        94.3430       0.343289       0.339787         3.0122        16.5964        11.0555       197.7416
     642.67080         8.5000         8.2621         2.2319      -999.2500      -999.2500        95.1901       0.339165       0.336407         3.0332        16.6847        11.1560       197.3687
     642.82320         8.5000         8.2370         2.2372      -999.2500      -999.2500        96.0373       0.335040       0.333028         3.0541        16.7730        11.2565       196.9959
     642.97560         8.5000         8.2119         2.2426      -999.2500      -999.2500        96.8845       0.330916       0.329649         3.0751        16.8613        11.3570       196.6231
     643.12800         8.5000         8.1931         2.2443      -999.2500      -999.2500        96.1771       0.334008       0.332459         3.0819        16.9024        11.4090       196.7100
     643.28040         8.5000         8.1755         2.2453      -999.2500      -999.2500        95.1735       0.338475       0.336450         3.0861        16.9344        11.4518       196.8846
     643.43280         8.5000         8.1578         2.2462      -999.2500      -999.2500        94.1699       0.342943       0.340441         3.0903        16.9664        11.4945       197.0592
     643.58520         8.5000         8.1556         2.2566      -999.2500      -999.2500        93.7370       0.344842       0.342356         3.1114        17.1687        11.6756       197.4589
     643.73760         8.5000         8.1655         2.2743      -999.2500      -999.2500        93.7543       0.344714       0.342635         3.1459        17.5052        11.9657       198.0363
     643.89000         8.5000         8.1755         2.2920      -999.2500      -999.2500        93.7717       0.344587       0.342913         3.1803        17.8416        12.2558       198.6136
     644.04240         8.5000         8.1795         2.3027      -999.2500      -999.2500        94.0810       0.347848       0.346326         3.1965        17.9336        12.3761       199.0966
     644.19480         8.5000         8.1683         2.2951      -999.2500      -999.2500        95.1480       0.359899       0.357869         3.1654        17.3911        12.0557       199.3347
     644.34720         8.5000         8.1570         2.2876      -999.2500      -999.2500        96.2150       0.371951       0.369413         3.1342        16.8487        11.7353       199.5728
     644.49960         8.5000         8.1457         2.2800      -999.2500      -999.2500        97.2820       0.384002       0.380956         3.1031        16.3062        11.4150       199.8109
     644.65200         8.5000         8.1514         2.2704      -999.2500      -999.2500        95.6852       0.380371       0.377077         3.0906        16.7082        11.7169       199.5947
     644.80440         8.5000         8.1571         2.2608      -999.2500      -999.2500        94.0814       0.376698       0.373157         3.0781        17.1127        12.0205       199.3772
     644.95680         8.5000         8.1629         2.2512      -999.2500      -999.2500        92.4776       0.373025       0.369237         3.0656        17.5171        12.3240       199.1598
     645.10920         8.5000         8.1761         2.2501      -999.2500      -999.2500        92.2071       0.362333       0.358894         3.0757        17.7345        12.5161       198.8402
     645.26160         8.5000         8.1924         2.2525      -999.2500      -999.2500        92.4640       0.348864       0.346010         3.0947        17.8778        12.6641       198.4801
     645.41400         8.5000         8.2086         2.2549      -999.2500      -999.2500        92.7209       0.335395       0.333126         3.1137        18.0212        12.8121       198.1200
     645.56640         8.5000         8.2401         2.2564      -999.2500      -999.2500        93.5291       0.324158       0.322193         3.1264        18.1173        12.9338       197.5817
     645.71880         8.5000         8.2915         2.2567      -999.2500      -999.2500        95.0516       0.315811       0.313787         3.1308        18.1524        13.0215       196.8125
     645.87120         8.5000         8.3428         2.2570      -999.2500      -999.2500        96.5740       0.307464       0.305381         3.1353        18.1874        13.1092       196.0432
     646.02360         8.5000         8.3894         2.2579      -999.2500      -999.2500        97.8469       0.302735       0.300395         3.1397        18.1923        13.1727       195.3256
     646.17600         8.5000         8.4102         2.2614      -999.2500      -999.2500        97.7576       0.317751       0.314077         3.1440        18.0328        13.1046       194.8896
     646.32840         8.5000         8.4310         2.2648      -999.2500      -999.2500        97.6683       0.332768       0.327758         3.1483        17.8734        13.0365       194.4535
     646.48080         8.5000         8.4518         2.2683      -999.2500      -999.2500        97.5790       0.347784       0.341439         3.1526        17.7139        12.9683       194.0175
     646.63320         8.5000         8.5163         2.2796      -999.2500      -999.2500        97.9341       0.337405       0.331440         3.1889        17.7155        12.9935       194.0829
     646.78560         8.5000         8.5872         2.2919      -999.2500      -999.2500        98.3533       0.323366       0.318029         3.2299        17.7403        13.0322       194.2206
     646.93800         8.5000         8.6580         2.3043      -999.2500      -999.2500        98.7725       0.309326       0.304617         3.2708        17.7651        13.0708       194.3582
     647.09040         8.5000         8.7159         2.3094      -999.2500      -999.2500        98.2774       0.308695       0.304138         3.2373        17.8394        13.1390       194.7135
     647.24280         8.5000         8.7649         2.3096      -999.2500      -999.2500        97.1553       0.317261       0.312527         3.1526        17.9475        13.2275       195.2178
     647.39520         8.5000         8.8138         2.3097      -999.2500      -999.2500        96.0331       0.325826       0.320916         3.0679        18.0557        13.3159       195.7222
     647.54760         8.5000         8.8398         2.3028      -999.2500      -999.2500        95.7904       0.330556       0.325511         3.0140        18.0504        13.3203       196.1235
     647.70000         8.5000         8.8149         2.2805      -999.2500      -999.2500        97.4838       0.326839       0.321754         3.0279        17.7952        13.1397       196.2976
     647.85240         8.5000         8.7900         2.2582      -999.2500      -999.2500        99.1772       0.323123       0.317996         3.0419        17.5401        12.9591       196.4716
     648.00480         8.5000         8.7704         2.2366      -999.2500      -999.2500       100.7377       0.319480       0.314299         3.0554        17.2955        12.7847       196.6331
     648.15720         8.5000         8.9128         2.2384      -999.2500      -999.2500        98.2124       0.318122       0.312470         3.0554        17.3737        12.8011       196.4048
     648.30960         8.5000         9.0553         2.2402      -999.2500      -999.2500        95.6872       0.316763       0.310642         3.0554        17.4519        12.8174       196.1766
     648.46200         8.5000         9.1977         2.2420      -999.2500      -999.2500        93.1619       0.315404       0.308813         3.0554        17.5301        12.8337       195.9484
     648.61440         8.5000         9.1406         2.2426      -999.2500      -999.2500        92.7207       0.317637       0.311387         3.0569        17.4225        12.7332       195.6567
     648.76680         8.5000         9.0171         2.2428      -999.2500      -999.2500        92.9717       0.321062       0.315424         3.0588        17.2533        12.5939       195.3438
