~Version Information Block
VERS .                 2.00:  CWLS LOG ASCII STANDARD - VERSION 2.00
WRAP .                   NO:  One line per depth step
~Well Information Block
#MNEM.UNIT        Data Type   Information
#---------- ----------------  -----------
STRT .M             9.14400:  START DEPTH
STOP .M          1999.48800:  STOP DEPTH
STEP .M             0.15240:  STEP
NULL .              -999.25:  NULL VALUE
COMP .                     :  COMPANY
WELL .            Ngatoro-2:  WELL
FLD  .                     :  FIELD
LOC  .                     :  LOCATION
CTRY .                     :  COUNTRY
STAT .                     :  STATE
CNTY .                     :  COUNTY
SRVC .     New Zealand Petroleum Co Ltd:  SERVICE COMPANY
DATE .                     :  DATE
API  .                     :  API NUMBER
UWI  .         100000127958:  UNIQUE WELL ID
LATI .          -39.1949429:  LATITUDE
LONG .          174.1849215:  LONGITUDE
~Curve Information Block
#MNEM.UNIT         API CODE   Curve Description
#---------- ----------------  -----------------
DEPTH.M                    :  
BS   .IN                   :  Bit Size (Created in Geolog)
CALI .IN                   :  Caliper Log (CALI)
DENS .G/C3                 :  Compensated Formation Density Log (RHOB)
DRHO .G/C3                 :  Density Log Correction (DRHO)
DTC  .US/F                 :  Delta T (DT)
DTS  .US/F                 :  Delta T Shear Lower Dipole (DT1)
GR   .GAPI                 :  Gamma-Ray Raw (Reeves PSD) (GRCF)
GR_CORR.GAPI                 :  Gamma ray corrected
NEUT .V/V                  :  Neutron Log Porosity (NPHI)
NEUT_CORR.V/V                  :  Corrected NPHI (limestone units)
PEF  .B/E                  :  Photoelectric Factor (PEDF)
RESD .OHMM                 :  Laterolog Deep Resistivity (LLD)
RESD_CORR.OHMM                 :  Borehole corrected LLD
RESS .OHMM                 :  Shallow Laterolog (LLS)
RESS_CORR.OHMM                 :  Borehole corrected LLS
SP   .MV                   :  Spontaneous Potential Log (SP)
TEMP .DEGC                 :  Temperature (TEMP)
TENS .KGF                  :  Cable tension at surface (TENS)
~Parameter Information Block
#MNEM.UNIT            Value   Description
#---------- ----------------  -----------
CUR_INT_BOT.M                2000:  Current interpolated bottom
PROJECT.     New Zealand Log QC Project:  
SET  .     A0_FINAL_INTER_REF_D:  
ELEVATION_AMSL.M              294.94:  Elevation above mean sea level
ELEVATION_REF.                   KB:  Measurement reference
FORMATION_AT_TD.             Manganui:  Formation at TD
GL_ELEVATION_AMSL.M            286.3000:  Ground level elevation above mean sea level
LICENCE_NUMBER.             PPL38706:  Licence number
ONSHORE_OR_OFFSHORE.              Onshore:  Onshore/offshore
PR_NUMBER.               PR1920:  Petroleum report number
SPUD_DATE.           12/10/1991:  Spud date
STATUS_AT_COMPLETION.     Completed as an oil producer:  Status at completion
TD_DATE.           26/10/1991:  Total depth date
TOTAL_DEPTH_DRILLED.M                2000:  Total depth drilled
~Other Information Block
# 
~A       DEPTH             BS           CALI           DENS           DRHO            DTC            DTS             GR        GR_CORR           NEUT      NEUT_CORR            PEF           RESD      RESD_CORR           RESS      RESS_CORR             SP           TEMP           TENS 
# ...
    1675.33320         8.5000         8.6044         2.4196      0.0162053      -999.2500      -999.2500       101.6766       101.5354       0.260488       0.252979         3.0675      -999.2500      -999.2500      -999.2500      -999.2500      -999.2500        59.7723       850.7217
    1675.48560         8.5000         8.6043         2.4170      0.0175204      -999.2500      -999.2500        97.1335        96.9983       0.271866       0.263991         3.0319      -999.2500      -999.2500      -999.2500      -999.2500      -999.2500        59.8028       851.8706
    1675.63800         8.5000         8.6036         2.4505      0.0179697      -999.2500      -999.2500        98.8755        98.7340       0.236292       0.229605         3.1173      -999.2500      -999.2500      -999.2500      -999.2500      -999.2500        59.7967       854.9119
    1675.79040         8.5000         8.6028         2.4878      0.0183286      -999.2500      -999.2500       101.2734       101.1242       0.195818       0.190482         3.2154      -999.2500      -999.2500      -999.2500      -999.2500      -999.2500        59.7867       858.1506
    1675.94280         8.5000         8.6020         2.5250      0.0186875      -999.2500      -999.2500       103.6713       103.5145       0.155345       0.151359         3.3134      -999.2500      -999.2500      -999.2500      -999.2500      -999.2500        59.7767       861.3894
    1676.09520         8.5000         8.6019         2.5520      0.0171949      -999.2500      -999.2500       105.4532       105.2934       0.140691       0.137191         3.4460      -999.2500      -999.2500      -999.2500      -999.2500      -999.2500        59.7751       858.5522
    1676.24760         8.5000         8.6023         2.5729      0.0145898      -999.2500      -999.2500       106.8650       106.7051       0.141550       0.138018         3.5994      -999.2500      -999.2500      -999.2500      -999.2500      -999.2500        59.7787       852.0645
    1676.40000         8.5000         8.6026         2.5937      0.0119847      -999.2500      -999.2500       108.2769       108.1168       0.142409       0.138844         3.7528      -999.2500      -999.2500      -999.2500      -999.2500      -999.2500        59.7822       845.5768
    1676.55240         8.5000         8.6013         2.5926      0.0121469      -999.2500      -999.2500       109.3412       109.1719       0.152942       0.149050         3.7823      -999.2500      -999.2500      -999.2500      -999.2500      -999.2500        59.7867       841.3892
    1676.70480         8.5000         8.5968         2.5496      0.0175904      -999.2500      -999.2500       109.7422       109.5466       0.181936       0.177155         3.5751      -999.2500      -999.2500      -999.2500      -999.2500      -999.2500        59.7928       841.5912
    1676.85720         8.5000         8.5924         2.5066      0.0230339      -999.2500      -999.2500       110.1431       109.9213       0.210929       0.205260         3.3679      -999.2500      -999.2500      -999.2500      -999.2500      -999.2500        59.7990       841.7932
    1677.00960         8.5000         8.5885         2.4659      0.0279441      -999.2500      -999.2500       110.4995       110.2546       0.237949       0.231446         3.1724      -999.2500      -999.2500      -999.2500      -999.2500      -999.2500        59.8049       841.9945
    1677.16200         8.5000         8.5929         2.4602      0.0249214      -999.2500      -999.2500       110.1915       109.9725       0.235597       0.229096         3.1498      -999.2500      -999.2500      -999.2500      -999.2500      -999.2500        59.8062       842.1856
    1677.31440         8.5000         8.5973         2.4545      0.0218987      -999.2500      -999.2500       109.8836       109.6904       0.233246       0.226746         3.1273      -999.2500      -999.2500      -999.2500      -999.2500      -999.2500        59.8076       842.3767
    1677.46680         8.5000         8.6018         2.4488      0.0188761      -999.2500      -999.2500       109.5757       109.4083       0.230895       0.224396         3.1048      -999.2500      -999.2500      -999.2500      -999.2500      -999.2500        59.8090       842.5678
    1677.61920         8.5000         8.5991         2.4471      0.0186247      -999.2500      -999.2500       107.9402       107.7616       0.249466       0.242434         3.1237      -999.2500      -999.2500      -999.2500      -999.2500      -999.2500        59.8139       844.3419
    1677.77160         8.5000         8.5945         2.4465      0.0191453      -999.2500      -999.2500       105.9350       105.7349       0.273864       0.266150         3.1542      -999.2500      -999.2500      -999.2500      -999.2500      -999.2500        59.8199       846.5569
    1677.92400         8.5000         8.5899         2.4459      0.0196658      -999.2500      -999.2500       103.9298       103.7081       0.298262       0.289866         3.1847      -999.2500      -999.2500      -999.2500      -999.2500      -999.2500        59.8259       848.7719
    1678.07640         8.5000         8.5877         2.4432      0.0188104      -999.2500      -999.2500       106.7609       106.5200       0.300849       0.292410         3.1945      -999.2500      -999.2500      -999.2500      -999.2500      -999.2500        59.8312       849.2827
    1678.22880         8.5000         8.5877         2.4385      0.0165862      -999.2500      -999.2500       114.4031       114.1451       0.281738       0.273892         3.1836      -999.2500      -999.2500      -999.2500      -999.2500      -999.2500        59.8359       848.0983
    1678.38120         8.5000         8.5877         2.4337      0.0143620      -999.2500      -999.2500       122.0452       121.7702       0.262628       0.255374         3.1727      -999.2500      -999.2500      -999.2500      -999.2500      -999.2500        59.8405       846.9139
    1678.53360         8.5000         8.5877         2.4305      0.0128901      -999.2500      -999.2500       125.7501       125.4666       0.247484       0.240700         3.1609      -999.2500      -999.2500      -999.2500      -999.2500      -999.2500        59.8450       845.6274
    1678.68600         8.5000         8.5875         2.4327      0.0140779      -999.2500      -999.2500       115.5338       115.2723       0.246364       0.239620         3.1458      -999.2500      -999.2500      -999.2500      -999.2500      -999.2500        59.8489       843.9801
    1678.83840         8.5000         8.5873         2.4348      0.0152657      -999.2500      -999.2500       105.3176       105.0780       0.245244       0.238540         3.1308      -999.2500      -999.2500      -999.2500      -999.2500      -999.2500        59.8527       842.3328
    1678.99080         8.5000         8.5871         2.4369      0.0164535      -999.2500      -999.2500        95.1013        94.8837       0.244124       0.237459         3.1158      -999.2500      -999.2500      -999.2500      -999.2500      -999.2500        59.8566       840.6854
    1679.14320         8.5000         8.5877         2.4390      0.0167677      -999.2500      -999.2500        97.8130        97.5925       0.239663       0.233130         3.1274      -999.2500      -999.2500      -999.2500      -999.2500      -999.2500        59.8600       841.4039
    1679.29560         8.5000         8.5883         2.4411      0.0170258      -999.2500      -999.2500       101.3553       101.1303       0.234988       0.228593         3.1407      -999.2500      -999.2500      -999.2500      -999.2500      -999.2500        59.8633       842.2742
    1679.44800         8.5000         8.5889         2.4432      0.0172839      -999.2500      -999.2500       104.8977       104.6680       0.230313       0.224055         3.1540      -999.2500      -999.2500      -999.2500      -999.2500      -999.2500        59.8666       843.1447
    1679.60040         8.5000         8.5895         2.4449      0.0164541      -999.2500      -999.2500       108.3049       108.0711       0.228527       0.222317         3.1497      -999.2500      -999.2500      -999.2500      -999.2500      -999.2500        59.8697       844.8190
