~Version Information Block
VERS .                 2.00:  CWLS LOG ASCII STANDARD - VERSION 2.00
WRAP .                   NO:  One line per depth step
~Well Information Block
#MNEM.UNIT        Data Type   Information
#---------- ----------------  -----------
STRT .M           530.50440:  START DEPTH
STOP .M          1878.48240:  STOP DEPTH
STEP .M             0.15240:  STEP
NULL .              -999.25:  NULL VALUE
COMP .                     :  COMPANY
WELL .            Ngatoro-7:  WELL
FLD  .                     :  FIELD
LOC  .                     :  LOCATION
CTRY .                     :  COUNTRY
STAT .                     :  STATE
CNTY .                     :  COUNTY
SRVC .     New Zealand Petroleum Co Ltd:  SERVICE COMPANY
DATE .                     :  DATE
API  .                     :  API NUMBER
UWI  .         100000210191:  UNIQUE WELL ID
LATI .          -39.2039075:  LATITUDE
LONG .          174.1707218:  LONGITUDE
~Curve Information Block
#MNEM.UNIT         API CODE   Curve Description
#---------- ----------------  -----------------
DEPTH.M                    :  
BS   .IN                   :  Bit Size (Created in Geolog)
CALI .IN                   :  Caliper (HCAL)
DENS .G/C3                 :  Bulk Density (RHOZ) and HR Bulk Density (RHO8)
DTC  .US/F                 :  Delta Time (DTC)
GR   .GAPI                 :  Gamma Ray (GR) and HR Gamma Ray (HGR)
NEUT .V/V                  :  Neutron Porosity (NPHI) and HR Neutron Porosity (HTNP)
NEUT_CORR.V/V                  :  Corrected NPHI (limestone units)
PEF  .B/E                  :  HRDD Std Resolution Formation Photoelectric Factor (PEFZ) and (PEF8)
RESD .OHMM                 :  HALS Deep Res. (HLLD) and HR HALS Deep Res. (HRLD)
RESS .OHMM                 :  HALS Shallow Res. (HLLS) and HR HALS Shallow Res. (HRLS)
SP   .MV                   :  Spontaneous Potential (SP)
~Parameter Information Block
#MNEM.UNIT            Value   Description
#---------- ----------------  -----------
CUR_INT_BOT.M                1879:  Current interpolated bottom
PROJECT.     New Zealand Log QC Project:  
SET  .     A0_FINAL_INTER_REF_D:  
ELEVATION_AMSL.M                 327:  Elevation above mean sea level
ELEVATION_REF.                   KB:  Measurement reference
FORMATION_AT_TD.      Mount Messenger:  Formation at TD
GL_ELEVATION_AMSL.M            321.4000:  Ground level elevation above mean sea level
LICENCE_NUMBER.             PPL38706:  Licence number
ONSHORE_OR_OFFSHORE.              Onshore:  Onshore/offshore
PR_NUMBER.               PR2215:  Petroleum report number
SPUD_DATE.           09/04/1996:  Spud date
STATUS_AT_COMPLETION.     Suspended with 7" casing cemented in place:  Status at completion
TD_DATE.           18/04/1996:  Total depth date
TOTAL_DEPTH_DRILLED.M                1879:  Total depth drilled
~Other Information Block
# 
~A       DEPTH             BS           CALI           DENS            DTC             GR           NEUT      NEUT_CORR            PEF           RESD           RESS             SP 
# ...
    1771.80240         8.5000         8.3486         2.4147        92.1079        97.4690       0.273463       0.275189         3.2593         3.4416         3.6303       149.6091
    1771.95480         8.5000         8.3527         2.4141        92.2422        96.2048       0.269212       0.269991         3.2532         3.4282         3.6066       149.8509
    1772.10720         8.5000         8.3526         2.4126        93.4787        95.4154       0.265274       0.265830         3.2558         3.4133         3.5849       149.4642
    1772.25960         8.5000         8.3507         2.4107        95.1800        94.8263       0.261467       0.262106         3.2621         3.3978         3.5640       148.8124
    1772.41200         8.5000         8.3489         2.4088        96.8813        94.2372       0.257660       0.258382         3.2683         3.3823         3.5431       148.1607
    1772.56440         8.5000         8.3453         2.3937        97.6874        93.3349       0.255413       0.256173         3.2512         3.3539         3.5114       147.7720
    1772.71680         8.5000         8.3395         2.3606        97.2702        92.0048       0.255297       0.256035         3.2019         3.3079         3.4650       147.7427
    1772.86920         8.5000         8.3337         2.3275        96.8530        90.6747       0.255181       0.255897         3.1527         3.2619         3.4186       147.7135
    1773.02160         8.5000         8.3284         2.3020        96.4633        89.7032       0.255737       0.256459         3.1134         3.2171         3.3729       147.7038
    1773.17400         8.5000         8.3264         2.3229        96.2400        90.9034       0.260362       0.261266         3.1338         3.1793         3.3310       147.8132
    1773.32640         8.5000         8.3244         2.3438        96.0166        92.1036       0.264988       0.266072         3.1542         3.1415         3.2891       147.9226
    1773.47880         8.5000         8.3223         2.3648        95.7932        93.3038       0.269614       0.270878         3.1747         3.1038         3.2473       148.0320
    1773.63120         8.5000         8.3275         2.3623        94.8205        94.6098       0.268399       0.269438         3.1452         3.0650         3.2205       147.3095
    1773.78360         8.5000         8.3339         2.3561        93.7268        95.9330       0.266241       0.266989         3.1077         3.0261         3.1962       146.4527
    1773.93600         8.5000         8.3403         2.3499        92.6330        97.2561       0.264082       0.264540         3.0701         2.9872         3.1718       145.5958
    1774.08840         8.5000         8.3471         2.3516        92.3814        97.6661       0.265723       0.266401         3.0813         3.0213         3.2152       145.6490
    1774.24080         8.5000         8.3544         2.3590        92.7394        97.4150       0.270114       0.271384         3.1278         3.1084         3.3075       146.3610
    1774.39320         8.5000         8.3616         2.3664        93.0975        97.1640       0.274505       0.276368         3.1743         3.1954         3.3998       147.0730
    1774.54560         8.5000         8.3666         2.3695        93.2602        96.5730       0.276416       0.278490         3.1923         3.2331         3.4439       148.0659
    1774.69800         8.5000         8.3665         2.3623        92.9653        95.1862       0.272518       0.273911         3.1432         3.1552         3.3749       149.7166
    1774.85040         8.5000         8.3663         2.3552        92.6705        93.7993       0.268619       0.269333         3.0942         3.0772         3.3060       151.3673
    1775.00280         8.5000         8.3660         2.3483        92.3739        92.4170       0.264737       0.264787         3.0468         3.0025         3.2399       152.9742
    1775.15520         8.5000         8.3611         2.3556        91.9875        91.2756       0.261752       0.262023         3.0804         3.0993         3.3257       152.2403
    1775.30760         8.5000         8.3562         2.3629        91.6010        90.1343       0.258766       0.259258         3.1140         3.1961         3.4114       151.5064
    1775.46000         8.5000         8.3512         2.3703        91.2145        88.9930       0.255781       0.256494         3.1476         3.2928         3.4971       150.7726
    1775.61240         8.5000         8.3545         2.3726        91.4170        89.7733       0.259344       0.260277         3.1419         3.3332         3.5374       150.3283
    1775.76480         8.5000         8.3608         2.3731        91.8290        91.2374       0.265237       0.266390         3.1221         3.3536         3.5616       149.9870
    1775.91720         8.5000         8.3670         2.3737        92.2411        92.7015       0.271129       0.272504         3.1023         3.3739         3.5857       149.6458
    1776.06960         8.5000         8.3729         2.3736        92.5048        93.4061       0.273597       0.274920         3.1017         3.3777         3.5931       150.1832
    1776.22200         8.5000         8.3785         2.3726        92.5920        93.2072       0.271988       0.272939         3.1237         3.3617         3.5804       151.7660
    1776.37440         8.5000         8.3841         2.3716        92.6793        93.0083       0.270380       0.270958         3.1458         3.3458         3.5678       153.3487
    1776.52680         8.5000         8.3900         2.3711        92.7560        92.8308       0.268416       0.268687         3.1665         3.3371         3.5614       155.1382
    1776.67920         8.5000         8.3971         2.3724        92.7836        92.7536       0.264779       0.265059         3.1811         3.3617         3.5842       157.8968
    1776.83160         8.5000         8.4042         2.3738        92.8111        92.6764       0.261142       0.261430         3.1956         3.3864         3.6069       160.6554
    1776.98400         8.5000         8.4113         2.3751        92.8387        92.5992       0.257505       0.257801         3.2101         3.4111         3.6296       163.4140
    1777.13640         8.5000         8.4028         2.3730        92.9325        92.7985       0.260262       0.260611         3.2027         3.3224         3.5354       161.0525
    1777.28880         8.5000         8.3925         2.3704        93.0342        93.0302       0.263768       0.264176         3.1927         3.2205         3.4275       158.0905
    1777.44120         8.5000         8.3822         2.3679        93.1358        93.2619       0.267275       0.267742         3.1828         3.1185         3.3196       155.1284
    1777.59360         8.5000         8.3744         2.3671        93.2684        92.0402       0.266767       0.267301         3.1681         3.0808         3.2719       153.9261
    1777.74600         8.5000         8.3682         2.3674        93.4204        89.9055       0.263737       0.264343         3.1504         3.0836         3.2620       153.8291
    1777.89840         8.5000         8.3620         2.3677        93.5724        87.7708       0.260707       0.261385         3.1327         3.0863         3.2520       153.7322
    1778.05080         8.5000         8.3587         2.3698        93.7708        86.2798       0.257921       0.258721         3.1213         3.1271         3.2758       153.4831
    1778.20320         8.5000         8.3614         2.3759        94.0620        86.0764       0.255620       0.256644         3.1228         3.2439         3.3670       152.9296
    1778.35560         8.5000         8.3641         2.3819        94.3532        85.8730       0.253320       0.254568         3.1243         3.3608         3.4581       152.3762
    1778.50800         8.5000         8.3669         2.3871        94.6031        85.6477       0.251343       0.252780         3.1248         3.4686         3.5420       151.8206
