~Version Information Block
VERS .                 2.00:  CWLS LOG ASCII STANDARD - VERSION 2.00
WRAP .                   NO:  One line per depth step
~Well Information Block
#MNEM.UNIT        Data Type   Information
#---------- ----------------  -----------
STRT .M           387.55320:  START DEPTH
STOP .M          1999.48800:  STOP DEPTH
STEP .M             0.15240:  STEP
NULL .              -999.25:  NULL VALUE
COMP .                     :  COMPANY
WELL .           Ngatoro-13:  WELL
FLD  .                     :  FIELD
LOC  .                     :  LOCATION
CTRY .                     :  COUNTRY
STAT .                     :  STATE
CNTY .                     :  COUNTY
SRVC .     Greymouth Petroleum Ltd:  SERVICE COMPANY
DATE .                     :  DATE
API  .                     :  API NUMBER
UWI  .         100000787699:  UNIQUE WELL ID
LATI .            -39.21139:  LATITUDE
LONG .            174.18349:  LONGITUDE
~Curve Information Block
#MNEM.UNIT         API CODE   Curve Description
#---------- ----------------  -----------------
DEPTH.M                    :  
BS   .IN                   :  Bit Size (Created in Geolog)
CALI .IN                   :  HRCC Cal. Caliper (HCAL)
DENS .G/C3                 :  HRDD Standard Resolution Formation Density (RHOZ) and (RHO8)
DRHO .G/C3                 :  HRDD Density Correction (HDRA)
DTC  .US/F                 :  Delta-T Compressional (DTCO)
DTS  .US/F                 :  Delta-T Shear (DTSM)
GR   .GAPI                 :  Gamma-Ray (GR) and HiRes Gamma-Ray (EHGR)
NEUT .V/V                  :  Enhanced Thermal Neutron Porosity(NPOR) and (HNPO)
PEF  .B/E                  :  HRDD Std Resolution Formation Photoelectric Factor (PEFZ) and (PEF8)
RESD .OHMM                 :  HALS Laterolog Deep R (HLLD) and HALS HiRes Deep Res (HRLD)
RESS .OHMM                 :  HALS Shallow Res. (HLLS) and HR HALS Shallow Res. (HRLS)
SP   .MV                   :  SP Shifted (SP)
TENS .KGF                  :  Cable Tension (TENS)
~Parameter Information Block
#MNEM.UNIT            Value   Description
#---------- ----------------  -----------
CUR_INT_BOT.M                2032:  Current interpolated bottom
PROJECT.     New Zealand Log QC Project:  
SET  .     A0_FINAL_INTER_REF_D:  
ELEVATION_AMSL.M              323.75:  Elevation above mean sea level
ELEVATION_REF.                   DF:  Measurement reference
FORMATION_AT_TD.                 Moki:  Formation at TD
GL_ELEVATION_AMSL.M            323.3000:  Ground level elevation above mean sea level
LICENCE_NUMBER.             PMP38148:  Licence number
ONSHORE_OR_OFFSHORE.              Onshore:  Onshore/offshore
PR_NUMBER.               PR3545:  Petroleum report number
SPUD_DATE.           28/10/2006:  Spud date
STATUS_AT_COMPLETION.     Completed ready for perforating:  Status at completion
TD_DATE.           10/11/2006:  Total depth date
TOTAL_DEPTH_DRILLED.M                2032:  Total depth drilled
~Other Information Block
# 
~A       DEPTH             BS           CALI           DENS           DRHO            DTC            DTS             GR           NEUT            PEF           RESD           RESS             SP           TENS 
# ...
     940.30800         8.5000         8.6634         2.3220        -0.0039       112.3347       228.2185       103.3191       0.344927         3.0013         4.2263         3.9764       206.0440      1027.6040
     940.46040         8.5000         8.6805         2.3232        -0.0037       112.9215       231.0055       101.6758       0.345638         2.9803         4.2224         3.9644       205.8985      1025.9609
     940.61280         8.5000         8.6360         2.3249        -0.0025       113.0983       231.5609       101.1224       0.338109         2.9655         4.2206         3.9599       205.7370      1030.3617
     940.76520         8.5000         8.5698         2.3268        -0.0010       113.1313       231.3329       100.9518       0.327687         2.9530         4.2195         3.9580       205.5700      1036.8844
     940.91760         8.5000         8.5036         2.3287         0.0006       113.1642       231.1049       100.7811       0.317265         2.9404         4.2184         3.9562       205.4030      1043.4071
     941.07000         8.5000         8.4256         2.3291         0.0023       113.1209       230.9337       100.2086       0.317761         2.9396         4.2188         3.9411       205.3874      1049.6926
     941.22240         8.5000         8.3337         2.3276         0.0042       112.9878       230.8293        99.1632       0.331110         2.9526         4.2211         3.9105       205.5498      1055.6991
     941.37480         8.5000         8.2417         2.3261         0.0061       112.8547       230.7249        98.1178       0.344458         2.9655         4.2234         3.8800       205.7122      1061.7054
     941.52720         8.5000         8.1662         2.3243         0.0076       112.6792       230.6052        97.7178       0.354752         2.9763         4.2293         3.8561       205.8395      1066.3514
     941.67960         8.5000         8.1662         2.3210         0.0070       112.3086       230.4146       100.2888       0.350986         2.9774         4.2519         3.8627       205.8049      1064.7361
     941.83200         8.5000         8.1662         2.3178         0.0064       111.9379       230.2241       102.8597       0.347220         2.9784         4.2746         3.8693       205.7703      1063.1206
     941.98440         8.5000         8.1661         2.3145         0.0058       111.5673       230.0335       105.4306       0.343453         2.9795         4.2972         3.8759       205.7357      1061.5052
     942.13680         8.5000         8.1813         2.3186         0.0053       111.2621       229.7899       103.9823       0.342409         2.9726         4.2929         3.8699       205.6835      1056.0237
     942.28920         8.5000         8.1982         2.3236         0.0050       110.9643       229.5403       102.0757       0.341674         2.9647         4.2855         3.8624       205.6294      1050.1012
     942.44160         8.5000         8.2151         2.3286         0.0046       110.6666       229.2907       100.1691       0.340939         2.9569         4.2781         3.8549       205.5752      1044.1788
     942.59400         8.5000         8.2571         2.3293         0.0034       110.8745       229.2812       100.8568       0.337248         2.9575         4.2839         3.8651       205.4719      1041.1476
     942.74640         8.5000         8.3148         2.3272         0.0018       111.3966       229.4208       103.1563       0.331719         2.9632         4.2978         3.8863       205.3381      1039.9127
     942.89880         8.5000         8.3726         2.3251         0.0001       111.9187       229.5604       105.4559       0.326191         2.9690         4.3118         3.9075       205.2043      1038.6779
     943.05120         8.5000         8.4225         2.3234        -0.0010       112.2482       229.8141       106.5965       0.327284         2.9751         4.3077         3.9129       205.1044      1039.8848
     943.20360         8.5000         8.4572         2.3227        -0.0011       112.1971       230.2933       105.4463       0.341466         2.9822         4.2682         3.8870       205.0716      1045.9181
     943.35600         8.5000         8.4919         2.3219        -0.0012       112.1460       230.7724       104.2962       0.355649         2.9893         4.2286         3.8612       205.0387      1051.9515
     943.50840         8.5000         8.5215         2.3210        -0.0013       112.1052       231.2258       103.2058       0.368273         2.9964         4.1905         3.8359       205.0073      1057.6036
     943.66080         8.5000         8.4635         2.3182        -0.0012       112.2414       231.2375       103.1407       0.354194         3.0055         4.1766         3.8208       205.0017      1056.7200
     943.81320         8.5000         8.4054         2.3153        -0.0011       112.3776       231.2493       103.0755       0.340115         3.0147         4.1627         3.8057       204.9960      1055.8362
     943.96560         8.5000         8.3474         2.3125        -0.0010       112.5138       231.2610       103.0104       0.326036         3.0238         4.1489         3.7905       204.9904      1054.9525
     944.11800         8.5000         8.3129         2.3124         0.0012       112.8125       230.8726       102.3377       0.328136         3.0224         4.1590         3.7988       204.6551      1057.1154
     944.27040         8.5000         8.2854         2.3131         0.0040       113.1587       230.3675       101.4880       0.334952         3.0179         4.1762         3.8138       204.2237      1060.1664
     944.42280         8.5000         8.2578         2.3138         0.0068       113.5049       229.8624       100.6382       0.341768         3.0134         4.1934         3.8288       203.7923      1063.2173
     944.57520         8.5000         8.2388         2.3187         0.0119       113.3070       230.3950        99.2083       0.344230         3.0223         4.2071         3.8443       203.5293      1064.5479
     944.72760         8.5000         8.2285         2.3279         0.0193       112.5506       231.9929        97.1828       0.342222         3.0449         4.2173         3.8603       203.4392      1064.1123
     944.88000         8.5000         8.2182         2.3372         0.0267       111.7943       233.5909        95.1574       0.340214         3.0674         4.2274         3.8763       203.3491      1063.6768
     945.03240         8.5000         8.2179         2.3447         0.0314       111.2878       234.0096        94.3589       0.337819         3.0804         4.2454         3.8998       203.3011      1063.9656
     945.18480         8.5000         8.2545         2.3458         0.0256       111.7071       230.0611        98.1049       0.333991         3.0577         4.2923         3.9512       203.4091      1066.9375
     945.33720         8.5000         8.2910         2.3469         0.0198       112.1264       226.1124       101.8508       0.330163         3.0351         4.3391         4.0025       203.5170      1069.9094
     945.48960         8.5000         8.3276         2.3480         0.0141       112.5457       222.1638       105.5968       0.326335         3.0124         4.3860         4.0539       203.6250      1072.8813
     945.64200         8.5000         8.3613         2.3443         0.0106       113.2321       224.8581       105.4288       0.323356         3.0039         4.3382         4.0282       203.6073      1064.6735
     945.79440         8.5000         8.3949         2.3402         0.0072       113.9380       228.0389       104.9741       0.320440         2.9965         4.2836         3.9968       203.5803      1055.6470
     945.94680         8.5000         8.4284         2.3361         0.0039       114.6440       231.2196       104.5195       0.317524         2.9891         4.2290         3.9654       203.5534      1046.6204
     946.09920         8.5000         8.4239         2.3373         0.0057       114.5215       233.5706       103.2374       0.312063         3.0040         4.1998         3.9412       203.5969      1041.5682
