~Version Information Block
VERS .                 2.00:  CWLS LOG ASCII STANDARD - VERSION 2.00
WRAP .                   NO:  One line per depth step
~Well Information Block
#MNEM.UNIT        Data Type   Information
#---------- ----------------  -----------
STRT .M           527.15160:  START DEPTH
STOP .M          2099.31000:  STOP DEPTH
STEP .M             0.15240:  STEP
NULL .              -999.25:  NULL VALUE
COMP .                     :  COMPANY
WELL .            Ngatoro-8:  WELL
FLD  .                     :  FIELD
LOC  .                     :  LOCATION
CTRY .                     :  COUNTRY
STAT .                     :  STATE
CNTY .                     :  COUNTY
SRVC .     New Zealand Petroleum Co Ltd:  SERVICE COMPANY
DATE .                     :  DATE
API  .                     :  API NUMBER
UWI  .         100000210422:  UNIQUE WELL ID
LATI .          -39.2038856:  LATITUDE
LONG .          174.1703227:  LONGITUDE
~Curve Information Block
#MNEM.UNIT         API CODE   Curve Description
#---------- ----------------  -----------------
DEPTH.M                    :  
BS   .IN                   :  Bit Size (Created in Geolog)
CALI .IN                   :  Caliper (HCAL)
DENS .G/C3                 :  Bulk Density (RHOZ) and HR Bulk Density (RHO8)
DTC  .US/F                 :  Delta Time (DT)
GR   .GAPI                 :  Gamma Ray (GR) and HR Gamma Ray (HGR)
NEUT .V/V                  :  Neutron Porosity (NPHI) and HR Neutron Porosity (HTNP)
NEUT_CORR.V/V                  :  Corrected NPHI (limestone units)
PEF  .B/E                  :  Photoelectric Factor (PEF) and (PEFZ)
RESD .OHMM                 :  HALS Deep Res. (HLLD) and HR HALS Deep Res. (HRLD)
RESS .OHMM                 :  HALS Shallow Res. (HLLS) and HR HALS Shallow Res. (HRLS)
SP   .MV                   :  Spontaneous Potential (SP)
~Parameter Information Block
#MNEM.UNIT            Value   Description
#---------- ----------------  -----------
CUR_INT_BOT.M                2100:  Current interpolated bottom
PROJECT.     New Zealand Log QC Project:  
SET  .     A0_FINAL_INTER_REF_D:  
ELEVATION_AMSL.M                 328:  Elevation above mean sea level
ELEVATION_REF.                   KB:  Measurement reference
FORMATION_AT_TD.             Manganui:  Formation at TD
GL_ELEVATION_AMSL.M            322.5000:  Ground level elevation above mean sea level
LICENCE_NUMBER.             PPL38706:  Licence number
ONSHORE_OR_OFFSHORE.              Onshore:  Onshore/offshore
PR_NUMBER.               PR2216:  Petroleum report number
SPUD_DATE.           22/04/1996:  Spud date
STATUS_AT_COMPLETION.     Suspended with 7" casing cemented to TD:  Status at completion
TD_DATE.           29/04/1996:  Total depth date
TOTAL_DEPTH_DRILLED.M                2100:  Total depth drilled
~Other Information Block
# 
~A       DEPTH             BS           CALI           DENS            DTC             GR           NEUT      NEUT_CORR            PEF           RESD           RESS             SP 
# ...
    1679.29560         8.5000         8.3054         2.3472        97.9872        86.1025       0.236998       0.232372         3.0897         3.3581         3.5115        66.8055
    1679.44800         8.5000         8.2963         2.3192        97.4340        83.9324       0.235623       0.230958         3.0655         3.3344         3.4938        66.7898
    1679.60040         8.5000         8.2976         2.3110        97.3100        83.4079       0.233587       0.228806         3.0491         3.3393         3.5175        66.8248
    1679.75280         8.5000         8.3044         2.3130        97.4084        83.7358       0.231210       0.226271         3.0368         3.3590         3.5628        66.8860
    1679.90520         8.5000         8.3111         2.3150        97.5068        84.0636       0.228833       0.223735         3.0246         3.3788         3.6081        66.9473
    1680.05760         8.5000         8.3166         2.3182        97.6091        85.0914       0.229567       0.224403         3.0238         3.3861         3.6310        67.0256
    1680.21000         8.5000         8.3201         2.3234        97.7178        87.2710       0.235421       0.230341         3.0421         3.3731         3.6171        67.1322
    1680.36240         8.5000         8.3236         2.3286        97.8265        89.4507       0.241275       0.236280         3.0604         3.3600         3.6032        67.2387
    1680.51480         8.5000         8.3273         2.3335        97.8851        91.3335       0.246501       0.241588         3.0762         3.3442         3.5845        67.3538
    1680.66720         8.5000         8.3328         2.3363        97.4772        90.4569       0.245895       0.241036         3.0690         3.3027         3.5213        67.5476
    1680.81960         8.5000         8.3383         2.3390        97.0693        89.5803       0.245289       0.240485         3.0618         3.2611         3.4582        67.7415
    1680.97200         8.5000         8.3438         2.3418        96.6615        88.7037       0.244683       0.239933         3.0546         3.2196         3.3950        67.9353
    1681.12440         8.5000         8.3432         2.3498        96.2032        88.8840       0.241762       0.236979         3.0664         3.2705         3.4336        67.9261
    1681.27680         8.5000         8.3412         2.3589        95.7336        89.3021       0.238320       0.233484         3.0826         3.3423         3.4952        67.8712
    1681.42920         8.5000         8.3393         2.3681        95.2640        89.7202       0.234878       0.229989         3.0987         3.4141         3.5567        67.8162
    1681.58160         8.5000         8.3399         2.3715        95.6692        89.6269       0.234057       0.229148         3.1048         3.4465         3.5887        67.8359
    1681.73400         8.5000         8.3428         2.3700        96.8335        89.0898       0.235511       0.230610         3.1022         3.4447         3.5952        67.9202
    1681.88640         8.5000         8.3456         2.3684        97.9978        88.5527       0.236965       0.232072         3.0995         3.4430         3.6016        68.0046
    1682.03880         8.5000         8.3493         2.3660        98.4641        88.3959       0.238714       0.233822         3.0943         3.4153         3.5811        67.9698
    1682.19120         8.5000         8.3552         2.3613        96.8869        89.3525       0.241330       0.236417         3.0813         3.3119         3.4820        67.5864
    1682.34360         8.5000         8.3612         2.3565        95.3097        90.3091       0.243945       0.239011         3.0684         3.2085         3.3829        67.2030
    1682.49600         8.5000         8.3671         2.3517        93.7324        91.2658       0.246560       0.241606         3.0554         3.1051         3.2838        66.8195
    1682.64840         8.5000         8.3828         2.3736        91.9541        89.3526       0.234434       0.229296         3.0864         3.1547         3.3685        67.0418
    1682.80080         8.5000         8.3987         2.3963        90.1703        87.3620       0.221911       0.216584         3.1185         3.2085         3.4582        67.2804
    1682.95320         8.5000         8.4146         2.4189        88.3865        85.3714       0.209388       0.203873         3.1507         3.2623         3.5479        67.5190
    1683.10560         8.5000         8.4167         2.4198        89.6423        85.5375       0.211863       0.206453         3.1654         3.2800         3.5793        67.7680
    1683.25800         8.5000         8.4127         2.4112        92.2451        86.6594       0.220984       0.215811         3.1724         3.2818         3.5848        68.0218
    1683.41040         8.5000         8.4087         2.4025        94.8480        87.7813       0.230106       0.225168         3.1794         3.2835         3.5903        68.2755
    1683.56280         8.5000         8.4095         2.3980        96.4242        88.8843       0.235964       0.231190         3.1725         3.3199         3.6134        68.5445
    1683.71520         8.5000         8.4170         2.3996        96.5357        89.9604       0.237165       0.232454         3.1456         3.4058         3.6614        68.8353
    1683.86760         8.5000         8.4246         2.4012        96.6471        91.0365       0.238366       0.233717         3.1187         3.4916         3.7095        69.1260
    1684.02000         8.5000         8.4310         2.4029        96.5180        92.3699       0.239475       0.234874         3.1008         3.5671         3.7587        69.3888
    1684.17240         8.5000         8.4299         2.4059        94.7969        95.4069       0.239971       0.235327         3.1417         3.5744         3.8151        69.4661
    1684.32480         8.5000         8.4289         2.4089        93.0759        98.4439       0.240468       0.235781         3.1826         3.5816         3.8716        69.5433
    1684.47720         8.5000         8.4279         2.4119        91.3548       101.4809       0.240964       0.236234         3.2235         3.5889         3.9280        69.6206
    1684.62960         8.5000         8.4450         2.4267        91.4928       101.6771       0.237954       0.233097         3.2461         3.8085         4.1368        69.8217
    1684.78200         8.5000         8.4654         2.4436        91.9578       101.3736       0.234326       0.229327         3.2654         4.0654         4.3724        70.0445
    1684.93440         8.5000         8.4857         2.4605        92.4229       101.0701       0.230699       0.225558         3.2847         4.3223         4.6080        70.2674
    1685.08680         8.5000         8.4994         2.4650        92.8882       102.0905       0.233120       0.227870         3.3056         4.3299         4.6118        70.0473
    1685.23920         8.5000         8.5080         2.4601        93.3537       104.1113       0.240110       0.234777         3.3277         4.1489         4.4403        69.4926
    1685.39160         8.5000         8.5167         2.4552        93.8192       106.1322       0.247101       0.241685         3.3498         3.9679         4.2688        68.9379
    1685.54400         8.5000         8.5254         2.4534        93.8646       107.4781       0.251182       0.245767         3.3730         3.8262         4.1362        68.3019
    1685.69640         8.5000         8.5343         2.4592        92.8752       107.1611       0.248094       0.242887         3.3991         3.7811         4.0992        67.4659
    1685.84880         8.5000         8.5432         2.4650        91.8857       106.8442       0.245006       0.240007         3.4253         3.7361         4.0622        66.6299
    1686.00120         8.5000         8.5520         2.4708        90.9037       106.5115       0.241932       0.237139         3.4510         3.6920         4.0262        65.8014
