~Version Information Block
VERS .                 2.00:  CWLS LOG ASCII STANDARD - VERSION 2.00
WRAP .                   NO:  One line per depth step
~Well Information Block
#MNEM.UNIT        Data Type   Information
#---------- ----------------  -----------
STRT .M           376.58040:  START DEPTH
STOP .M          2000.85960:  STOP DEPTH
STEP .M             0.15240:  STEP
NULL .              -999.25:  NULL VALUE
COMP .                     :  COMPANY
WELL .            Ngatoro-9:  WELL
FLD  .                     :  FIELD
LOC  .                     :  LOCATION
CTRY .                     :  COUNTRY
STAT .                     :  STATE
CNTY .                     :  COUNTY
SRVC .     New Zealand Petroleum Co Ltd:  SERVICE COMPANY
DATE .                     :  DATE
API  .                     :  API NUMBER
UWI  .         100000290639:  UNIQUE WELL ID
LATI .          -39.1948838:  LATITUDE
LONG .          174.1848348:  LONGITUDE
~Curve Information Block
#MNEM.UNIT         API CODE   Curve Description
#---------- ----------------  -----------------
DEPTH.M                    :  
BS   .IN                   :  Bit Size (Created in Geolog)
CALI .IN                   :  Caliper Log (CALI)
DENS .G/C3                 :  Compensated Formation Density Log (RHOB)
DRHO .G/C3                 :  Density Log Correction (DRHO)
DTC  .US/F                 :  3-5 Ft Compensated Sonic (BPB) (DTC1)
GR   .GAPI                 :  Gamma-Ray Log (GR)
GR_CORR.GAPI                 :  Gamma ray corrected
NEUT .V/V                  :  Neutron Log Porosity (NPHI)
NEUT_CORR.V/V                  :  Corrected NPHI (limestone units)
PEF  .B/E                  :  Photoelectric Factor (PEDF)
RESD .OHMM                 :  Laterolog Deep Resistivity (LLD)
RESD_CORR.OHMM                 :  Borehole corrected LLD
RESS .OHMM                 :  Shallow Laterolog (LLS)
RESS_CORR.OHMM                 :  Borehole corrected LLS
SP   .MV                   :  Spontaneous Potential Log (SP)
TEMP .DEGC                 :  Temperature (TEMP)
TENS .KGF                  :  Cable tension at surface (TENS)
~Parameter Information Block
#MNEM.UNIT            Value   Description
#---------- ----------------  -----------
CUR_INT_BOT.M              2001.5:  Current interpolated bottom
PROJECT.     New Zealand Log QC Project:  
SET  .     A0_FINAL_INTER_REF_D:  
ELEVATION_AMSL.M              291.65:  Elevation above mean sea level
ELEVATION_REF.                   KB:  Measurement reference
FORMATION_AT_TD.      Mount Messenger:  Formation at TD
GL_ELEVATION_AMSL.M            286.3000:  Ground level elevation above mean sea level
LICENCE_NUMBER.             PMP38148:  Licence number
ONSHORE_OR_OFFSHORE.              Onshore:  Onshore/offshore
PR_NUMBER.               PR2437:  Petroleum report number
SPUD_DATE.           06/06/1998:  Spud date
STATUS_AT_COMPLETION.     Cased and suspended as a potential oil producer:  Status at completion
TD_DATE.           20/06/1998:  Total depth date
TOTAL_DEPTH_DRILLED.M              2001.5:  Total depth drilled
~Other Information Block
# 
~A       DEPTH             BS           CALI           DENS           DRHO            DTC             GR        GR_CORR           NEUT      NEUT_CORR            PEF           RESD      RESD_CORR           RESS      RESS_CORR             SP           TEMP           TENS 
# ...
    1771.04040         8.5000         8.6005         2.3070      0.0209356       101.7025        98.1749        98.6764       0.234226       0.229585         2.6646         3.6175         3.6290         3.8863         3.9590        23.1950        54.4922       417.2719
    1771.19280         8.5000         8.5980         2.3134      0.0231572       101.4853        99.7667       100.2623       0.229400       0.224933         2.7080         3.6501         3.6619         3.9164         3.9888        22.7338        54.4922       416.9540
    1771.34520         8.5000         8.5955         2.3198      0.0253788       101.2680       101.3585       101.8482       0.224573       0.220280         2.7513         3.6827         3.6948         3.9465         4.0187        22.2726        54.4922       416.6362
    1771.49760         8.5000         8.5929         2.3262      0.0276004       101.0508       102.9503       103.4342       0.219746       0.215628         2.7947         3.7154         3.7277         3.9767         4.0486        21.8115        54.4922       416.3183
    1771.65000         8.5000         8.6099         2.3410      0.0292050        98.1493       103.9961       104.5798       0.222941       0.218447         2.7979         3.7404         3.7541         4.0165         4.0905        21.8881        54.4922       417.6890
    1771.80240         8.5000         8.6271         2.3560      0.0307998        95.2048       105.0331       105.7184       0.226266       0.221386         2.8005         3.7653         3.7803         4.0566         4.1326        21.9733        54.4922       419.0867
    1771.95480         8.5000         8.6444         2.3709      0.0323945        92.2603       106.0700       106.8569       0.229590       0.224325         2.8030         3.7901         3.8066         4.0966         4.1747        22.0586        54.4922       420.4844
    1772.10720         8.5000         8.6739         2.3887      0.0343450        91.5480       106.2958       107.2495       0.231269       0.225452         2.8043         3.7856         3.8038         4.1087         4.1902        22.2197        54.4922       421.8424
    1772.25960         8.5000         8.7085         2.4077      0.0364454        91.7769       106.1794       107.3274       0.232256       0.225815         2.8051         3.7687         3.7887         4.1089         4.1945        22.4129        54.4922       423.1837
    1772.41200         8.5000         8.7431         2.4266      0.0385459        92.0058       106.0631       107.4054       0.233242       0.226178         2.8060         3.7518         3.7736         4.1091         4.1988        22.6060        54.4922       424.5251
    1772.56440         8.5000         8.7749         2.4407      0.0401767        91.6378       106.5939       108.1244       0.237764       0.229978         2.8224         3.7126         3.7356         4.0856         4.1787        22.5707        54.4922       425.2384
    1772.71680         8.5000         8.8028         2.4480      0.0411657        90.4542       108.0089       109.7193       0.247116       0.238473         2.8600         3.6429         3.6663         4.0297         4.1254        22.2232        54.4922       425.0938
    1772.86920         8.5000         8.8307         2.4554      0.0421547        89.2706       109.4240       111.3143       0.256468       0.246968         2.8977         3.5733         3.5970         3.9739         4.0721        21.8758        54.4922       424.9492
    1773.02160         8.5000         8.8481         2.4594      0.0425819        88.4722       110.2322       112.2342       0.264265       0.254160         2.9269         3.5057         3.5293         3.9185         4.0182        21.5691        54.4925       424.4748
    1773.17400         8.5000         8.8012         2.4436      0.0396072        90.0070       107.3657       109.0663       0.262637       0.253461         2.9048         3.4509         3.4711         3.8665         3.9608        21.5097        54.4944       422.0033
    1773.32640         8.5000         8.7543         2.4277      0.0366324        91.5417       104.4992       105.8984       0.261010       0.252762         2.8827         3.3961         3.4129         3.8145         3.9033        21.4503        54.4964       419.5318
    1773.47880         8.5000         8.7075         2.4119      0.0336577        93.0765       101.6327       102.7306       0.259383       0.252064         2.8605         3.3413         3.3547         3.7624         3.8458        21.3909        54.4983       417.0603
    1773.63120         8.5000         8.6637         2.4026      0.0282636        94.2582        99.6417       100.4931       0.249416       0.243163         2.8348         3.3602         3.3715         3.7943         3.8731        21.6000        54.5167       418.4303
    1773.78360         8.5000         8.6205         2.3943      0.0224787        95.3828        97.7921        98.4060       0.238101       0.232938         2.8085         3.3910         3.4004         3.8397         3.9141        21.8524        54.5378       420.4211
    1773.93600         8.5000         8.5773         2.3860      0.0166938        96.5075        95.9425        96.3189       0.226786       0.222713         2.7822         3.4218         3.4293         3.8851         3.9551        22.1048        54.5589       422.4119
    1774.08840         8.5000         8.5614         2.4117      0.0191484        92.6953        94.0021        94.2862       0.205887       0.202652         2.8440         3.7724         3.7829         4.2773         4.3453        22.0191        54.5680       423.4620
    1774.24080         8.5000         8.5654         2.4621      0.0275682        85.3090        91.9961        92.2928       0.178050       0.175471         2.9695         4.3546         4.3715         4.9206         4.9883        21.6884        54.5685       423.8310
    1774.39320         8.5000         8.5694         2.5124      0.0359880        77.9226        89.9900        90.2995       0.150212       0.148290         3.0950         4.9369         4.9602         5.5639         5.6313        21.3578        54.5690       424.2001
    1774.54560         8.5000         8.5698         2.5290      0.0408330        74.5723        88.4216        88.7278       0.134326       0.132806         3.1591         5.3155         5.3428         5.9773         6.0442        21.1017        54.5728       423.4135
    1774.69800         8.5000         8.5615         2.4665      0.0373051        80.6748        87.8783        88.1436       0.146434       0.144718         3.0794         5.2171         5.2429         5.8522         5.9179        21.0201        54.5847       419.9204
    1774.85040         8.5000         8.5532         2.4040      0.0337773        86.7772        87.3349        87.5595       0.158542       0.156629         2.9997         5.1187         5.1430         5.7271         5.7917        20.9385        54.5966       416.4273
    1775.00280         8.5000         8.5450         2.3427      0.0302373        92.7924        86.8406        87.0248       0.170806       0.168693         2.9208         5.0159         5.0386         5.5974         5.6608        20.8618        54.6083       413.0154
    1775.15520         8.5000         8.5396         2.3458      0.0260430        94.1454        88.9705        89.1330       0.191408       0.188890         2.8822         4.6742         4.6932         5.2172         5.2808        21.0476        54.6101       413.9422
    1775.30760         8.5000         8.5342         2.3490      0.0218487        95.4985        91.1003        91.2412       0.212010       0.209087         2.8436         4.3325         4.3478         4.8371         4.9007        21.2334        54.6119       414.8690
    1775.46000         8.5000         8.5288         2.3521      0.0176544        96.8515        93.2302        93.3494       0.232612       0.229285         2.8050         3.9909         4.0023         4.4570         4.5207        21.4192        54.6138       415.7958
