~Version Information Block
VERS .                 2.00:  CWLS LOG ASCII STANDARD - VERSION 2.00
WRAP .                   NO:  One line per depth step
~Well Information Block
#MNEM.UNIT        Data Type   Information
#---------- ----------------  -----------
STRT .M           535.07640:  START DEPTH
STOP .M          2419.95960:  STOP DEPTH
STEP .M             0.15240:  STEP
NULL .              -999.25:  NULL VALUE
COMP .                     :  COMPANY
WELL .            Ngatoro-3:  WELL
FLD  .                     :  FIELD
LOC  .                     :  LOCATION
CTRY .                     :  COUNTRY
STAT .                     :  STATE
CNTY .                     :  COUNTY
SRVC .     New Zealand Petroleum Co Ltd:  SERVICE COMPANY
DATE .                     :  DATE
API  .                     :  API NUMBER
UWI  .         100000158215:  UNIQUE WELL ID
LATI .          -39.1846093:  LATITUDE
LONG .          174.1883769:  LONGITUDE
~Curve Information Block
#MNEM.UNIT         API CODE   Curve Description
#---------- ----------------  -----------------
DEPTH.M                    :  
BS   .IN                   :  Bit Size (Created in Geolog)
CALI .IN                   :  Caliper Log (CALI)
DENS .G/C3                 :  Compensated Formation Density Log (RHOB)
DRHO .G/C3                 :  Density Log Correction (DRHO)
DTC  .US/F                 :  Delta T (DT)
GR   .GAPI                 :  Gamma-Ray Log (GR)
GR_CORR.GAPI                 :  Gamma ray corrected
NEUT .V/V                  :  Neutron Log Porosity (NPHI)
NEUT_CORR.V/V                  :  Corrected NPHI (limestone units)
PEF  .B/E                  :  Photoelectric Factor (PEDF)
RESD .OHMM                 :  Laterolog Deep Resistivity (LLD)
RESD_CORR.OHMM                 :  Borehole corrected LLD
RESS .OHMM                 :  Shallow Laterolog (LLS)
RESS_CORR.OHMM                 :  Borehole corrected LLS
SP   .MV                   :  Spontaneous Potential Log (SP)
TEMP .DEGC                 :  Temperature (TEMP)
TENS .KGF                  :  Cable tension at surface (TENS)
~Parameter Information Block
#MNEM.UNIT            Value   Description
#---------- ----------------  -----------
CUR_INT_BOT.M                2420:  Current interpolated bottom
PROJECT.     New Zealand Log QC Project:  
SET  .     A0_FINAL_INTER_REF_D:  
ELEVATION_AMSL.M              267.94:  Elevation above mean sea level
ELEVATION_REF.                   KB:  Measurement reference
FORMATION_AT_TD.             Manganui:  Formation at TD
GL_ELEVATION_AMSL.M            263.2000:  Ground level elevation above mean sea level
LICENCE_NUMBER.             PPL38706:  Licence number
ONSHORE_OR_OFFSHORE.              Onshore:  Onshore/offshore
PR_NUMBER.               PR1863:  Petroleum report number
SPUD_DATE.           14/01/1993:  Spud date
STATUS_AT_COMPLETION.     Suspended as a potential oil producer:  Status at completion
TD_DATE.           08/02/1993:  Total depth date
TOTAL_DEPTH_DRILLED.M                2420:  Total depth drilled
~Other Information Block
# 
~A       DEPTH             BS           CALI           DENS           DRHO            DTC             GR        GR_CORR           NEUT      NEUT_CORR            PEF           RESD      RESD_CORR           RESS      RESS_CORR             SP           TEMP           TENS 
# ...
    2400.45240         8.5000         8.6249         2.5893      0.0182311        76.0475       124.3442       124.7192       0.224982       0.223277         3.3486         6.8411         6.8634         7.3712         7.4021      -999.2500        75.7812      1553.7133
    2400.60480         8.5000         8.6250         2.5890      0.0185332        76.3153       126.2686       126.6504       0.228413       0.226635         3.3909         6.7421         6.7650         7.2743         7.3057      -999.2500        75.7750      1551.4650
    2400.75720         8.5000         8.6251         2.5873      0.0182513        76.5862       129.0592       129.4504       0.231539       0.229695         3.4094         6.6327         6.6562         7.1647         7.1967      -999.2500        75.7650      1551.4155
    2400.90960         8.5000         8.6253         2.5856      0.0179694        76.8572       131.8498       132.2504       0.234665       0.232755         3.4280         6.5233         6.5474         7.0551         7.0877      -999.2500        75.7549      1551.3661
    2401.06200         8.5000         8.6254         2.5838      0.0173416        77.0428       131.1139       131.5127       0.235002       0.233085         3.4369         6.4484         6.4730         6.9855         7.0184      -999.2500        75.7469      1551.6184
    2401.21440         8.5000         8.6254         2.5819      0.0162094        77.1041       125.2360       125.6169       0.231275       0.229434         3.4319         6.4241         6.4488         6.9741         7.0071      -999.2500        75.7419      1552.3108
    2401.36680         8.5000         8.6254         2.5800      0.0150772        77.1653       119.3581       119.7211       0.227547       0.225784         3.4269         6.3998         6.4246         6.9628         6.9959      -999.2500        75.7368      1553.0032
    2401.51920         8.5000         8.6254         2.5790      0.0142893        77.2201      -999.2500      -999.2500       0.224337       0.222641         3.4170         6.3806         6.4055         6.9550         6.9881      -999.2500        75.7324      1553.4537
    2401.67160         8.5000         8.6254         2.5845      0.0158908        77.2300      -999.2500      -999.2500       0.224719       0.223015         3.3731         6.3969         6.4217         6.9719         7.0049      -999.2500        75.7324      1552.2273
    2401.82400         8.5000         8.6254         2.5900      0.0174923        77.2399      -999.2500      -999.2500       0.225101       0.223390         3.3292         6.4132         6.4379         6.9888         7.0217      -999.2500        75.7324      1551.0009
    2401.97640         8.5000         8.6254         2.5956      0.0190937        77.2499      -999.2500      -999.2500       0.225483       0.223764         3.2853         6.4295         6.4541         7.0056         7.0385      -999.2500        75.7324      1549.7744
    2402.12880         8.5000         8.6254         2.5936      0.0179369        77.1023      -999.2500      -999.2500       0.226248       0.224515         3.3342         6.5097         6.5339         7.0814         7.1139      -999.2500        75.7326      1556.2322
    2402.28120         8.5000         8.6254         2.5902      0.0162748        76.9259      -999.2500      -999.2500       0.227084       0.225334         3.4001         6.6017         6.6254         7.1680         7.2000      -999.2500        75.7329      1564.0980
    2402.43360         8.5000         8.6254         2.5868      0.0146126        76.7495      -999.2500      -999.2500       0.227920       0.226153         3.4660         6.6937         6.7169         7.2546         7.2862      -999.2500        75.7331      1571.9639
    2402.58600         8.5000         8.6254         2.5863      0.0142077        76.4946      -999.2500      -999.2500       0.227246       0.225494         3.4987         6.7626         6.7854         7.3199         7.3511      -999.2500        75.7340      1573.1798
    2402.73840         8.5000         8.6254         2.5880      0.0147736        76.1792      -999.2500      -999.2500       0.225407       0.223693         3.5057         6.8135         6.8360         7.3687         7.3996      -999.2500        75.7354      1569.2612
    2402.89080         8.5000         8.6254         2.5896      0.0153395        75.8638      -999.2500      -999.2500       0.223568       0.221893         3.5127         6.8645         6.8866         7.4175         7.4482      -999.2500        75.7368      1565.3428
    2403.04320         8.5000         8.6254         2.5902      0.0155536        75.6378      -999.2500      -999.2500       0.221158       0.219534         3.5193         6.9058         6.9276         7.4575         7.4879      -999.2500        75.7374      1561.1414
    2403.19560         8.5000         8.6254         2.5878      0.0148785        75.6378      -999.2500      -999.2500       0.217305       0.215761         3.5248         6.9225         6.9443         7.4751         7.5055      -999.2500        75.7357      1556.2247
    2403.34800         8.5000         8.6254         2.5855      0.0142034        75.6379      -999.2500      -999.2500       0.213451       0.211988         3.5303         6.9392         6.9609         7.4927         7.5230      -999.2500        75.7341      1551.3080
    2403.50040         8.5000         8.6254         2.5832      0.0135315        75.6380      -999.2500      -999.2500       0.209619       0.208236         3.5356         6.9558         6.9773         7.5102         7.5404      -999.2500        75.7324      1546.4178
    2403.65280         8.5000         8.6253         2.5827      0.0141064        75.6974      -999.2500      -999.2500       0.213889       0.212419         3.4826         6.9050         6.9269         7.4478         7.4783      -999.2500        75.7324      1551.5660
    2403.80520         8.5000         8.6252         2.5822      0.0146813        75.7568      -999.2500      -999.2500       0.218159       0.216603         3.4297         6.8543         6.8764         7.3854         7.4162      -999.2500        75.7324      1556.7142
    2403.95760         8.5000         8.6251         2.5817      0.0152561        75.8161      -999.2500      -999.2500       0.222429       0.220786         3.3768         6.8035         6.8260         7.3231         7.3542      -999.2500        75.7324      1561.8624
    2404.11000         8.5000         8.6230         2.5814      0.0186159        76.0028      -999.2500      -999.2500    -999.250000    -999.250000         3.3342         6.6867         6.7096         7.1946         7.2258      -999.2500        75.7324      1564.5139
    2404.26240         8.5000         8.6203         2.5811      0.0230492        76.2385      -999.2500      -999.2500    -999.250000    -999.250000         3.2956         6.5446         6.5679         7.0405         7.0717      -999.2500        75.7324      1566.2030
    2404.41480         8.5000         8.6175         2.5807      0.0274825        76.4742      -999.2500      -999.2500    -999.250000    -999.250000         3.2569         6.4024         6.4263         6.8865         6.9177      -999.2500        75.7324      1567.8921
    2404.56720         8.5000         8.6158         2.5790      0.0312438        76.6353      -999.2500      -999.2500    -999.250000    -999.250000         3.2379         6.2987         6.3229         6.7720         6.8033      -999.2500        75.7324      1567.3417
    2404.71960         8.5000         8.6155         2.5756      0.0341532        76.7016      -999.2500      -999.2500    -999.250000    -999.250000         3.2438         6.2437         6.2682         6.7077         6.7392      -999.2500        75.7324      1563.9517
    2404.87200         8.5000         8.6152         2.5721      0.0370625        76.7680      -999.2500      -999.2500    -999.250000    -999.250000         3.2497         6.1888         6.2134         6.6433         6.6751      -999.2500        75.7324      1560.5618
