~Version Information Block
VERS .                 2.00:  CWLS LOG ASCII STANDARD - VERSION 2.00
WRAP .                   NO:  One line per depth step
~Well Information Block
#MNEM.UNIT        Data Type   Information
#---------- ----------------  -----------
STRT .M           530.50440:  START DEPTH
STOP .M          1878.48240:  STOP DEPTH
STEP .M             0.15240:  STEP
NULL .              -999.25:  NULL VALUE
COMP .                     :  COMPANY
WELL .            Ngatoro-7:  WELL
FLD  .                     :  FIELD
LOC  .                     :  LOCATION
CTRY .                     :  COUNTRY
STAT .                     :  STATE
CNTY .                     :  COUNTY
SRVC .     New Zealand Petroleum Co Ltd:  SERVICE COMPANY
DATE .                     :  DATE
API  .                     :  API NUMBER
UWI  .         100000210191:  UNIQUE WELL ID
LATI .          -39.2039075:  LATITUDE
LONG .          174.1707218:  LONGITUDE
~Curve Information Block
#MNEM.UNIT         API CODE   Curve Description
#---------- ----------------  -----------------
DEPTH.M                    :  
BS   .IN                   :  Bit Size (Created in Geolog)
CALI .IN                   :  Caliper (HCAL)
DENS .G/C3                 :  Bulk Density (RHOZ) and HR Bulk Density (RHO8)
DTC  .US/F                 :  Delta Time (DTC)
GR   .GAPI                 :  Gamma Ray (GR) and HR Gamma Ray (HGR)
NEUT .V/V                  :  Neutron Porosity (NPHI) and HR Neutron Porosity (HTNP)
NEUT_CORR.V/V                  :  Corrected NPHI (limestone units)
PEF  .B/E                  :  HRDD Std Resolution Formation Photoelectric Factor (PEFZ) and (PEF8)
RESD .OHMM                 :  HALS Deep Res. (HLLD) and HR HALS Deep Res. (HRLD)
RESS .OHMM                 :  HALS Shallow Res. (HLLS) and HR HALS Shallow Res. (HRLS)
SP   .MV                   :  Spontaneous Potential (SP)
~Parameter Information Block
#MNEM.UNIT            Value   Description
#---------- ----------------  -----------
CUR_INT_BOT.M                1879:  Current interpolated bottom
PROJECT.     New Zealand Log QC Project:  
SET  .     A0_FINAL_INTER_REF_D:  
ELEVATION_AMSL.M                 327:  Elevation above mean sea level
ELEVATION_REF.                   KB:  Measurement reference
FORMATION_AT_TD.      Mount Messenger:  Formation at TD
GL_ELEVATION_AMSL.M            321.4000:  Ground level elevation above mean sea level
LICENCE_NUMBER.             PPL38706:  Licence number
ONSHORE_OR_OFFSHORE.              Onshore:  Onshore/offshore
PR_NUMBER.               PR2215:  Petroleum report number
SPUD_DATE.           09/04/1996:  Spud date
STATUS_AT_COMPLETION.     Suspended with 7" casing cemented in place:  Status at completion
TD_DATE.           18/04/1996:  Total depth date
TOTAL_DEPTH_DRILLED.M                1879:  Total depth drilled
~Other Information Block
# 
~A       DEPTH             BS           CALI           DENS            DTC             GR           NEUT      NEUT_CORR            PEF           RESD           RESS             SP 
# ...
    1600.35240         8.5000         9.0958         2.4493        94.6190       103.8087       0.284065       0.283889         3.4500         3.6093         3.9391       147.5316
    1600.50480         8.5000         9.0937         2.4539        94.7136       103.6672       0.286116       0.286344         3.4402         3.6317         3.9660       147.3109
    1600.65720         8.5000         9.0830         2.4490        94.8954       102.8650       0.292306       0.292527         3.4516         3.6338         3.9685       147.4611
    1600.80960         8.5000         9.0723         2.4440        95.0773       102.0627       0.298495       0.298711         3.4629         3.6359         3.9710       147.6113
    1600.96200         8.5000         9.0617         2.4391        95.2592       101.2605       0.304685       0.304894         3.4742         3.6380         3.9734       147.7615
    1601.11440         8.5000         9.0592         2.4389        95.2792       101.0185       0.296394       0.295892         3.4814         3.6289         3.9660       147.9312
    1601.26680         8.5000         9.0595         2.4403        95.2454       100.9627       0.283293       0.281845         3.4873         3.6160         3.9553       148.1073
    1601.41920         8.5000         9.0598         2.4417        95.2116       100.9069       0.270192       0.267799         3.4931         3.6031         3.9446       148.2835
    1601.57160         8.5000         9.0570         2.4433        95.2495       101.8313       0.263987       0.261121         3.4935         3.6063         3.9485       148.4961
    1601.72400         8.5000         9.0506         2.4451        95.3684       103.8620       0.265564       0.262759         3.4877         3.6277         3.9688       148.7498
    1601.87640         8.5000         9.0443         2.4468        95.4873       105.8926       0.267141       0.264397         3.4820         3.6491         3.9892       149.0034
    1602.02880         8.5000         9.0409         2.4485        95.5468       107.0552       0.269048       0.266446         3.4799         3.6629         4.0033       149.2544
    1602.18120         8.5000         9.0501         2.4498        95.3514       104.4921       0.272371       0.270259         3.4935         3.6441         3.9909       149.4933
    1602.33360         8.5000         9.0594         2.4511        95.1560       101.9291       0.275694       0.274072         3.5072         3.6253         3.9785       149.7323
    1602.48600         8.5000         9.0686         2.4524        94.9605        99.3660       0.279017       0.277885         3.5208         3.6065         3.9661       149.9713
    1602.63840         8.5000         9.0603         2.4546        95.2265       101.9718       0.278433       0.277203         3.5256         3.6823         4.0415       149.9455
    1602.79080         8.5000         9.0501         2.4570        95.5391       105.1005       0.277453       0.276066         3.5295         3.7677         4.1258       149.8929
    1602.94320         8.5000         9.0400         2.4594        95.8517       108.2291       0.276474       0.274929         3.5334         3.8531         4.2101       149.8403
    1603.09560         8.5000         9.0401         2.4580        95.8099       107.9206       0.275947       0.274308         3.5227         3.8063         4.1579       149.7219
    1603.24800         8.5000         9.0464         2.4543        95.5574       105.5700       0.275688       0.273993         3.5031         3.6809         4.0245       149.5645
    1603.40040         8.5000         9.0526         2.4507        95.3049       103.2193       0.275429       0.273679         3.4836         3.5556         3.8911       149.4070
    1603.55280         8.5000         9.0546         2.4494        95.1321       101.3997       0.274013       0.272083         3.4776         3.5049         3.8363       149.2596
    1603.70520         8.5000         9.0485         2.4526        95.1096       100.5819       0.270416       0.268071         3.4970         3.5950         3.9298       149.1311
    1603.85760         8.5000         9.0424         2.4558        95.0872        99.7641       0.266819       0.264059         3.5164         3.6851         4.0232       149.0026
    1604.01000         8.5000         9.0368         2.4586        95.0870        99.1535       0.263617       0.260482         3.5328         3.7692         4.1102       148.8659
    1604.16240         8.5000         9.0385         2.4567        95.4039       101.4937       0.266040       0.263110         3.5063         3.7666         4.1036       148.6106
    1604.31480         8.5000         9.0402         2.4548        95.7208       103.8339       0.268463       0.265737         3.4799         3.7641         4.0970       148.3554
    1604.46720         8.5000         9.0419         2.4530        96.0377       106.1741       0.270886       0.268365         3.4535         3.7616         4.0905       148.1002
    1604.61960         8.5000         9.0454         2.4490        96.0603       107.9730       0.269323       0.266711         3.4306         3.7151         4.0491       147.8444
    1604.77200         8.5000         9.0493         2.4445        96.0021       109.6235       0.266666       0.263883         3.4087         3.6566         3.9981       147.5885
    1604.92440         8.5000         9.0533         2.4399        95.9440       111.2740       0.264009       0.261055         3.3868         3.5981         3.9471       147.3325
    1605.07680         8.5000         9.0572         2.4349        95.7047       111.2372       0.262535       0.259483         3.3661         3.5864         3.9439       147.2763
    1605.22920         8.5000         9.0609         2.4293        95.2870       109.5393       0.262227       0.259148         3.3468         3.6209         3.9875       147.4167
    1605.38160         8.5000         9.0647         2.4238        94.8693       107.8415       0.261918       0.258812         3.3274         3.6555         4.0312       147.5571
    1605.53400         8.5000         9.0696         2.4214        94.1675       105.8767       0.261148       0.258072         3.3130         3.6837         4.0670       147.6690
    1605.68640         8.5000         9.0786         2.4297        92.4760       102.9827       0.258772       0.255923         3.3163         3.6897         4.0751       147.6815
    1605.83880         8.5000         9.0875         2.4381        90.7845       100.0886       0.256395       0.253775         3.3195         3.6957         4.0832       147.6940
    1605.99120         8.5000         9.0964         2.4465        89.0929        97.1946       0.254019       0.251627         3.3227         3.7018         4.0914       147.7065
    1606.14360         8.5000         9.0722         2.4634        89.3470        97.6224       0.250190       0.248236         3.3450         3.9923         4.3714       147.8236
    1606.29600         8.5000         9.0459         2.4808        89.7203        98.2537       0.246273       0.244768         3.3684         4.3002         4.6681       147.9471
    1606.44840         8.5000         9.0196         2.4983        90.0935        98.8851       0.242355       0.241300         3.3918         4.6082         4.9648       148.0707
    1606.60080         8.5000         9.0139         2.4937        90.5394        98.0792       0.248199       0.247195         3.4036         4.5706         4.9351       148.3381
    1606.75320         8.5000         9.0187         2.4778        91.0224        96.5375       0.259040       0.257883         3.4096         4.3562         4.7383       148.6793
    1606.90560         8.5000         9.0235         2.4619        91.5055        94.9959       0.269881       0.268571         3.4156         4.1418         4.5415       149.0204
    1607.05800         8.5000         9.0272         2.4497        92.1584        94.2371       0.277416       0.276174         3.4181         4.0142         4.4309       149.3120
