~Version Information Block
VERS .                 2.00:  CWLS LOG ASCII STANDARD - VERSION 2.00
WRAP .                   NO:  One line per depth step
~Well Information Block
#MNEM.UNIT        Data Type   Information
#---------- ----------------  -----------
STRT .M             5.63880:  START DEPTH
STOP .M          2149.90680:  STOP DEPTH
STEP .M             0.15240:  STEP
NULL .              -999.25:  NULL VALUE
COMP .                     :  COMPANY
WELL .            Ngatoro-4:  WELL
FLD  .                     :  FIELD
LOC  .                     :  LOCATION
CTRY .                     :  COUNTRY
STAT .                     :  STATE
CNTY .                     :  COUNTY
SRVC .     New Zealand Petroleum Co Ltd:  SERVICE COMPANY
DATE .                     :  DATE
API  .                     :  API NUMBER
UWI  .         100000159749:  UNIQUE WELL ID
LATI .           -39.193014:  LATITUDE
LONG .          174.1756345:  LONGITUDE
~Curve Information Block
#MNEM.UNIT         API CODE   Curve Description
#---------- ----------------  -----------------
DEPTH.M                    :  
BS   .IN                   :  Bit Size (Created in Geolog)
CALI .IN                   :  Caliper Log (CALI)
DRHO .G/C3                 :  Density Log Correction (DRHO)
DTC  .US/F                 :  Delta T (DT)
DTS  .US/F                 :  Delta T Shear Lower Dipole (DT1)
GR   .GAPI                 :  Gamma-Ray Log (GR)
GR_CORR.GAPI                 :  Gamma ray corrected
NEUT .V/V                  :  Neutron Log Porosity (NPHI)
NEUT_CORR.V/V                  :  Corrected NPHI (limestone units)
PEF  .B/E                  :  Photoelectric Factor (PEDF)
RESD .OHMM                 :  Laterolog Deep Resistivity (LLD)
RESD_CORR.OHMM                 :  Borehole corrected LLD
RESS .OHMM                 :  Shallow Laterolog (LLS)
RESS_CORR.OHMM                 :  Borehole corrected LLS
SP   .MV                   :  Spontaneous Potential Log (SP)
TEMP .DEGC                 :  Temperature (TEMP)
TENS .KGF                  :  Cable tension at surface (TENS)
~Parameter Information Block
#MNEM.UNIT            Value   Description
#---------- ----------------  -----------
CUR_INT_BOT.M                2150:  Current interpolated bottom
PROJECT.     New Zealand Log QC Project:  
SET  .     A0_FINAL_INTER_REF_D:  
ELEVATION_AMSL.M               297.7:  Elevation above mean sea level
ELEVATION_REF.                   KB:  Measurement reference
FORMATION_AT_TD.                 Moki:  Formation at TD
GL_ELEVATION_AMSL.M            292.8000:  Ground level elevation above mean sea level
LICENCE_NUMBER.             PPL38706:  Licence number
ONSHORE_OR_OFFSHORE.              Onshore:  Onshore/offshore
PR_NUMBER.               PR1914:  Petroleum report number
SPUD_DATE.           07/03/1993:  Spud date
STATUS_AT_COMPLETION.     Suspended as a potential oil producer:  Status at completion
TD_DATE.           21/03/1993:  Total depth date
TOTAL_DEPTH_DRILLED.M                2150:  Total depth drilled
~Other Information Block
# 
~A       DEPTH             BS           CALI           DRHO            DTC            DTS             GR        GR_CORR           NEUT      NEUT_CORR            PEF           RESD      RESD_CORR           RESS      RESS_CORR             SP           TEMP           TENS 
# ...
    1935.02280         8.5000         8.5195      0.0013183      -999.2500      -999.2500       117.5580       117.6621       0.217995       0.216270         3.6322         4.9936         5.0173         5.4300         5.4652        26.7094        68.4954       561.8805
    1935.17520         8.5000         8.5195      0.0011579      -999.2500      -999.2500       119.4479       119.2796       0.221713       0.219877         3.6111         4.9722         4.9958         5.4068         5.4422        27.0086        68.5048       561.7867
    1935.32760         8.5000         8.5196      0.0009975      -999.2500      -999.2500       121.3377       120.8970       0.225431       0.223483         3.5901         4.9509         4.9743         5.3836         5.4191        27.3078        68.5141       561.6929
    1935.48000         8.5000         8.5197      0.0008371      -999.2500      -999.2500       123.2276       122.5144       0.229149       0.227089         3.5690         4.9295         4.9529         5.3604         5.3961        27.6069        68.5235       561.5992
    1935.63240         8.5000         8.5197      0.0012562      -999.2500      -999.2500       123.2315       122.5900       0.225341       0.223392         3.5366         4.9370         4.9604         5.3571         5.3928        27.7461        68.5262       561.8094
    1935.78480         8.5000         8.5197      0.0017627      -999.2500      -999.2500       122.9505       122.4327       0.220396       0.218592         3.5025         4.9489         4.9724         5.3567         5.3924        27.8611        68.5279       562.0655
    1935.93720         8.5000         8.5197      0.0022693      -999.2500      -999.2500       122.6696       122.2754       0.215452       0.213792         3.4685         4.9608         4.9843         5.3564         5.3921        27.9761        68.5297       562.3217
    1936.08960         8.5000         8.5196      0.0021813      -999.2500      -999.2500       121.9774       121.6360       0.215943       0.214277         3.4573         4.9702         4.9938         5.3548         5.3905        27.9371        68.5304       562.5411
    1936.24200         8.5000         8.5195      0.0016765      -999.2500      -999.2500       120.9970       120.6587       0.220245       0.218466         3.4621         4.9779         5.0015         5.3523         5.3880        27.7901        68.5306       562.7349
    1936.39440         8.5000         8.5193      0.0011718      -999.2500      -999.2500       120.0166       119.6814       0.224547       0.222655         3.4669         4.9856         5.0092         5.3499         5.3855        27.6432        68.5307       562.9286
    1936.54680         8.5000         8.5193      0.0009793      -999.2500      -999.2500       119.5278       119.1812       0.228066       0.226084         3.4673         4.9873         5.0109         5.3421         5.3778        27.5166        68.5307       563.3445
    1936.69920         8.5000         8.5194      0.0014912      -999.2500      -999.2500       120.1483       119.7578       0.229818       0.227799         3.4574         4.9756         4.9991         5.3223         5.3581        27.4358        68.5306       564.2615
    1936.85160         8.5000         8.5196      0.0020032      -999.2500      -999.2500       120.7689       120.3343       0.231571       0.229513         3.4476         4.9638         4.9874         5.3024         5.3384        27.3550        68.5305       565.1785
    1937.00400         8.5000         8.5197      0.0024994      -999.2500      -999.2500       121.3936       120.9189       0.233201       0.231109         3.4380         4.9523         4.9758         5.2830         5.3191        27.2753        68.5305       566.0762
    1937.15640         8.5000         8.5196      0.0024128      -999.2500      -999.2500       122.1745       121.8056       0.230298       0.228284         3.4397         4.9491         4.9726         5.2765         5.3126        27.2358        68.5355       566.2570
    1937.30880         8.5000         8.5195      0.0023262      -999.2500      -999.2500       122.9553       122.6922       0.227396       0.225459         3.4413         4.9459         4.9693         5.2701         5.3062        27.1964        68.5404       566.4377
    1937.46120         8.5000         8.5194      0.0022396      -999.2500      -999.2500       123.7362       123.5788       0.224493       0.222634         3.4430         4.9426         4.9661         5.2637         5.2998        27.1570        68.5454       566.6184
    1937.61360         8.5000         8.5194      0.0022861      -999.2500      -999.2500       123.6181       123.4807       0.223252       0.221415         3.4267         4.9086         4.9319         5.2223         5.2586        27.1793        68.5481       565.2932
    1937.76600         8.5000         8.5194      0.0023780      -999.2500      -999.2500       123.1930       123.0462       0.222577       0.220745         3.4042         4.8640         4.8871         5.1689         5.2056        27.2225        68.5501       563.4536
    1937.91840         8.5000         8.5193      0.0024699      -999.2500      -999.2500       122.7680       122.6117       0.221903       0.220075         3.3818         4.8195         4.8424         5.1156         5.1525        27.2658        68.5521       561.6139
    1938.07080         8.5000         8.5174      0.0022647      -999.2500      -999.2500       122.0584       121.8598       0.220891       0.219111         3.3848         4.8023         4.8250         5.0946         5.1313        27.3835        68.5531       559.6678
    1938.22320         8.5000         8.5135      0.0017171      -999.2500      -999.2500       121.0209       120.7421       0.219492       0.217808         3.4171         4.8168         4.8392         5.1108         5.1467        27.5870        68.5530       557.5991
    1938.37560         8.5000         8.5095      0.0011694      -999.2500      -999.2500       119.9835       119.6245       0.218092       0.216505         3.4494         4.8313         4.8534         5.1270         5.1621        27.7904        68.5529       555.5303
    1938.52800         8.5000         8.5060      0.0009261      -999.2500      -999.2500       119.3181       118.8800       0.216981       0.215474         3.4797         4.8441         4.8661         5.1411         5.1755        27.9348        68.5538       554.2024
    1938.68040         8.5000         8.5051      0.0020351      -999.2500      -999.2500       120.3056       119.7938       0.217150       0.215651         3.5012         4.8498         4.8717         5.1458         5.1800        27.8168        68.5590       556.1663
    1938.83280         8.5000         8.5043      0.0031440      -999.2500      -999.2500       121.2931       120.7076       0.217319       0.215828         3.5227         4.8555         4.8774         5.1506         5.1845        27.6988        68.5641       558.1302
    1938.98520         8.5000         8.5034      0.0042529      -999.2500      -999.2500       122.2807       121.6214       0.217487       0.216005         3.5441         4.8612         4.8830         5.1553         5.1891        27.5808        68.5693       560.0941
    1939.13760         8.5000         8.5117      0.0038730      -999.2500      -999.2500       122.9171       122.4037       0.220919       0.219233         3.5294         4.8433         4.8657         5.1324         5.1678        27.4408        68.5759       559.6712
    1939.29000         8.5000         8.5210      0.0033330      -999.2500      -999.2500       123.5158       123.1719       0.224702       0.222789         3.5107         4.8228         4.8459         5.1066         5.1438        27.2985        68.5826       558.9916
    1939.44240         8.5000         8.5303      0.0027930      -999.2500      -999.2500       124.1145       123.9400       0.228485       0.226346         3.4921         4.8023         4.8260         5.0808         5.1198        27.1561        68.5892       558.3120
