~Version Information Block
VERS .                 2.00:  CWLS LOG ASCII STANDARD - VERSION 2.00
WRAP .                   NO:  One line per depth step
~Well Information Block
#MNEM.UNIT        Data Type   Information
#---------- ----------------  -----------
STRT .M           535.07640:  START DEPTH
STOP .M          2419.95960:  STOP DEPTH
STEP .M             0.15240:  STEP
NULL .              -999.25:  NULL VALUE
COMP .                     :  COMPANY
WELL .            Ngatoro-3:  WELL
FLD  .                     :  FIELD
LOC  .                     :  LOCATION
CTRY .                     :  COUNTRY
STAT .                     :  STATE
CNTY .                     :  COUNTY
SRVC .     New Zealand Petroleum Co Ltd:  SERVICE COMPANY
DATE .                     :  DATE
API  .                     :  API NUMBER
UWI  .         100000158215:  UNIQUE WELL ID
LATI .          -39.1846093:  LATITUDE
LONG .          174.1883769:  LONGITUDE
~Curve Information Block
#MNEM.UNIT         API CODE   Curve Description
#---------- ----------------  -----------------
DEPTH.M                    :  
BS   .IN                   :  Bit Size (Created in Geolog)
CALI .IN                   :  Caliper Log (CALI)
DENS .G/C3                 :  Compensated Formation Density Log (RHOB)
DRHO .G/C3                 :  Density Log Correction (DRHO)
DTC  .US/F                 :  Delta T (DT)
GR   .GAPI                 :  Gamma-Ray Log (GR)
GR_CORR.GAPI                 :  Gamma ray corrected
NEUT .V/V                  :  Neutron Log Porosity (NPHI)
NEUT_CORR.V/V                  :  Corrected NPHI (limestone units)
PEF  .B/E                  :  Photoelectric Factor (PEDF)
RESD .OHMM                 :  Laterolog Deep Resistivity (LLD)
RESD_CORR.OHMM                 :  Borehole corrected LLD
RESS .OHMM                 :  Shallow Laterolog (LLS)
RESS_CORR.OHMM                 :  Borehole corrected LLS
SP   .MV                   :  Spontaneous Potential Log (SP)
TEMP .DEGC                 :  Temperature (TEMP)
TENS .KGF                  :  Cable tension at surface (TENS)
~Parameter Information Block
#MNEM.UNIT            Value   Description
#---------- ----------------  -----------
CUR_INT_BOT.M                2420:  Current interpolated bottom
PROJECT.     New Zealand Log QC Project:  
SET  .     A0_FINAL_INTER_REF_D:  
ELEVATION_AMSL.M              267.94:  Elevation above mean sea level
ELEVATION_REF.                   KB:  Measurement reference
FORMATION_AT_TD.             Manganui:  Formation at TD
GL_ELEVATION_AMSL.M            263.2000:  Ground level elevation above mean sea level
LICENCE_NUMBER.             PPL38706:  Licence number
ONSHORE_OR_OFFSHORE.              Onshore:  Onshore/offshore
PR_NUMBER.               PR1863:  Petroleum report number
SPUD_DATE.           14/01/1993:  Spud date
STATUS_AT_COMPLETION.     Suspended as a potential oil producer:  Status at completion
TD_DATE.           08/02/1993:  Total depth date
TOTAL_DEPTH_DRILLED.M                2420:  Total depth drilled
~Other Information Block
# 
~A       DEPTH             BS           CALI           DENS           DRHO            DTC             GR        GR_CORR           NEUT      NEUT_CORR            PEF           RESD      RESD_CORR           RESS      RESS_CORR             SP           TEMP           TENS 
# ...
    1294.02840         8.5000         8.6445         2.3876      0.0220623       100.8733       104.5582       104.9862       0.303511       0.294898         3.0125         2.9267         2.9397         3.1465         3.2061        68.5547        53.3398      1087.5389
    1294.18080         8.5000         8.6335         2.3803      0.0215810        99.7897       101.3048       101.6636       0.289630       0.281639         3.0475         3.0210         3.0347         3.2553         3.3140        68.1367        53.3483      1092.9697
    1294.33320         8.5000         8.6226         2.3731      0.0210998        98.7061        98.0514        98.3410       0.275749       0.268380         3.0825         3.1153         3.1296         3.3641         3.4220        67.7187        53.3568      1098.4005
    1294.48560         8.5000         8.6116         2.3658      0.0206185        97.6225        94.7981        95.0184       0.261868       0.255121         3.1174         3.2096         3.2245         3.4729         3.5299        67.3008        53.3653      1103.8313
    1294.63800         8.5000         8.6107         2.3718      0.0198768        98.1368        95.3884        95.6053       0.265968       0.259125         3.1123         3.2039         3.2188         3.4748         3.5318        67.4788        53.3737      1103.2538
    1294.79040         8.5000         8.6109         2.3791      0.0191079        98.8179        96.3798        96.6002       0.271945       0.264930         3.1029         3.1879         3.2026         3.4656         3.5226        67.7190        53.3821      1102.0493
    1294.94280         8.5000         8.6111         2.3863      0.0183391        99.4989        97.3712        97.5951       0.277922       0.270734         3.0936         3.1718         3.1863         3.4564         3.5134        67.9592        53.3904      1100.8447
    1295.09520         8.5000         8.6130         2.3905      0.0197759        99.9297        98.1212        98.3564       0.280443       0.273149         3.0525         3.1704         3.1850         3.4446         3.5018        67.8768        53.3883      1106.7491
    1295.24760         8.5000         8.6158         2.3927      0.0225379       100.2100        98.7262        98.9773       0.280887       0.273526         2.9922         3.1777         3.1925         3.4314         3.4888        67.6005        53.3800      1116.9247
    1295.40000         8.5000         8.6186         2.3949      0.0253000       100.4904        99.3312        99.5983       0.281331       0.273904         2.9320         3.1850         3.2001         3.4181         3.4759        67.3243        53.3717      1127.1002
    1295.55240         8.5000         8.6228         2.3971      0.0275550       100.7266        99.4537        99.7424       0.279501       0.272047         2.9000         3.2288         3.2446         3.4286         3.4868        67.1746        53.3668      1129.6853
    1295.70480         8.5000         8.6296         2.3991      0.0288423       100.8786        98.6556        98.9767       0.273329       0.265927         2.9219         3.3419         3.3595         3.4845         3.5435        67.2664        53.3685      1117.7847
    1295.85720         8.5000         8.6365         2.4011      0.0301297       101.0307        97.8575        98.2110       0.267157       0.259807         2.9438         3.4551         3.4744         3.5403         3.6002        67.3581        53.3703      1105.8840
    1296.00960         8.5000         8.6415         2.4011      0.0310618       101.4246        97.1638        97.5403       0.261636       0.254355         2.9599         3.5530         3.5737         3.5864         3.6469        67.4606        53.3723      1094.8767
    1296.16200         8.5000         8.6186         2.3707      0.0267093       105.4176        98.0235        98.2834       0.265801       0.258836         2.8903         3.4233         3.4413         3.4878         3.5459        67.7234        53.3789      1097.1566
    1296.31440         8.5000         8.5957         2.3403      0.0223568       109.4106        98.8833        99.0265       0.269966       0.263318         2.8207         3.2936         3.3089         3.3892         3.4448        67.9861        53.3855      1099.4366
    1296.46680         8.5000         8.5727         2.3099      0.0180042       113.4036        99.7430        99.7695       0.274132       0.267799         2.7511         3.1640         3.1764         3.2906         3.3437        68.2488        53.3921      1101.7166
    1296.61920         8.5000         8.5696         2.2964      0.0136831       112.3862        99.0938        99.1047       0.271697       0.265484         2.7613         3.2397         3.2528         3.3850         3.4377        68.4599        53.3936      1101.2911
    1296.77160         8.5000         8.5721         2.2876      0.0093707       109.9732        98.0243        98.0477       0.267425       0.261277         2.7937         3.3725         3.3872         3.5331         3.5860        68.6566        53.3936      1100.1121
    1296.92400         8.5000         8.5745         2.2789      0.0050583       107.5602        96.9549        96.9908       0.263152       0.257070         2.8261         3.5054         3.5217         3.6813         3.7343        68.8533        53.3936      1098.9331
    1297.07640         8.5000         8.5770         2.2835      0.0033556       105.5771        97.1160        97.1653       0.259055       0.253034         2.8641         3.5610         3.5780         3.7438         3.7971        68.9993        53.3936      1095.1694
    1297.22880         8.5000         8.5796         2.3014      0.0042490       104.0218        98.5013        98.5649       0.255131       0.249168         2.9079         3.5397         3.5567         3.7211         3.7747        69.0949        53.3936      1088.8348
    1297.38120         8.5000         8.5822         2.3193      0.0051425       102.4664        99.8865        99.9646       0.251207       0.245302         2.9516         3.5184         3.5353         3.6984         3.7523        69.1905        53.3936      1082.5001
    1297.53360         8.5000         8.5904         2.3361      0.0068917       101.0945       101.3204       101.4441       0.248952       0.242958         2.9869         3.4923         3.5094         3.6656         3.7204        69.2742        53.3938      1078.8464
    1297.68600         8.5000         8.6184         2.3488      0.0116666       100.3712       102.9264       103.2061       0.252596       0.245993         2.9929         3.4492         3.4673         3.5969         3.6546        69.3162        53.3948      1084.6716
    1297.83840         8.5000         8.6463         2.3614      0.0164415        99.6480       104.5323       104.9681       0.256240       0.249029         2.9988         3.4060         3.4252         3.5281         3.5888        69.3582        53.3958      1090.4969
    1297.99080         8.5000         8.6743         2.3741      0.0212164        98.9248       106.1382       106.7300       0.259883       0.252065         3.0047         3.3629         3.3831         3.4594         3.5230        69.4001        53.3968      1096.3221
    1298.14320         8.5000         8.6535         2.3626      0.0214304        99.5941       105.3337       105.8098       0.258780       0.251372         2.9486         3.3363         3.3552         3.4301         3.4915        69.5686        53.4044      1093.5635
    1298.29560         8.5000         8.6296         2.3496      0.0213514       100.3529       104.3743       104.7172       0.257372       0.250440         2.8886         3.3109         3.3282         3.4033         3.4622        69.7453        53.4125      1090.2533
    1298.44800         8.5000         8.6057         2.3366      0.0212724       101.1118       103.4149       103.6246       0.255964       0.249508         2.8285         3.2855         3.3011         3.3764         3.4329        69.9220        53.4205      1086.9431
