~Version Information Block
VERS .                 2.00:  CWLS LOG ASCII STANDARD - VERSION 2.00
WRAP .                   NO:  One line per depth step
~Well Information Block
#MNEM.UNIT        Data Type   Information
#---------- ----------------  -----------
STRT .M           387.55320:  START DEPTH
STOP .M          1999.48800:  STOP DEPTH
STEP .M             0.15240:  STEP
NULL .              -999.25:  NULL VALUE
COMP .                     :  COMPANY
WELL .           Ngatoro-13:  WELL
FLD  .                     :  FIELD
LOC  .                     :  LOCATION
CTRY .                     :  COUNTRY
STAT .                     :  STATE
CNTY .                     :  COUNTY
SRVC .     Greymouth Petroleum Ltd:  SERVICE COMPANY
DATE .                     :  DATE
API  .                     :  API NUMBER
UWI  .         100000787699:  UNIQUE WELL ID
LATI .            -39.21139:  LATITUDE
LONG .            174.18349:  LONGITUDE
~Curve Information Block
#MNEM.UNIT         API CODE   Curve Description
#---------- ----------------  -----------------
DEPTH.M                    :  
BS   .IN                   :  Bit Size (Created in Geolog)
CALI .IN                   :  HRCC Cal. Caliper (HCAL)
DENS .G/C3                 :  HRDD Standard Resolution Formation Density (RHOZ) and (RHO8)
DRHO .G/C3                 :  HRDD Density Correction (HDRA)
DTC  .US/F                 :  Delta-T Compressional (DTCO)
DTS  .US/F                 :  Delta-T Shear (DTSM)
GR   .GAPI                 :  Gamma-Ray (GR) and HiRes Gamma-Ray (EHGR)
NEUT .V/V                  :  Enhanced Thermal Neutron Porosity(NPOR) and (HNPO)
PEF  .B/E                  :  HRDD Std Resolution Formation Photoelectric Factor (PEFZ) and (PEF8)
RESD .OHMM                 :  HALS Laterolog Deep R (HLLD) and HALS HiRes Deep Res (HRLD)
RESS .OHMM                 :  HALS Shallow Res. (HLLS) and HR HALS Shallow Res. (HRLS)
SP   .MV                   :  SP Shifted (SP)
TENS .KGF                  :  Cable Tension (TENS)
~Parameter Information Block
#MNEM.UNIT            Value   Description
#---------- ----------------  -----------
CUR_INT_BOT.M                2032:  Current interpolated bottom
PROJECT.     New Zealand Log QC Project:  
SET  .     A0_FINAL_INTER_REF_D:  
ELEVATION_AMSL.M              323.75:  Elevation above mean sea level
ELEVATION_REF.                   DF:  Measurement reference
FORMATION_AT_TD.                 Moki:  Formation at TD
GL_ELEVATION_AMSL.M            323.3000:  Ground level elevation above mean sea level
LICENCE_NUMBER.             PMP38148:  Licence number
ONSHORE_OR_OFFSHORE.              Onshore:  Onshore/offshore
PR_NUMBER.               PR3545:  Petroleum report number
SPUD_DATE.           28/10/2006:  Spud date
STATUS_AT_COMPLETION.     Completed ready for perforating:  Status at completion
TD_DATE.           10/11/2006:  Total depth date
TOTAL_DEPTH_DRILLED.M                2032:  Total depth drilled
~Other Information Block
# 
~A       DEPTH             BS           CALI           DENS           DRHO            DTC            DTS             GR           NEUT            PEF           RESD           RESS             SP           TENS 
# ...
    1469.28840         8.5000         8.6939         2.4190         0.0176       101.5815       181.1694        93.3662       0.232398         3.1831         5.1177         5.5271       193.1584      1348.5227
    1469.44080         8.5000         8.6170         2.3743         0.0199        99.6212       183.6798        94.8120       0.268659         3.1101         4.1063         4.4182       192.8979      1345.9155
    1469.59320         8.5000         8.6218         2.3731         0.0240        98.2375       183.9983        97.3026       0.281758         3.1020         3.6242         3.8811       192.8002      1338.1595
    1469.74560         8.5000         8.6785         2.3995         0.0294        97.2203       182.9246       100.4570       0.280143         3.1353         3.4784         3.7073       192.8058      1327.1331
    1469.89800         8.5000         8.7352         2.4260         0.0348        96.2030       181.8509       103.6113       0.278528         3.1685         3.3326         3.5335       192.8114      1316.1066
    1470.05040         8.5000         8.7752         2.4395         0.0355        96.9079       182.5432       106.1835       0.279060         3.1818         3.2949         3.4779       192.7663      1310.0687
    1470.20280         8.5000         8.7816         2.4267         0.0266       101.0985       186.8095       107.5773       0.283934         3.1546         3.4759         3.6612       192.6187      1314.1268
    1470.35520         8.5000         8.7879         2.4139         0.0177       105.2890       191.0758       108.9712       0.288808         3.1274         3.6569         3.8445       192.4711      1318.1849
    1470.50760         8.5000         8.7894         2.4009         0.0097       109.2764       195.2296       110.1376       0.293992         3.1010         3.8171         4.0053       192.3170      1321.4550
    1470.66000         8.5000         8.6982         2.3845         0.0181       109.3920       197.2412       106.9713       0.305064         3.0894         3.5823         3.7353       192.0387      1309.7094
    1470.81240         8.5000         8.6070         2.3681         0.0265       109.5077       199.2527       103.8050       0.316137         3.0778         3.3474         3.4653       191.7605      1297.9637
    1470.96480         8.5000         8.5159         2.3517         0.0349       109.6233       201.2642       100.6386       0.327210         3.0662         3.1125         3.1953       191.4822      1286.2181
    1471.11720         8.5000         8.4929         2.3410         0.0342       110.9099       205.1217       101.3343       0.325886         3.0620         3.1076         3.1703       191.2259      1289.5383
    1471.26960         8.5000         8.4904         2.3320         0.0309       112.5482       209.5336       103.1899       0.320839         3.0601         3.1717         3.2188       190.9762      1297.3833
    1471.42200         8.5000         8.4878         2.3231         0.0275       114.1865       213.9455       105.0455       0.315792         3.0582         3.2358         3.2673       190.7265      1305.2284
    1471.57440         8.5000         8.5000         2.3063         0.0217       115.1788       214.6424       105.7451       0.304725         3.0268         3.2418         3.2569       191.0192      1309.4163
    1471.72680         8.5000         8.5275         2.2813         0.0135       115.4937       211.4444       105.2329       0.287349         2.9645         3.1869         3.1849       191.8804      1309.7701
    1471.87920         8.5000         8.5550         2.2562         0.0053       115.8087       208.2465       104.7207       0.269972         2.9023         3.1319         3.1129       192.7417      1310.1239
    1472.03160         8.5000         8.5655         2.2455         0.0001       115.5235       205.3426       104.0760       0.255204         2.8631         3.1196         3.0892       193.4762      1310.6611
    1472.18400         8.5000         8.5107         2.2892         0.0069       112.9441       203.5627       102.9249       0.250411         2.9124         3.2697         3.2500       193.7256      1311.8994
    1472.33640         8.5000         8.4558         2.3330         0.0136       110.3647       201.7827       101.7737       0.245617         2.9617         3.4199         3.4107       193.9751      1313.1377
    1472.48880         8.5000         8.4010         2.3767         0.0203       107.7853       200.0027       100.6225       0.240823         3.0110         3.5700         3.5715       194.2246      1314.3761
    1472.64120         8.5000         8.4279         2.3783         0.0196       106.6469       197.5367       101.3089       0.257893         3.0300         3.4908         3.5397       195.0137      1320.2111
    1472.79360         8.5000         8.4612         2.3766         0.0182       105.6228       195.0162       102.1411       0.276698         3.0467         3.3933         3.4926       195.8455      1326.4108
    1472.94600         8.5000         8.4946         2.3748         0.0168       104.5986       192.4958       102.9733       0.295502         3.0633         3.2959         3.4456       196.6774      1332.6104
    1473.09840         8.5000         8.5105         2.3704         0.0137       104.0365       189.4890       103.0081       0.299549         3.0533         3.2214         3.3804       196.8289      1332.9586
    1473.25080         8.5000         8.5167         2.3645         0.0097       103.7278       186.2153       102.6052       0.295497         3.0287         3.1595         3.3053       196.6071      1330.0957
    1473.40320         8.5000         8.5230         2.3587         0.0057       103.4191       182.9416       102.2024       0.291445         3.0041         3.0976         3.2302       196.3853      1327.2328
    1473.55560         8.5000         8.5340         2.3739         0.0062       103.3585       178.1403       101.0941       0.290803         3.0327         3.1994         3.3314       196.2729      1328.0657
    1473.70800         8.5000         8.5530         2.4258         0.0144       103.7297       170.6795        98.7576       0.296097         3.1539         3.5860         3.7394       196.3512      1335.3331
    1473.86040         8.5000         8.5720         2.4777         0.0227       104.1010       163.2187        96.4211       0.301390         3.2750         3.9726         4.1474       196.4295      1342.6006
    1474.01280         8.5000         8.5897         2.5280         0.0306       104.9693       157.0885        94.0043       0.300893         3.3932         4.6081         4.8012       196.5323      1348.6392
    1474.16520         8.5000         8.5924         2.5618         0.0350       111.2578       165.4700        90.7113       0.237238         3.4786         7.9584         8.1353       196.9024      1341.2758
    1474.31760         8.5000         8.5951         2.5955         0.0394       117.5463       173.8515        87.4182       0.173584         3.5640        11.3087        11.4694       197.2726      1333.9125
    1474.47000         8.5000         8.5978         2.6293         0.0438       123.8348       182.2330        84.1252       0.109929         3.6494        14.6591        14.8035       197.6427      1326.5491
    1474.62240         8.5000         8.5770         2.5400         0.0354       126.9383       191.8539        85.5175       0.129941         3.5219        12.5713        12.6711       197.8233      1318.1183
    1474.77480         8.5000         8.5504         2.4206         0.0239       129.2613       201.7786        88.0581       0.170460         3.3422         9.1508         9.1989       197.9574      1309.4259
    1474.92720         8.5000         8.5237         2.3011         0.0124       131.5843       211.7032        90.5988       0.210978         3.1626         5.7302         5.7266       198.0916      1300.7335
    1475.07960         8.5000         8.4957         2.2318         0.0058       134.5588       216.4200        91.2344       0.238034         3.0347         4.0358         4.0195       198.0939      1305.3875
