~Version Information Block
VERS .                 2.00:  CWLS LOG ASCII STANDARD - VERSION 2.00
WRAP .                   NO:  One line per depth step
~Well Information Block
#MNEM.UNIT        Data Type   Information
#---------- ----------------  -----------
STRT .M           376.58040:  START DEPTH
STOP .M          2000.85960:  STOP DEPTH
STEP .M             0.15240:  STEP
NULL .              -999.25:  NULL VALUE
COMP .                     :  COMPANY
WELL .            Ngatoro-9:  WELL
FLD  .                     :  FIELD
LOC  .                     :  LOCATION
CTRY .                     :  COUNTRY
STAT .                     :  STATE
CNTY .                     :  COUNTY
SRVC .     New Zealand Petroleum Co Ltd:  SERVICE COMPANY
DATE .                     :  DATE
API  .                     :  API NUMBER
UWI  .         100000290639:  UNIQUE WELL ID
LATI .          -39.1948838:  LATITUDE
LONG .          174.1848348:  LONGITUDE
~Curve Information Block
#MNEM.UNIT         API CODE   Curve Description
#---------- ----------------  -----------------
DEPTH.M                    :  
BS   .IN                   :  Bit Size (Created in Geolog)
CALI .IN                   :  Caliper Log (CALI)
DENS .G/C3                 :  Compensated Formation Density Log (RHOB)
DRHO .G/C3                 :  Density Log Correction (DRHO)
DTC  .US/F                 :  3-5 Ft Compensated Sonic (BPB) (DTC1)
GR   .GAPI                 :  Gamma-Ray Log (GR)
GR_CORR.GAPI                 :  Gamma ray corrected
NEUT .V/V                  :  Neutron Log Porosity (NPHI)
NEUT_CORR.V/V                  :  Corrected NPHI (limestone units)
PEF  .B/E                  :  Photoelectric Factor (PEDF)
RESD .OHMM                 :  Laterolog Deep Resistivity (LLD)
RESD_CORR.OHMM                 :  Borehole corrected LLD
RESS .OHMM                 :  Shallow Laterolog (LLS)
RESS_CORR.OHMM                 :  Borehole corrected LLS
SP   .MV                   :  Spontaneous Potential Log (SP)
TEMP .DEGC                 :  Temperature (TEMP)
TENS .KGF                  :  Cable tension at surface (TENS)
~Parameter Information Block
#MNEM.UNIT            Value   Description
#---------- ----------------  -----------
CUR_INT_BOT.M              2001.5:  Current interpolated bottom
PROJECT.     New Zealand Log QC Project:  
SET  .     A0_FINAL_INTER_REF_D:  
ELEVATION_AMSL.M              291.65:  Elevation above mean sea level
ELEVATION_REF.                   KB:  Measurement reference
FORMATION_AT_TD.      Mount Messenger:  Formation at TD
GL_ELEVATION_AMSL.M            286.3000:  Ground level elevation above mean sea level
LICENCE_NUMBER.             PMP38148:  Licence number
ONSHORE_OR_OFFSHORE.              Onshore:  Onshore/offshore
PR_NUMBER.               PR2437:  Petroleum report number
SPUD_DATE.           06/06/1998:  Spud date
STATUS_AT_COMPLETION.     Cased and suspended as a potential oil producer:  Status at completion
TD_DATE.           20/06/1998:  Total depth date
TOTAL_DEPTH_DRILLED.M              2001.5:  Total depth drilled
~Other Information Block
# 
~A       DEPTH             BS           CALI           DENS           DRHO            DTC             GR        GR_CORR           NEUT      NEUT_CORR            PEF           RESD      RESD_CORR           RESS      RESS_CORR             SP           TEMP           TENS 
# ...
    1377.84840         8.5000         9.4841         2.4007      0.0265505        95.8062       122.9661       129.1872       0.302664       0.277704         3.0875         2.3935         2.4123         2.5605         2.6801        23.8232        47.9004       332.6597
    1378.00080         8.5000         9.4877         2.4002      0.0257078        96.5269       124.0469       130.3440       0.309364       0.283827         3.0855         2.3852         2.4038         2.5522         2.6718        23.5964        47.9004       332.8636
    1378.15320         8.5000         9.4837         2.4023      0.0261052        96.4228       122.4808       128.6747       0.304805       0.279691         3.0966         2.3890         2.4076         2.5564         2.6759        23.8267        47.9004       332.0176
    1378.30560         8.5000         9.4797         2.4044      0.0265027        96.3187       120.9147       127.0053       0.300247       0.275556         3.1077         2.3928         2.4114         2.5606         2.6800        24.0571        47.9004       331.1716
    1378.45800         8.5000         9.4757         2.4065      0.0269002        96.2145       119.3486       125.3360       0.295689       0.271421         3.1188         2.3966         2.4152         2.5647         2.6841        24.2875        47.9004       330.3255
    1378.61040         8.5000         9.4801         2.4094      0.0273879        96.1581       118.6182       124.5942       0.295288       0.270970         3.0867         2.4093         2.4284         2.5762         2.6963        24.2098        47.9004       329.9451
    1378.76280         8.5000         9.4877         2.4127      0.0279099        96.1197       118.2056       124.2054       0.296468       0.271922         3.0382         2.4255         2.4453         2.5905         2.7115        24.0149        47.9004       329.7419
    1378.91520         8.5000         9.4952         2.4160      0.0284319        96.0814       117.7931       123.8165       0.297649       0.272873         2.9898         2.4416         2.4621         2.6048         2.7267        23.8201        47.9004       329.5386
    1379.06760         8.5000         9.4968         2.4176      0.0289847        96.0278       117.1359       123.1351       0.303091       0.277870         2.9684         2.4429         2.4635         2.6057         2.7277        23.5534        47.9004       329.5009
    1379.22000         8.5000         9.4907         2.4170      0.0295763        95.9550       116.1719       122.0868       0.313879       0.287943         2.9811         2.4258         2.4457         2.5898         2.7109        23.1967        47.9004       329.6711
    1379.37240         8.5000         9.4846         2.4163      0.0301678        95.8823       115.2078       121.0386       0.324667       0.298017         2.9938         2.4086         2.4278         2.5739         2.6941        22.8400        47.9004       329.8412
    1379.52480         8.5000         9.4795         2.4152      0.0303153        95.7800       114.8141       120.5954       0.332766       0.305588         3.0056         2.3963         2.4150         2.5624         2.6819        22.5630        47.9004       329.9587
    1379.67720         8.5000         9.4798         2.4112      0.0281783        95.5257       117.3549       123.2661       0.327030       0.300287         3.0133         2.4091         2.4282         2.5734         2.6933        22.6962        47.9004       329.8060
    1379.82960         8.5000         9.4801         2.4072      0.0260413        95.2714       119.8957       125.9368       0.321293       0.294986         3.0209         2.4219         2.4414         2.5844         2.7048        22.8293        47.9004       329.6533
    1379.98200         8.5000         9.4804         2.4031      0.0239043        95.0171       122.4365       128.6075       0.315556       0.289685         3.0286         2.4347         2.4545         2.5954         2.7162        22.9624        47.9004       329.5006
    1380.13440         8.5000         9.4865         2.4064      0.0238053        94.9974       120.9603       127.0920       0.312409       0.286666         3.0358         2.4396         2.4598         2.6024         2.7237        23.0508        47.9004       329.7965
    1380.28680         8.5000         9.4933         2.4106      0.0239793        95.0091       118.9460       125.0158       0.309608       0.283952         3.0431         2.4434         2.4639         2.6088         2.7307        23.1333        47.9004       330.1524
    1380.43920         8.5000         9.5002         2.4148      0.0241532        95.0209       116.9318       122.9397       0.306807       0.281239         3.0503         2.4472         2.4681         2.6152         2.7377        23.2158        47.9004       330.5084
    1380.59160         8.5000         9.4993         2.4149      0.0233932        94.9367       115.6200       121.5567       0.307664       0.282046         3.0647         2.4538         2.4748         2.6248         2.7476        23.4563        47.9004       330.8158
    1380.74400         8.5000         9.4933         2.4124      0.0220132        94.7888       114.7745       120.6338       0.310949       0.285190         3.0840         2.4623         2.4834         2.6365         2.7594        23.8017        47.9004       331.0911
    1380.89640         8.5000         9.4873         2.4099      0.0206333        94.6410       113.9290       119.7109       0.314233       0.288335         3.1032         2.4707         2.4919         2.6482         2.7713        24.1471        47.9004       331.3664
    1381.04880         8.5000         9.4827         2.4087      0.0195522        94.6405       114.2737       120.0461       0.313439       0.287686         3.1118         2.4764         2.4976         2.6558         2.7788        24.3807        47.9004       331.5124
    1381.20120         8.5000         9.4810         2.4101      0.0191055        94.9531       117.1452       123.0524       0.303984       0.278987         3.0978         2.4761         2.4972         2.6545         2.7774        24.3770        47.9004       331.3842
    1381.35360         8.5000         9.4793         2.4114      0.0186589        95.2656       120.0167       126.0587       0.294530       0.270287         3.0838         2.4758         2.4969         2.6531         2.7759        24.3733        47.9004       331.2559
    1381.50600         8.5000         9.4776         2.4127      0.0181983        95.5412       122.6009       128.7631       0.285321       0.261813         3.0725         2.4770         2.4981         2.6533         2.7760        24.3451        47.9004       331.1265
    1381.65840         8.5000         9.4758         2.4116      0.0173976        94.9143       118.1733       124.1033       0.282095       0.258863         3.1286         2.5155         2.5376         2.6888         2.8126        23.7176        47.9004       330.9700
    1381.81080         8.5000         9.4740         2.4105      0.0165969        94.2873       113.7457       119.4435       0.278868       0.255912         3.1848         2.5539         2.5771         2.7242         2.8493        23.0901        47.9004       330.8136
    1381.96320         8.5000         9.4722         2.4094      0.0157962        93.6603       109.3181       114.7837       0.275641       0.252961         3.2409         2.5924         2.6167         2.7597         2.8860        22.4627        47.9004       330.6571
    1382.11560         8.5000         9.4816         2.4112      0.0179529        92.8480       107.8882       113.3323       0.272068       0.249504         3.2528         2.7104         2.7386         2.8838         3.0154        22.3619        47.9004       330.7305
    1382.26800         8.5000         9.4946         2.4140      0.0210511        91.9765       107.4126       112.9024       0.268384       0.245885         3.2506         2.8538         2.8867         3.0360         3.1743        22.4288        47.9004       330.8770
