~Version Information Block
VERS .                 2.00:  CWLS LOG ASCII STANDARD - VERSION 2.00
WRAP .                   NO:  One line per depth step
~Well Information Block
#MNEM.UNIT        Data Type   Information
#---------- ----------------  -----------
STRT .M           387.55320:  START DEPTH
STOP .M          1999.48800:  STOP DEPTH
STEP .M             0.15240:  STEP
NULL .              -999.25:  NULL VALUE
COMP .                     :  COMPANY
WELL .           Ngatoro-13:  WELL
FLD  .                     :  FIELD
LOC  .                     :  LOCATION
CTRY .                     :  COUNTRY
STAT .                     :  STATE
CNTY .                     :  COUNTY
SRVC .     Greymouth Petroleum Ltd:  SERVICE COMPANY
DATE .                     :  DATE
API  .                     :  API NUMBER
UWI  .         100000787699:  UNIQUE WELL ID
LATI .            -39.21139:  LATITUDE
LONG .            174.18349:  LONGITUDE
~Curve Information Block
#MNEM.UNIT         API CODE   Curve Description
#---------- ----------------  -----------------
DEPTH.M                    :  
BS   .IN                   :  Bit Size (Created in Geolog)
CALI .IN                   :  HRCC Cal. Caliper (HCAL)
DENS .G/C3                 :  HRDD Standard Resolution Formation Density (RHOZ) and (RHO8)
DRHO .G/C3                 :  HRDD Density Correction (HDRA)
DTC  .US/F                 :  Delta-T Compressional (DTCO)
DTS  .US/F                 :  Delta-T Shear (DTSM)
GR   .GAPI                 :  Gamma-Ray (GR) and HiRes Gamma-Ray (EHGR)
NEUT .V/V                  :  Enhanced Thermal Neutron Porosity(NPOR) and (HNPO)
PEF  .B/E                  :  HRDD Std Resolution Formation Photoelectric Factor (PEFZ) and (PEF8)
RESD .OHMM                 :  HALS Laterolog Deep R (HLLD) and HALS HiRes Deep Res (HRLD)
RESS .OHMM                 :  HALS Shallow Res. (HLLS) and HR HALS Shallow Res. (HRLS)
SP   .MV                   :  SP Shifted (SP)
TENS .KGF                  :  Cable Tension (TENS)
~Parameter Information Block
#MNEM.UNIT            Value   Description
#---------- ----------------  -----------
CUR_INT_BOT.M                2032:  Current interpolated bottom
PROJECT.     New Zealand Log QC Project:  
SET  .     A0_FINAL_INTER_REF_D:  
ELEVATION_AMSL.M              323.75:  Elevation above mean sea level
ELEVATION_REF.                   DF:  Measurement reference
FORMATION_AT_TD.                 Moki:  Formation at TD
GL_ELEVATION_AMSL.M            323.3000:  Ground level elevation above mean sea level
LICENCE_NUMBER.             PMP38148:  Licence number
ONSHORE_OR_OFFSHORE.              Onshore:  Onshore/offshore
PR_NUMBER.               PR3545:  Petroleum report number
SPUD_DATE.           28/10/2006:  Spud date
STATUS_AT_COMPLETION.     Completed ready for perforating:  Status at completion
TD_DATE.           10/11/2006:  Total depth date
TOTAL_DEPTH_DRILLED.M                2032:  Total depth drilled
~Other Information Block
# 
~A       DEPTH             BS           CALI           DENS           DRHO            DTC            DTS             GR           NEUT            PEF           RESD           RESS             SP           TENS 
# ...
    1255.31880         8.5000         8.2153         2.3355         0.0117       108.0732       202.3238       107.9882       0.347938         3.0765         2.2201         2.2810       198.8856      1122.1901
    1255.47120         8.5000         8.2225         2.3270         0.0065       107.7609       201.6814       108.8538       0.348126         3.0487         2.2104         2.2757       198.7428      1126.7699
    1255.62360         8.5000         8.2419         2.3277         0.0065       107.4216       201.2605       107.3747       0.343065         3.0666         2.2240         2.2929       198.6394      1128.1156
    1255.77600         8.5000         8.2642         2.3306         0.0079       107.0761       200.8911       105.3493       0.336782         3.0952         2.2429         2.3153       198.5451      1128.7076
    1255.92840         8.5000         8.2864         2.3334         0.0092       106.7305       200.5218       103.3240       0.330498         3.1238         2.2619         2.3377       198.4509      1129.2997
    1256.08080         8.5000         8.3478         2.3349         0.0094       106.4260       200.5197       102.4448       0.330045         3.1397         2.2783         2.3583       198.5028      1127.9244
    1256.23320         8.5000         8.4438         2.3351         0.0087       106.1578       200.8430       102.5814       0.334761         3.1444         2.2925         2.3772       198.6842      1124.8058
    1256.38560         8.5000         8.5398         2.3353         0.0079       105.8897       201.1662       102.7180       0.339477         3.1491         2.3067         2.3961       198.8657      1121.6873
    1256.53800         8.5000         8.6259         2.3362         0.0082       105.8059       201.2675       102.8950       0.342260         3.1518         2.3179         2.4114       199.0264      1119.8097
    1256.69040         8.5000         8.6822         2.3391         0.0113       106.2770       200.7006       103.1935       0.339223         3.1483         2.3204         2.4159       199.1249      1121.6688
    1256.84280         8.5000         8.7386         2.3421         0.0145       106.7482       200.1336       103.4921       0.336187         3.1448         2.3230         2.4205       199.2234      1123.5278
    1256.99520         8.5000         8.7949         2.3450         0.0176       107.2193       199.5667       103.7907       0.333150         3.1414         2.3255         2.4250       199.3219      1125.3868
    1257.14760         8.5000         8.8062         2.3524         0.0210       107.0751       200.3101       105.2222       0.330004         3.1527         2.3388         2.4403       199.3234      1125.0756
    1257.30000         8.5000         8.8159         2.3600         0.0243       106.9108       201.0961       106.6905       0.326854         3.1646         2.3524         2.4560       199.3218      1124.6937
    1257.45240         8.5000         8.8257         2.3676         0.0277       106.7465       201.8822       108.1589       0.323704         3.1764         2.3661         2.4717       199.3202      1124.3119
    1257.60480         8.5000         8.7475         2.3690         0.0312       106.6991       201.7644       107.9096       0.324868         3.1807         2.3597         2.4616       199.2287      1122.8834
    1257.75720         8.5000         8.6293         2.3676         0.0347       106.7048       201.2361       106.8801       0.327991         3.1816         2.3443         2.4398       199.0963      1120.9797
    1257.90960         8.5000         8.5112         2.3661         0.0383       106.7105       200.7079       105.8507       0.331114         3.1825         2.3289         2.4180       198.9640      1119.0759
    1258.06200         8.5000         8.4130         2.3641         0.0419       106.6944       200.5655       105.0557       0.334880         3.1895         2.3130         2.3961       198.9058      1119.3879
    1258.21440         8.5000         8.3439         2.3614         0.0455       106.6468       200.9858       104.6025       0.339582         3.2054         2.2964         2.3742       198.9558      1122.9307
    1258.36680         8.5000         8.2748         2.3587         0.0491       106.5991       201.4061       104.1493       0.344285         3.2214         2.2798         2.3524       199.0058      1126.4733
    1258.51920         8.5000         8.2118         2.3563         0.0521       106.5349       201.7846       103.8037       0.347874         3.2329         2.2646         2.3319       199.0622      1129.9973
    1258.67160         8.5000         8.1905         2.3561         0.0512       106.3563       201.8734       104.2052       0.343738         3.2140         2.2590         2.3211       199.1633      1133.3911
    1258.82400         8.5000         8.1692         2.3558         0.0502       106.1777       201.9622       104.6067       0.339602         3.1951         2.2533         2.3103       199.2643      1136.7849
    1258.97640         8.5000         8.1478         2.3556         0.0492       105.9991       202.0511       105.0081       0.335466         3.1761         2.2477         2.2995       199.3653      1140.1787
    1259.12880         8.5000         8.1625         2.3567         0.0461       105.9268       202.0443       105.5868       0.331613         3.1734         2.2470         2.2983       199.3393      1137.6544
    1259.28120         8.5000         8.1837         2.3580         0.0426       105.8739       202.0201       106.1979       0.327811         3.1737         2.2472         2.2987       199.2900      1134.0458
    1259.43360         8.5000         8.2050         2.3593         0.0391       105.8211       201.9959       106.8091       0.324009         3.1740         2.2473         2.2992       199.2408      1130.4371
    1259.58600         8.5000         8.2876         2.3616         0.0388       105.7971       202.0669       106.8210       0.325300         3.1762         2.2452         2.2968       199.1250      1127.1733
    1259.73840         8.5000         8.4177         2.3647         0.0409       105.7955       202.2114       106.3703       0.330524         3.1798         2.2414         2.2923       198.9579      1124.1757
    1259.89080         8.5000         8.5477         2.3678         0.0431       105.7938       202.3560       105.9196       0.335747         3.1835         2.2376         2.2877       198.7908      1121.1781
    1260.04320         8.5000         8.6507         2.3695         0.0435       105.7982       202.2845       105.6446       0.337879         3.1854         2.2364         2.2872       198.7122      1119.4550
    1260.19560         8.5000         8.6850         2.3679         0.0397       105.8179       201.6669       105.8135       0.332195         3.1830         2.2419         2.2970       198.8572      1120.9534
    1260.34800         8.5000         8.7193         2.3663         0.0359       105.8376       201.0494       105.9824       0.326511         3.1806         2.2474         2.3068       199.0022      1122.4519
    1260.50040         8.5000         8.7535         2.3646         0.0321       105.8577       200.4335       106.1483       0.320835         3.1782         2.2529         2.3165       199.1472      1123.9493
    1260.65280         8.5000         8.7088         2.3638         0.0260       105.9912       200.4221       105.1698       0.318352         3.1503         2.2395         2.3046       199.3188      1125.0659
    1260.80520         8.5000         8.6641         2.3630         0.0199       106.1248       200.4108       104.1912       0.315868         3.1223         2.2260         2.2927       199.4904      1126.1826
    1260.95760         8.5000         8.6194         2.3622         0.0138       106.2584       200.3995       103.2126       0.313384         3.0944         2.2126         2.2808       199.6620      1127.2992
    1261.11000         8.5000         8.5954         2.3585         0.0106       106.4644       200.2619       104.5218       0.311356         3.0783         2.2132         2.2839       199.6913      1128.6223
