~Version Information Block
VERS .                 2.00:  CWLS LOG ASCII STANDARD - VERSION 2.00
WRAP .                   NO:  One line per depth step
~Well Information Block
#MNEM.UNIT        Data Type   Information
#---------- ----------------  -----------
STRT .M           535.07640:  START DEPTH
STOP .M          2419.95960:  STOP DEPTH
STEP .M             0.15240:  STEP
NULL .              -999.25:  NULL VALUE
COMP .                     :  COMPANY
WELL .            Ngatoro-3:  WELL
FLD  .                     :  FIELD
LOC  .                     :  LOCATION
CTRY .                     :  COUNTRY
STAT .                     :  STATE
CNTY .                     :  COUNTY
SRVC .     New Zealand Petroleum Co Ltd:  SERVICE COMPANY
DATE .                     :  DATE
API  .                     :  API NUMBER
UWI  .         100000158215:  UNIQUE WELL ID
LATI .          -39.1846093:  LATITUDE
LONG .          174.1883769:  LONGITUDE
~Curve Information Block
#MNEM.UNIT         API CODE   Curve Description
#---------- ----------------  -----------------
DEPTH.M                    :  
BS   .IN                   :  Bit Size (Created in Geolog)
CALI .IN                   :  Caliper Log (CALI)
DENS .G/C3                 :  Compensated Formation Density Log (RHOB)
DRHO .G/C3                 :  Density Log Correction (DRHO)
DTC  .US/F                 :  Delta T (DT)
GR   .GAPI                 :  Gamma-Ray Log (GR)
GR_CORR.GAPI                 :  Gamma ray corrected
NEUT .V/V                  :  Neutron Log Porosity (NPHI)
NEUT_CORR.V/V                  :  Corrected NPHI (limestone units)
PEF  .B/E                  :  Photoelectric Factor (PEDF)
RESD .OHMM                 :  Laterolog Deep Resistivity (LLD)
RESD_CORR.OHMM                 :  Borehole corrected LLD
RESS .OHMM                 :  Shallow Laterolog (LLS)
RESS_CORR.OHMM                 :  Borehole corrected LLS
SP   .MV                   :  Spontaneous Potential Log (SP)
TEMP .DEGC                 :  Temperature (TEMP)
TENS .KGF                  :  Cable tension at surface (TENS)
~Parameter Information Block
#MNEM.UNIT            Value   Description
#---------- ----------------  -----------
CUR_INT_BOT.M                2420:  Current interpolated bottom
PROJECT.     New Zealand Log QC Project:  
SET  .     A0_FINAL_INTER_REF_D:  
ELEVATION_AMSL.M              267.94:  Elevation above mean sea level
ELEVATION_REF.                   KB:  Measurement reference
FORMATION_AT_TD.             Manganui:  Formation at TD
GL_ELEVATION_AMSL.M            263.2000:  Ground level elevation above mean sea level
LICENCE_NUMBER.             PPL38706:  Licence number
ONSHORE_OR_OFFSHORE.              Onshore:  Onshore/offshore
PR_NUMBER.               PR1863:  Petroleum report number
SPUD_DATE.           14/01/1993:  Spud date
STATUS_AT_COMPLETION.     Suspended as a potential oil producer:  Status at completion
TD_DATE.           08/02/1993:  Total depth date
TOTAL_DEPTH_DRILLED.M                2420:  Total depth drilled
~Other Information Block
# 
~A       DEPTH             BS           CALI           DENS           DRHO            DTC             GR        GR_CORR           NEUT      NEUT_CORR            PEF           RESD      RESD_CORR           RESS      RESS_CORR             SP           TEMP           TENS 
# ...
     553.36440         8.5000         8.5750         2.2535      0.0077477       114.7974        93.8952        93.9327       0.382594       0.369658         2.9007        11.5981        11.6416         7.3594         7.4293        60.9743        41.5527       813.0611
     553.51680         8.5000         8.5758         2.2555      0.0078022       114.7297        95.3537        95.3968       0.384264       0.371257         2.9146        11.7531        11.7961         7.3925         7.4625        59.4649        41.5527       812.6934
     553.66920         8.5000         8.5907         2.2525      0.0065047       114.7317        98.9972        99.1268       0.380147       0.366894         2.9286        12.1227        12.1670         7.4021         7.4760        58.1424        41.5528       812.4278
     553.82160         8.5000         8.6057         2.2495      0.0052071       114.7336       102.6407       102.8567       0.376030       0.362531         2.9426        12.4924        12.5379         7.4118         7.4895        56.8199        41.5529       812.1622
     553.97400         8.5000         8.6206         2.2466      0.0039096       114.7356       106.2842       106.5867       0.371913       0.358167         2.9565        12.8620        12.9088         7.4215         7.5030        55.4974        41.5530       811.8965
     554.12640         8.5000         8.6344         2.2427      0.0053532       114.7325       107.1265       107.5072       0.370288       0.356264         2.9160        12.9088        12.9582         7.3583         7.4434        54.8459        41.5551       811.3029
     554.27880         8.5000         8.6479         2.2386      0.0073607       114.7284       107.3925       107.8498       0.369176       0.354866         2.8643        12.8892        12.9415         7.2802         7.3687        54.3324        41.5576       810.6418
     554.43120         8.5000         8.6615         2.2346      0.0093682       114.7243       107.6586       108.1924       0.368064       0.353468         2.8125        12.8696        12.9248         7.2021         7.2941        53.8189        41.5601       809.9808
     554.58360         8.5000         8.6836         2.2356      0.0106403       114.5620       106.4949       107.1395       0.362721       0.347815         2.7864        12.8887        12.9482         7.1810         7.2786        53.1498        41.5670       808.8076
     554.73600         8.5000         8.7127         2.2409      0.0113073       114.2693       104.1545       104.9383       0.353896       0.338660         2.7813        12.9395        13.0048         7.2068         7.3119        52.3526        41.5774       807.2130
     554.88840         8.5000         8.7418         2.2462      0.0119742       113.9767       101.8141       102.7371       0.345072       0.329505         2.7763        12.9903        13.0613         7.2327         7.3452        51.5554        41.5878       805.6183
     555.04080         8.5000         8.7706         2.2499      0.0121013       113.7128       100.2542       101.3202       0.343787       0.327572         2.7711        13.0538        13.1304         7.2694         7.3895        50.7477        41.5933       804.7716
     555.19320         8.5000         8.7985         2.2495      0.0107516       113.5277       100.8295       102.0483       0.363128       0.345394         2.7658        13.1517        13.2336         7.3358         7.4637        49.9114        41.5855       805.9709
     555.34560         8.5000         8.8263         2.2490      0.0094019       113.3426       101.4047       102.7765       0.382469       0.363216         2.7604        13.2496        13.3368         7.4022         7.5378        49.0750        41.5776       807.1702
     555.49800         8.5000         8.8542         2.2486      0.0080522       113.1574       101.9799       103.5047       0.401810       0.381038         2.7551        13.3475        13.4400         7.4686         7.6120        48.2386        41.5697       808.3694
     555.65040         8.5000         8.7943         2.2510      0.0084833       112.7775       101.5387       102.7448       0.387172       0.368465         2.7578        13.5124        13.5915         7.5453         7.6729        47.6502        41.5774       808.3285
     555.80280         8.5000         8.7333         2.2534      0.0089381       112.3949       101.0840       101.9652       0.372081       0.355489         2.7605        13.6781        13.7435         7.6222         7.7337        47.0652        41.5852       808.2711
     555.95520         8.5000         8.6722         2.2559      0.0093929       112.0123       100.6292       101.1855       0.356990       0.342512         2.7633        13.8439        13.8956         7.6991         7.7944        46.4801        41.5931       808.2137
     556.10760         8.5000         8.6514         2.2574      0.0083443       111.6950       101.8534       102.3037       0.363584       0.349408         2.7971        13.9019        13.9489         7.7178         7.8076        45.8633        41.6125       808.5292
     556.26000         8.5000         8.6473         2.2586      0.0066697       111.4047       103.7765       104.2121       0.379205       0.364577         2.8439        13.9150        13.9610         7.7123         7.8009        45.2334        41.6367       809.0001
     556.41240         8.5000         8.6432         2.2597      0.0049952       111.1145       105.6997       106.1205       0.394827       0.379746         2.8907        13.9281        13.9731         7.7068         7.7943        44.6034        41.6609       809.4708
     556.56480         8.5000         8.6387         2.2608      0.0038881       110.9308       106.2225       106.6208       0.394024       0.379076         2.9082        14.0352        14.0784         7.7227         7.8089        44.1242        41.6748       810.5231
     556.71720         8.5000         8.6336         2.2617      0.0035481       110.8909       104.8521       105.2179       0.371016       0.356994         2.8861        14.2696        14.3098         7.7674         7.8522        43.8490        41.6748       812.3616
     556.86960         8.5000         8.6285         2.2627      0.0032081       110.8510       103.4818       103.8149       0.348008       0.334911         2.8640        14.5039        14.5413         7.8121         7.8954        43.5739        41.6748       814.2001
     557.02200         8.5000         8.6223         2.2640      0.0032419       110.8775       102.1179       102.4131       0.330707       0.318366         2.8462        14.6406        14.6755         7.8310         7.9126        43.2563        41.6748       815.5457
     557.17440         8.5000         8.6098         2.2677      0.0054907       111.2974       100.7921       101.0187       0.347232       0.334644         2.8534        14.1982        14.2335         7.6967         7.7751        42.6876        41.6748       813.9703
     557.32680         8.5000         8.5972         2.2713      0.0077396       111.7173        99.4663        99.6243       0.363756       0.350923         2.8606        13.7557        13.7915         7.5624         7.6377        42.1188        41.6748       812.3950
     557.47920         8.5000         8.5847         2.2750      0.0099885       112.1371        98.1405        98.2299       0.380280       0.367201         2.8679        13.3133        13.3496         7.4281         7.5002        41.5501        41.6748       810.8196
     557.63160         8.5000         8.5805         2.2696      0.0094940       112.5517        97.6120        97.6794       0.382029       0.368994         2.8537        13.0288        13.0660         7.3208         7.3921        41.3095        41.6748       811.0034
     557.78400         8.5000         8.5777         2.2628      0.0085660       112.9654        97.2094        97.2622       0.381443       0.368498         2.8363        12.7694        12.8075         7.2178         7.2886        41.1208        41.6748       811.4651
