~Version Information Block
VERS .                 2.00:  CWLS LOG ASCII STANDARD - VERSION 2.00
WRAP .                   NO:  One line per depth step
~Well Information Block
#MNEM.UNIT        Data Type   Information
#---------- ----------------  -----------
STRT .M           530.50440:  START DEPTH
STOP .M          1878.48240:  STOP DEPTH
STEP .M             0.15240:  STEP
NULL .              -999.25:  NULL VALUE
COMP .                     :  COMPANY
WELL .            Ngatoro-7:  WELL
FLD  .                     :  FIELD
LOC  .                     :  LOCATION
CTRY .                     :  COUNTRY
STAT .                     :  STATE
CNTY .                     :  COUNTY
SRVC .     New Zealand Petroleum Co Ltd:  SERVICE COMPANY
DATE .                     :  DATE
API  .                     :  API NUMBER
UWI  .         100000210191:  UNIQUE WELL ID
LATI .          -39.2039075:  LATITUDE
LONG .          174.1707218:  LONGITUDE
~Curve Information Block
#MNEM.UNIT         API CODE   Curve Description
#---------- ----------------  -----------------
DEPTH.M                    :  
BS   .IN                   :  Bit Size (Created in Geolog)
CALI .IN                   :  Caliper (HCAL)
DENS .G/C3                 :  Bulk Density (RHOZ) and HR Bulk Density (RHO8)
DTC  .US/F                 :  Delta Time (DTC)
GR   .GAPI                 :  Gamma Ray (GR) and HR Gamma Ray (HGR)
NEUT .V/V                  :  Neutron Porosity (NPHI) and HR Neutron Porosity (HTNP)
NEUT_CORR.V/V                  :  Corrected NPHI (limestone units)
PEF  .B/E                  :  HRDD Std Resolution Formation Photoelectric Factor (PEFZ) and (PEF8)
RESD .OHMM                 :  HALS Deep Res. (HLLD) and HR HALS Deep Res. (HRLD)
RESS .OHMM                 :  HALS Shallow Res. (HLLS) and HR HALS Shallow Res. (HRLS)
SP   .MV                   :  Spontaneous Potential (SP)
~Parameter Information Block
#MNEM.UNIT            Value   Description
#---------- ----------------  -----------
CUR_INT_BOT.M                1879:  Current interpolated bottom
PROJECT.     New Zealand Log QC Project:  
SET  .     A0_FINAL_INTER_REF_D:  
ELEVATION_AMSL.M                 327:  Elevation above mean sea level
ELEVATION_REF.                   KB:  Measurement reference
FORMATION_AT_TD.      Mount Messenger:  Formation at TD
GL_ELEVATION_AMSL.M            321.4000:  Ground level elevation above mean sea level
LICENCE_NUMBER.             PPL38706:  Licence number
ONSHORE_OR_OFFSHORE.              Onshore:  Onshore/offshore
PR_NUMBER.               PR2215:  Petroleum report number
SPUD_DATE.           09/04/1996:  Spud date
STATUS_AT_COMPLETION.     Suspended with 7" casing cemented in place:  Status at completion
TD_DATE.           18/04/1996:  Total depth date
TOTAL_DEPTH_DRILLED.M                1879:  Total depth drilled
~Other Information Block
# 
~A       DEPTH             BS           CALI           DENS            DTC             GR           NEUT      NEUT_CORR            PEF           RESD           RESS             SP 
# ...
    1250.59440         8.5000         9.1590         2.3653      -999.2500        95.4823       0.319322       0.316425         3.4490         2.3538         2.4993       138.4479
    1250.74680         8.5000         9.1518         2.3646      -999.2500        97.1838       0.328254       0.326010         3.4525         2.3766         2.5267       138.7966
    1250.89920         8.5000         9.1447         2.3638      -999.2500        98.8853       0.337186       0.335595         3.4560         2.3994         2.5542       139.1454
    1251.05160         8.5000         9.1410         2.3628      -999.2500       100.1474       0.340037       0.338664         3.4450         2.4069         2.5665       139.4307
    1251.20400         8.5000         9.1442         2.3611      -999.2500       100.5514       0.331007       0.329005         3.4056         2.3842         2.5494       139.5920
    1251.35640         8.5000         9.1474         2.3594      -999.2500       100.9554       0.321977       0.319346         3.3663         2.3615         2.5322       139.7534
    1251.50880         8.5000         9.1509         2.3578      -999.2500       101.3880       0.313683       0.310486         3.3291         2.3400         2.5160       139.9010
    1251.66120         8.5000         9.1586         2.3572      -999.2500       102.2887       0.317403       0.314685         3.3277         2.3381         2.5149       139.8253
    1251.81360         8.5000         9.1664         2.3566      -999.2500       103.1894       0.321122       0.318884         3.3262         2.3362         2.5138       139.7496
    1251.96600         8.5000         9.1742         2.3560      -999.2500       104.0900       0.324842       0.323082         3.3248         2.3343         2.5127       139.6738
    1252.11840         8.5000         9.1751         2.3549      -999.2500       102.0672       0.319659       0.317953         3.3510         2.3382         2.5170       139.6368
    1252.27080         8.5000         9.1740         2.3536      -999.2500        99.2048       0.311918       0.310146         3.3852         2.3438         2.5228       139.6108
    1252.42320         8.5000         9.1729         2.3523      -999.2500        96.3425       0.304178       0.302338         3.4194         2.3494         2.5286       139.5849
    1252.57560         8.5000         9.1704         2.3601      -999.2500        95.9567       0.297068       0.294941         3.4289         2.3924         2.5709       139.4445
    1252.72800         8.5000         9.1665         2.3770      -999.2500        98.0870       0.290599       0.287960         3.4135         2.4733         2.6503       139.1878
    1252.88040         8.5000         9.1627         2.3940      -999.2500       100.2172       0.284129       0.280978         3.3980         2.5543         2.7297       138.9311
    1253.03280         8.5000         9.1655         2.4049      -999.2500       101.6846       0.280720       0.277260         3.3815         2.5991         2.7727       138.6705
    1253.18520         8.5000         9.1929         2.3943      -999.2500       100.7356       0.288472       0.285442         3.3616         2.5119         2.6832       138.3953
    1253.33760         8.5000         9.2203         2.3836      -999.2500        99.7865       0.296224       0.293623         3.3417         2.4247         2.5936       138.1202
    1253.49000         8.5000         9.2477         2.3730      -999.2500        98.8375       0.303976       0.301804         3.3217         2.3375         2.5041       137.8450
    1253.64240         8.5000         9.2594         2.3663      -999.2500        99.3474       0.305075       0.302777         3.3353         2.3271         2.4946       137.7829
    1253.79480         8.5000         9.2700         2.3598      -999.2500        99.9599       0.305706       0.303244         3.3512         2.3220         2.4907       137.7357
    1253.94720         8.5000         9.2806         2.3534      -999.2500       100.5723       0.306338       0.303711         3.3671         2.3170         2.4869       137.6885
    1254.09960         8.5000         9.2792         2.3529      -999.2500        99.7667       0.305192       0.302597         3.3610         2.3170         2.4847       137.7596
    1254.25200         8.5000         9.2716         2.3555      -999.2500        98.2093       0.303105       0.300646         3.3432         2.3197         2.4835       137.8934
    1254.40440         8.5000         9.2639         2.3581      -999.2500        96.6519       0.301018       0.298694         3.3253         2.3225         2.4823       138.0273
    1254.55680         8.5000         9.2571         2.3598      -999.2500        96.3380       0.302266       0.299999         3.3142         2.3287         2.4843       138.2371
    1254.70920         8.5000         9.2519         2.3599      -999.2500        98.1171       0.309127       0.306784         3.3145         2.3410         2.4918       138.5748
    1254.86160         8.5000         9.2467         2.3600      -999.2500        99.8961       0.315989       0.313569         3.3147         2.3533         2.4993       138.9125
    1255.01400         8.5000         9.2408         2.3605      -999.2500       101.3290       0.321968       0.319454         3.3176         2.3641         2.5056       139.2327
    1255.16640         8.5000         9.2283         2.3653      -999.2500        99.3394       0.319226       0.316432         3.3463         2.3601         2.4996       139.3795
    1255.31880         8.5000         9.2159         2.3701      -999.2500        97.3499       0.316484       0.313410         3.3751         2.3562         2.4936       139.5264
    1255.47120         8.5000         9.2035         2.3749      -999.2500        95.3604       0.313741       0.310389         3.4038         2.3522         2.4877       139.6732
    1255.62360         8.5000         9.2176         2.3713      -999.2500        96.6456       0.310825       0.307776         3.3959         2.3376         2.4741       139.6249
    1255.77600         8.5000         9.2380         2.3659      -999.2500        98.6938       0.307869       0.305258         3.3795         2.3205         2.4588       139.5310
    1255.92840         8.5000         9.2584         2.3604      -999.2500       100.7420       0.304913       0.302740         3.3631         2.3034         2.4434       139.4371
    1256.08080         8.5000         9.2650         2.3569      -999.2500       101.4772       0.303293       0.301322         3.3514         2.3011         2.4430       139.2324
    1256.23320         8.5000         9.2595         2.3551      -999.2500       101.0488       0.302857       0.300877         3.3439         2.3117         2.4557       138.9295
    1256.38560         8.5000         9.2539         2.3534      -999.2500       100.6203       0.302421       0.300432         3.3364         2.3224         2.4685       138.6265
    1256.53800         8.5000         9.2455         2.3524      -999.2500       100.1691       0.301003       0.298994         3.3356         2.3320         2.4798       138.3926
    1256.69040         8.5000         9.2286         2.3537      -999.2500        99.6491       0.296630       0.294565         3.3550         2.3384         2.4868       138.3664
    1256.84280         8.5000         9.2117         2.3550      -999.2500        99.1292       0.292257       0.290136         3.3744         2.3447         2.4937       138.3402
    1256.99520         8.5000         9.1947         2.3563      -999.2500        98.6093       0.287884       0.285707         3.3938         2.3511         2.5007       138.3140
    1257.14760         8.5000         9.2003         2.3584      -999.2500        98.9826       0.288570       0.286426         3.4153         2.3540         2.5020       138.4499
    1257.30000         8.5000         9.2066         2.3607      -999.2500        99.3849       0.289420       0.287312         3.4368         2.3569         2.5031       138.5911
