~Version Information Block
VERS .                 2.00:  CWLS LOG ASCII STANDARD - VERSION 2.00
WRAP .                   NO:  One line per depth step
~Well Information Block
#MNEM.UNIT        Data Type   Information
#---------- ----------------  -----------
STRT .M           422.60520:  START DEPTH
STOP .M          2060.90520:  STOP DEPTH
STEP .M             0.15240:  STEP
NULL .              -999.25:  NULL VALUE
COMP .                     :  COMPANY
WELL .           Ngatoro-11:  WELL
FLD  .                     :  FIELD
LOC  .                     :  LOCATION
CTRY .                     :  COUNTRY
STAT .                     :  STATE
CNTY .                     :  COUNTY
SRVC .     New Zealand Petroleum Co Ltd:  SERVICE COMPANY
DATE .                     :  DATE
API  .                     :  API NUMBER
UWI  .         100000290650:  UNIQUE WELL ID
LATI .          -39.1949222:  LATITUDE
LONG .          174.1848583:  LONGITUDE
~Curve Information Block
#MNEM.UNIT         API CODE   Curve Description
#---------- ----------------  -----------------
DEPTH.M                    :  
BS   .IN                   :  Bit Size (Created in Geolog)
CALI .IN                   :  Caliper Log (CALI)
DENS .G/C3                 :  Compensated Formation Density Log (RHOB)
DRHO .G/C3                 :  Density Log Correction (DRHO)
DTC  .US/F                 :  8-10 Ft Compensated Sonic (BPB) (DTC3)
GR   .GAPI                 :  Gamma-Ray Log (GR)
GR_CORR.GAPI                 :  Gamma ray corrected
NEUT .V/V                  :  Neutron Log Porosity (NPHI)
NEUT_CORR.V/V                  :  Corrected NPHI (limestone units)
PEF  .B/E                  :  Photoelectric Factor (PEDF)
RESD .OHMM                 :  Laterolog Deep Resistivity (LLD)
RESD_CORR.OHMM                 :  Borehole corrected LLD
RESS .OHMM                 :  Shallow Laterolog (LLS)
RESS_CORR.OHMM                 :  Borehole corrected LLS
SP   .MV                   :  Spontaneous Potential Log (SP)
TENS .KGF                  :  Cable tension at surface (TENS)
~Parameter Information Block
#MNEM.UNIT            Value   Description
#---------- ----------------  -----------
CUR_INT_BOT.M                2063:  Current interpolated bottom
PROJECT.     New Zealand Log QC Project:  
SET  .     A0_FINAL_INTER_REF_D:  
ELEVATION_AMSL.M              291.65:  Elevation above mean sea level
ELEVATION_REF.                   KB:  Measurement reference
FORMATION_AT_TD.      Mount Messenger:  Formation at TD
GL_ELEVATION_AMSL.M            286.3000:  Ground level elevation above mean sea level
LICENCE_NUMBER.             PMP38148:  Licence number
ONSHORE_OR_OFFSHORE.              Onshore:  Onshore/offshore
PR_NUMBER.               PR2438:  Petroleum report number
SPUD_DATE.           28/06/1998:  Spud date
STATUS_AT_COMPLETION.     Cased and suspended as a future oil producer:  Status at completion
TD_DATE.           15/07/1998:  Total depth date
TOTAL_DEPTH_DRILLED.M                2063:  Total depth drilled
~Other Information Block
# 
~A       DEPTH             BS           CALI           DENS           DRHO            DTC             GR        GR_CORR           NEUT      NEUT_CORR            PEF           RESD      RESD_CORR           RESS      RESS_CORR             SP           TENS 
# ...
     744.47400         8.5000         9.0340         2.2450       0.021871       115.8382        81.7847        84.0657       0.311803       0.293617         2.5116         9.7869         9.9015         6.8863         7.0643       220.3096      1068.6079
     744.62640         8.5000         9.1510         2.2312       0.019831       116.6444        83.3795        86.2128       0.324595       0.303277         2.4805        10.1439        10.2782         7.0397         7.2519       220.7427      1068.5437
     744.77880         8.5000         9.2884         2.2198       0.016357       116.3902        84.5636        88.0280       0.334134       0.309415         2.4672        10.6093        10.7670         7.2324         7.4852       221.2039      1066.6677
     744.93120         8.5000         9.4258         2.2084       0.012883       116.1359        85.7477        89.8432       0.343674       0.315553         2.4538        11.0748        11.2558         7.4252         7.7184       221.6651      1064.7919
     745.08360         8.5000         9.4308         2.2019       0.010258       115.6707        84.2926        88.3584       0.353150       0.324380         2.4486        11.2500        11.4327         7.4423         7.7368       221.7890      1062.0529
     745.23600         8.5000         9.3268         2.1994       0.008332       115.0318        80.6655        84.1576       0.362576       0.335420         2.4501        11.1865        11.3528         7.3148         7.5784       221.6354      1058.6033
     745.38840         8.5000         9.2229         2.1969       0.006406       114.3929        77.0383        79.9569       0.372001       0.346460         2.4515        11.1229        11.2729         7.1873         7.4199       221.4817      1055.1537
     745.54080         8.5000         9.1438         2.1954       0.004798       113.9852        74.8585        77.3603       0.378478       0.354216         2.4571        11.0038        11.1409         7.0463         7.2543       221.3783      1053.1765
     745.69320         8.5000         9.1325         2.1968       0.004059       114.2097        76.6377        79.1516       0.376892       0.352988         2.4740        10.7326        10.8667         6.8681         7.0693       221.4125      1055.2266
     745.84560         8.5000         9.1211         2.1983       0.003321       114.4343        78.4169        80.9428       0.375306       0.351760         2.4908        10.4615        10.5924         6.6898         6.8842       221.4467      1057.2766
     745.99800         8.5000         9.1098         2.1997       0.002583       114.6588        80.1961        82.7341       0.373721       0.350532         2.5077        10.1904        10.3181         6.5116         6.6991       221.4808      1059.3267
     746.15040         8.5000         9.1113         2.2001       0.001612       113.9951        80.2420        82.7892       0.360020       0.337603         2.4778        10.0120        10.1389         6.3933         6.5786       221.3165      1054.9183
     746.30280         8.5000         9.1129         2.2005       0.000639       113.3195        80.2648        82.8211       0.346159       0.324519         2.4472         9.8349         9.9610         6.2757         6.4590       221.1496      1050.4242
     746.45520         8.5000         9.1146         2.2008      -0.000335       112.6439        80.2877        82.8530       0.332298       0.311434         2.4166         9.6578         9.7831         6.1582         6.3393       220.9827      1045.9302
     746.60760         8.5000         9.0428         2.2075       0.001041       110.5739        79.6831        81.9405       0.324010       0.305055         2.4239         9.4596         9.5736         6.0173         6.1820       220.3349      1056.4503
     746.76000         8.5000         8.9405         2.2167       0.003396       107.9234        78.8174        80.6347       0.318042       0.301468         2.4469         9.2525         9.3511         5.8668         6.0091       219.4867      1073.2217
     746.91240         8.5000         8.8382         2.2259       0.005751       105.2729        77.9516        79.3289       0.312075       0.297880         2.4700         9.0455         9.1285         5.7163         5.8362       218.6386      1089.9932
     747.06480         8.5000         8.8006         2.2343       0.008075       103.3635        77.6794        78.8945       0.304782       0.291712         2.4928         9.1999         9.2779         5.7939         5.9072       218.1956      1095.8397
     747.21720         8.5000         8.8505         2.2415       0.010359       102.4560        78.2096        79.6383       0.295696       0.282053         2.5153         9.8428         9.9302         6.1798         6.3079       218.3002      1086.9175
     747.36960         8.5000         8.9003         2.2487       0.012643       101.5484        78.7398        80.3821       0.286610       0.272395         2.5378        10.4857        10.5824         6.5658         6.7087       218.4049      1077.9954
     747.52200         8.5000         8.9310         2.2531       0.014947       101.2202        79.3508        81.1276       0.281034       0.266484         2.5531        10.9855        11.0882         6.8821         7.0348       218.4992      1070.8136
     747.67440         8.5000         8.8478         2.2417       0.017365       104.3257        80.4413        81.8829       0.296259       0.282781         2.5258        10.6365        10.7254         6.7863         6.9187       218.5326      1073.9484
     747.82680         8.5000         8.7645         2.2302       0.019783       107.4313        81.5317        82.6382       0.311483       0.299078         2.4985        10.2876        10.3626         6.6905         6.8025       218.5660      1077.0831
     747.97920         8.5000         8.6813         2.2187       0.022201       110.5368        82.6222        83.3934       0.326708       0.315375         2.4713         9.9386         9.9998         6.5946         6.6864       218.5994      1080.2179
     748.13160         8.5000         8.7173         2.2240       0.017099       106.3368        81.4283        82.3341       0.335719       0.323217         2.5048         9.7793         9.8457         6.6908         6.7920       218.4677      1078.9089
     748.28400         8.5000         8.7722         2.2320       0.010808       100.9821        79.8734        80.9880       0.343749       0.329721         2.5480         9.6499         9.7246         6.8174         6.9327       218.3098      1076.8976
     748.43640         8.5000         8.8271         2.2401       0.004518        95.6274        78.3185        79.6418       0.351778       0.336226         2.5912         9.5206         9.6035         6.9440         7.0734       218.1519      1074.8862
     748.58880         8.5000         8.8181         2.2453       0.005498        95.2697        78.2540        79.5397       0.348074       0.332850         2.5960         9.5826         9.6642         7.1183         7.2457       218.1773      1070.0864
     748.74120         8.5000         8.7635         2.2485       0.011685        98.4910        79.2568        80.3286       0.335966       0.322398         2.5733         9.7817         9.8551         7.3267         7.4407       218.3340      1063.2894
     748.89360         8.5000         8.7089         2.2517       0.017873       101.7122        80.2596        81.1175       0.323857       0.311946         2.5506         9.9808        10.0460         7.5351         7.6357       218.4907      1056.4924
     749.04600         8.5000         8.6927         2.2651       0.022192       102.0990        80.1392        80.9225       0.306458       0.295668         2.5413        10.2911        10.3543         7.7616         7.8601       218.4902      1052.1160
     749.19840         8.5000         8.7654         2.3018       0.022187        95.9295        77.4207        78.4516       0.276819       0.265912         2.5632        10.8588        10.9341         8.0299         8.1525       218.1265      1053.3384
