~Version Information Block
VERS .                 2.00:  CWLS LOG ASCII STANDARD - VERSION 2.00
WRAP .                   NO:  One line per depth step
~Well Information Block
#MNEM.UNIT        Data Type   Information
#---------- ----------------  -----------
STRT .M           387.55320:  START DEPTH
STOP .M          1999.48800:  STOP DEPTH
STEP .M             0.15240:  STEP
NULL .              -999.25:  NULL VALUE
COMP .                     :  COMPANY
WELL .           Ngatoro-13:  WELL
FLD  .                     :  FIELD
LOC  .                     :  LOCATION
CTRY .                     :  COUNTRY
STAT .                     :  STATE
CNTY .                     :  COUNTY
SRVC .     Greymouth Petroleum Ltd:  SERVICE COMPANY
DATE .                     :  DATE
API  .                     :  API NUMBER
UWI  .         100000787699:  UNIQUE WELL ID
LATI .            -39.21139:  LATITUDE
LONG .            174.18349:  LONGITUDE
~Curve Information Block
#MNEM.UNIT         API CODE   Curve Description
#---------- ----------------  -----------------
DEPTH.M                    :  
BS   .IN                   :  Bit Size (Created in Geolog)
CALI .IN                   :  HRCC Cal. Caliper (HCAL)
DENS .G/C3                 :  HRDD Standard Resolution Formation Density (RHOZ) and (RHO8)
DRHO .G/C3                 :  HRDD Density Correction (HDRA)
DTC  .US/F                 :  Delta-T Compressional (DTCO)
DTS  .US/F                 :  Delta-T Shear (DTSM)
GR   .GAPI                 :  Gamma-Ray (GR) and HiRes Gamma-Ray (EHGR)
NEUT .V/V                  :  Enhanced Thermal Neutron Porosity(NPOR) and (HNPO)
PEF  .B/E                  :  HRDD Std Resolution Formation Photoelectric Factor (PEFZ) and (PEF8)
RESD .OHMM                 :  HALS Laterolog Deep R (HLLD) and HALS HiRes Deep Res (HRLD)
RESS .OHMM                 :  HALS Shallow Res. (HLLS) and HR HALS Shallow Res. (HRLS)
SP   .MV                   :  SP Shifted (SP)
TENS .KGF                  :  Cable Tension (TENS)
~Parameter Information Block
#MNEM.UNIT            Value   Description
#---------- ----------------  -----------
CUR_INT_BOT.M                2032:  Current interpolated bottom
PROJECT.     New Zealand Log QC Project:  
SET  .     A0_FINAL_INTER_REF_D:  
ELEVATION_AMSL.M              323.75:  Elevation above mean sea level
ELEVATION_REF.                   DF:  Measurement reference
FORMATION_AT_TD.                 Moki:  Formation at TD
GL_ELEVATION_AMSL.M            323.3000:  Ground level elevation above mean sea level
LICENCE_NUMBER.             PMP38148:  Licence number
ONSHORE_OR_OFFSHORE.              Onshore:  Onshore/offshore
PR_NUMBER.               PR3545:  Petroleum report number
SPUD_DATE.           28/10/2006:  Spud date
STATUS_AT_COMPLETION.     Completed ready for perforating:  Status at completion
TD_DATE.           10/11/2006:  Total depth date
TOTAL_DEPTH_DRILLED.M                2032:  Total depth drilled
~Other Information Block
# 
~A       DEPTH             BS           CALI           DENS           DRHO            DTC            DTS             GR           NEUT            PEF           RESD           RESS             SP           TENS 
# ...
     417.27120         8.5000        11.8311      -999.2500         0.0823       137.8348      -999.2500      -999.2500       0.494438      -999.2500      -999.2500      -999.2500      -999.2500      -999.2500
     417.42360         8.5000        11.8471      -999.2500         0.0853       137.4811      -999.2500      -999.2500       0.494122      -999.2500      -999.2500      -999.2500      -999.2500      -999.2500
     417.57600         8.5000        11.8564         2.2933         0.0826       136.7738      -999.2500        99.9673       0.486639         3.4842        12.5971        12.3570      -999.2500      -999.2500
     417.72840         8.5000        11.8589         2.2956         0.0743       135.7111      -999.2500        98.4776       0.471949         3.4668        12.7332        12.1004      -999.2500      -999.2500
     417.88080         8.5000        11.8614         2.2980         0.0660       134.6483      -999.2500        96.9879       0.457259         3.4494        12.8693        11.8438      -999.2500      -999.2500
     418.03320         8.5000        11.8561         2.2957         0.0571       133.9331      -999.2500        95.8633       0.442872         3.4239        12.9587        11.6230       183.1132      -999.2500
     418.18560         8.5000        11.8224         2.2764         0.0461       134.4660      -999.2500        96.0497       0.429574         3.3691        12.8808        11.5311       182.3129      -999.2500
     418.33800         8.5000        11.7887         2.2571         0.0351       134.9988      -999.2500        96.2361       0.416276         3.3144        12.8029        11.4392       181.5126      -999.2500
     418.49040         8.5000        11.7550         2.2379         0.0241       135.5316      -999.2500        96.4225       0.402977         3.2597        12.7249        11.3473       180.7123      -999.2500
     418.64280         8.5000        11.6985         2.2355         0.0245       135.8204      -999.2500        96.2963       0.419802         3.2653        12.9496        11.6040       179.9908      -999.2500
     418.79520         8.5000        11.6405         2.2342         0.0256       136.0928      -999.2500        96.1491       0.438651         3.2749        13.1947        11.8842       179.2746      -999.2500
     418.94760         8.5000        11.5825         2.2330         0.0268       136.3652      -999.2500        96.0019       0.457500         3.2846        13.4397        12.1644       178.5584      -999.2500
     419.10000         8.5000        11.5668         2.2312         0.0293       136.4993      -999.2500        95.9167       0.461751         3.2910        13.3160        12.0877       177.8351      -999.2500
     419.25240         8.5000        11.5734         2.2291         0.0325       136.5610      -999.2500        95.8640       0.458354         3.2959        12.9991        11.8241       177.1081      -999.2500
     419.40480         8.5000        11.5800         2.2270         0.0357       136.6226      -999.2500        95.8112       0.454957         3.3007        12.6823        11.5604       176.3810      -999.2500
     419.55720         8.5000        11.6084         2.2257         0.0399       136.6185      -999.2500        95.3734       0.465078         3.3106        12.5966        11.4788       175.6680      -999.2500
     419.70960         8.5000        11.6730         2.2257         0.0458       136.5051      -999.2500        94.2945       0.497699         3.3287        12.8958        11.7000       174.9783      -999.2500
     419.86200         8.5000        11.7375         2.2257         0.0516       136.3916      -999.2500        93.2155       0.530321         3.3469        13.1950        11.9213       174.2887      -999.2500
     420.01440         8.5000        11.7758         2.2233         0.0571       136.3022      -999.2500        92.2909       0.557929         3.3667        13.4716        12.1168       173.6565      -999.2500
     420.16680         8.5000        11.5620         2.1985         0.0591       136.4436      -999.2500        92.8449       0.537495         3.4022        13.5317        12.0658       173.5762      -999.2500
     420.31920         8.5000        11.3482         2.1736         0.0610       136.5851      -999.2500        93.3988       0.517062         3.4377        13.5917        12.0149       173.4960      -999.2500
     420.47160         8.5000        11.1345         2.1488         0.0630       136.7265      -999.2500        93.9528       0.496628         3.4732        13.6518        11.9639       173.4157      -999.2500
     420.62400         8.5000        10.9079         2.1176         0.0647       135.8515      -999.2500        92.4159       0.492989         3.5262        13.4456        11.5766       173.4249      -999.2500
     420.77640         8.5000        10.6784         2.0849         0.0662       134.7437      -999.2500        90.4000       0.493196         3.5831        13.1785        11.1124       173.4545      -999.2500
     420.92880         8.5000        10.4489         2.0522         0.0678       133.6359      -999.2500        88.3842       0.493402         3.6401        12.9114        10.6481       173.4842      -999.2500
     421.08120         8.5000        10.0093         2.0715         0.0633       133.1826      -999.2500        87.7239       0.475778         3.6151        12.8934        10.4318       173.3674       775.8312
     421.23360         8.5000         9.3856         2.1363         0.0537       133.3031      -999.2500        88.2522       0.442517         3.5182        13.0938        10.4331       173.1220       777.5132
     421.38600         8.5000         8.7619         2.2012         0.0440       133.4236      -999.2500        88.7805       0.409257         3.4213        13.2941        10.4343       172.8767       779.1951
     421.53840         8.5000         8.3119         2.2467         0.0382       133.5170      -999.2500        89.7078       0.387541         3.3560        13.4048        10.3787       172.6627       779.5695
     421.69080         8.5000         8.3777         2.2351         0.0439       133.5303      -999.2500        91.8196       0.400094         3.3845        13.2490        10.1545       172.5416       776.0622
     421.84320         8.5000         8.4435         2.2234         0.0497       133.5437      -999.2500        93.9315       0.412648         3.4130        13.0933         9.9303       172.4205       772.5549
     421.99560         8.5000         8.5093         2.2118         0.0554       133.5570      -999.2500        96.0433       0.425202         3.4414        12.9376         9.7061       172.2994       769.0477
     422.14800         8.5000         8.5059         2.2379         0.0578       125.9337      -999.2500        91.7218       0.431420         3.5873        12.6964         9.4417       172.4296       768.9506
     422.30040         8.5000         8.5004         2.2651         0.0601       118.0834      -999.2500        87.2089       0.437450         3.7366        12.4527         9.1761       172.5673       768.9550
     422.45280         8.5000         8.4949         2.2923         0.0624       110.2332      -999.2500        82.6961       0.443480         3.8860        12.2090         8.9105       172.7050       768.9594
     422.60520         8.5000         8.6111         2.3223         0.0664       105.4491      -999.2500        76.3244       0.411360         4.0481        11.3087         8.3975       173.0937       768.3958
     422.75760         8.5000         8.7819         2.3535         0.0711       102.0407      -999.2500        69.1188       0.362123         4.2160        10.1138         7.7735       173.5950       767.5775
     422.91000         8.5000         8.9528         2.3848         0.0758        98.6324      -999.2500        61.9131       0.312887         4.3838         8.9189         7.1494       174.0963       766.7592
     423.06240         8.5000         9.0137         2.3955         0.0759        99.0810      -999.2500        59.1544       0.282612         4.3959         8.2538         6.8686       174.5997       767.7909
