~Version Information Block
VERS .                 2.00:  CWLS LOG ASCII STANDARD - VERSION 2.00
WRAP .                   NO:  One line per depth step
~Well Information Block
#MNEM.UNIT        Data Type   Information
#---------- ----------------  -----------
STRT .M           422.60520:  START DEPTH
STOP .M          2060.90520:  STOP DEPTH
STEP .M             0.15240:  STEP
NULL .              -999.25:  NULL VALUE
COMP .                     :  COMPANY
WELL .           Ngatoro-11:  WELL
FLD  .                     :  FIELD
LOC  .                     :  LOCATION
CTRY .                     :  COUNTRY
STAT .                     :  STATE
CNTY .                     :  COUNTY
SRVC .     New Zealand Petroleum Co Ltd:  SERVICE COMPANY
DATE .                     :  DATE
API  .                     :  API NUMBER
UWI  .         100000290650:  UNIQUE WELL ID
LATI .          -39.1949222:  LATITUDE
LONG .          174.1848583:  LONGITUDE
~Curve Information Block
#MNEM.UNIT         API CODE   Curve Description
#---------- ----------------  -----------------
DEPTH.M                    :  
BS   .IN                   :  Bit Size (Created in Geolog)
CALI .IN                   :  Caliper Log (CALI)
DENS .G/C3                 :  Compensated Formation Density Log (RHOB)
DRHO .G/C3                 :  Density Log Correction (DRHO)
DTC  .US/F                 :  8-10 Ft Compensated Sonic (BPB) (DTC3)
GR   .GAPI                 :  Gamma-Ray Log (GR)
GR_CORR.GAPI                 :  Gamma ray corrected
NEUT .V/V                  :  Neutron Log Porosity (NPHI)
NEUT_CORR.V/V                  :  Corrected NPHI (limestone units)
PEF  .B/E                  :  Photoelectric Factor (PEDF)
RESD .OHMM                 :  Laterolog Deep Resistivity (LLD)
RESD_CORR.OHMM                 :  Borehole corrected LLD
RESS .OHMM                 :  Shallow Laterolog (LLS)
RESS_CORR.OHMM                 :  Borehole corrected LLS
SP   .MV                   :  Spontaneous Potential Log (SP)
TENS .KGF                  :  Cable tension at surface (TENS)
~Parameter Information Block
#MNEM.UNIT            Value   Description
#---------- ----------------  -----------
CUR_INT_BOT.M                2063:  Current interpolated bottom
PROJECT.     New Zealand Log QC Project:  
SET  .     A0_FINAL_INTER_REF_D:  
ELEVATION_AMSL.M              291.65:  Elevation above mean sea level
ELEVATION_REF.                   KB:  Measurement reference
FORMATION_AT_TD.      Mount Messenger:  Formation at TD
GL_ELEVATION_AMSL.M            286.3000:  Ground level elevation above mean sea level
LICENCE_NUMBER.             PMP38148:  Licence number
ONSHORE_OR_OFFSHORE.              Onshore:  Onshore/offshore
PR_NUMBER.               PR2438:  Petroleum report number
SPUD_DATE.           28/06/1998:  Spud date
STATUS_AT_COMPLETION.     Cased and suspended as a future oil producer:  Status at completion
TD_DATE.           15/07/1998:  Total depth date
TOTAL_DEPTH_DRILLED.M                2063:  Total depth drilled
~Other Information Block
# 
~A       DEPTH             BS           CALI           DENS           DRHO            DTC             GR        GR_CORR           NEUT      NEUT_CORR            PEF           RESD      RESD_CORR           RESS      RESS_CORR             SP           TENS 
# ...
    1276.04520         8.5000         9.0928         2.3876       0.019850        95.6911       106.1180       109.3890       0.270610       0.255392         2.7334         2.0210         2.0314         2.2316         2.3132       181.2935      1373.6937
    1276.19760         8.5000         9.1357         2.3831       0.018741        95.6067       106.8386       110.3684       0.280763       0.264192         2.7406         2.0088         2.0200         2.2202         2.3036       181.0666      1366.0579
    1276.35000         8.5000         9.1786         2.3787       0.017633        95.5222       107.5592       111.3479       0.290916       0.272992         2.7478         1.9966         2.0087         2.2087         2.2940       180.8396      1358.4220
    1276.50240         8.5000         9.2204         2.3743       0.016546        95.4433       108.2734       112.3143       0.300641       0.281408         2.7546         1.9844         1.9974         2.1973         2.2844       180.6242      1351.4335
    1276.65480         8.5000         9.1896         2.3710       0.016805        95.7062       108.5843       112.4657       0.283608       0.265884         2.7365         1.9757         1.9877         2.1898         2.2751       181.1281      1384.9066
    1276.80720         8.5000         9.1588         2.3678       0.017064        95.9691       108.8953       112.6171       0.266575       0.250360         2.7184         1.9671         1.9780         2.1822         2.2659       181.6321      1418.3798
    1276.95960         8.5000         9.1280         2.3645       0.017324        96.2320       109.2062       112.7686       0.249543       0.234835         2.7003         1.9585         1.9683         2.1746         2.2566       182.1360      1451.8529
    1277.11200         8.5000         9.1078         2.3623       0.017099        96.4818       107.9376       111.3491       0.251033       0.236608         2.7041         1.9466         1.9557         2.1620         2.2428       181.9110      1464.5660
    1277.26440         8.5000         9.0915         2.3605       0.016700        96.7269       106.0993       109.3629       0.259204       0.244619         2.7159         1.9337         1.9420         2.1476         2.2273       181.4232      1469.7909
    1277.41680         8.5000         9.0752         2.3587       0.016301        96.9719       104.2610       107.3768       0.267375       0.252631         2.7276         1.9207         1.9283         2.1332         2.2118       180.9353      1475.0157
    1277.56920         8.5000         9.0747         2.3593       0.017179        96.9636       104.0483       107.1535       0.272820       0.257788         2.7432         1.9166         1.9241         2.1292         2.2077       180.7198      1473.8829
    1277.72160         8.5000         9.0933         2.3629       0.019593        96.6506       105.7903       109.0496       0.274987       0.259514         2.7635         1.9233         1.9313         2.1377         2.2172       180.8318      1465.1063
    1277.87400         8.5000         9.1119         2.3665       0.022006        96.3377       107.5322       110.9457       0.277153       0.261240         2.7838         1.9299         1.9386         2.1462         2.2268       180.9437      1456.3297
    1278.02640         8.5000         9.1206         2.3697       0.023588        96.0786       109.3436       112.8574       0.278433       0.262301         2.8095         1.9382         1.9474         2.1562         2.2374       180.9462      1449.2365
    1278.17880         8.5000         9.0825         2.3704       0.021200        96.0766       111.4862       114.8436       0.275483       0.260190         2.8612         1.9551         1.9637         2.1738         2.2536       180.4261      1450.1774
    1278.33120         8.5000         9.0444         2.3711       0.018812        96.0746       113.6288       116.8298       0.272533       0.258078         2.9128         1.9720         1.9799         2.1915         2.2698       179.9060      1451.1182
    1278.48360         8.5000         9.0063         2.3719       0.016425        96.0726       115.7714       118.8160       0.269583       0.255966         2.9645         1.9889         1.9962         2.2091         2.2859       179.3859      1452.0591
    1278.63600         8.5000         9.0362         2.3730       0.017679        95.9990       113.5413       116.6919       0.273275       0.258932         2.9505         1.9785         1.9863         2.2003         2.2784       179.6903      1429.1753
    1278.78840         8.5000         9.0742         2.3743       0.019373        95.9168       110.7840       114.0722       0.277767       0.262510         2.9286         1.9647         1.9733         2.1883         2.2680       180.0941      1403.4187
    1278.94080         8.5000         9.1122         2.3755       0.021067        95.8346       108.0267       111.4525       0.282260       0.266088         2.9067         1.9510         1.9602         2.1763         2.2576       180.4980      1377.6621
    1279.09320         8.5000         9.0912         2.3756       0.023083        95.7079       107.1805       110.4674       0.286170       0.270208         2.8949         1.9492         1.9578         2.1756         2.2558       180.6443      1374.2987
    1279.24560         8.5000         9.0326         2.3749       0.025303        95.5528       107.5482       110.5207       0.289710       0.274671         2.8894         1.9550         1.9622         2.1820         2.2596       180.6271      1385.1594
    1279.39800         8.5000         8.9741         2.3742       0.027524        95.3977       107.9159       110.5740       0.293251       0.279135         2.8840         1.9608         1.9665         2.1885         2.2633       180.6099      1396.0201
    1279.55040         8.5000         8.9601         2.3759       0.028752        95.4261       108.1944       110.7833       0.293067       0.279236         2.8828         1.9715         1.9770         2.2004         2.2749       180.7208      1407.3094
    1279.70280         8.5000         9.0364         2.3823       0.027971        95.8259       108.2923       111.3086       0.285346       0.270510         2.8903         1.9919         2.0001         2.2236         2.3024       181.0909      1419.4662
    1279.85520         8.5000         9.1127         2.3887       0.027191        96.2257       108.3902       111.8339       0.277625       0.261784         2.8978         2.0123         2.0231         2.2467         2.3298       181.4609      1431.6228
    1280.00760         8.5000         9.1831         2.3946       0.026288        96.6147       108.3988       112.2351       0.270538       0.253764         2.9029         2.0313         2.0445         2.2682         2.3553       181.7923      1442.5973
    1280.16000         8.5000         9.1434         2.3911       0.023057        96.7972       106.7064       110.2723       0.275534       0.259207         2.8636         2.0221         2.0339         2.2590         2.3438       181.3877      1431.0491
    1280.31240         8.5000         9.1037         2.3876       0.019827        96.9796       105.0139       108.3095       0.280531       0.264649         2.8243         2.0129         2.0234         2.2497         2.3323       180.9831      1419.5009
    1280.46480         8.5000         9.0640         2.3842       0.016596        97.1621       103.3214       106.3467       0.285527       0.270091         2.7850         2.0037         2.0129         2.2405         2.3208       180.5784      1407.9526
    1280.61720         8.5000         9.0397         2.3852       0.017217        97.3723       104.1371       107.0496       0.286378       0.271341         2.7661         1.9977         2.0060         2.2352         2.3143       180.5417      1421.8846
    1280.76960         8.5000         9.0201         2.3876       0.018993        97.5909       105.7060       108.5532       0.285983       0.271331         2.7533         1.9926         2.0003         2.2312         2.3091       180.6154      1443.4696
