~Version Information Block
VERS .                 2.00:  CWLS LOG ASCII STANDARD - VERSION 2.00
WRAP .                   NO:  One line per depth step
~Well Information Block
#MNEM.UNIT        Data Type   Information
#---------- ----------------  -----------
STRT .M            16.61160:  START DEPTH
STOP .M          1898.90400:  STOP DEPTH
STEP .M             0.15240:  STEP
NULL .              -999.25:  NULL VALUE
COMP .                     :  COMPANY
WELL .         Ngatoro-3ST1:  WELL
FLD  .                     :  FIELD
LOC  .                     :  LOCATION
CTRY .                     :  COUNTRY
STAT .                     :  STATE
CNTY .                     :  COUNTY
SRVC .     Greymouth Petroleum Ltd:  SERVICE COMPANY
DATE .                     :  DATE
API  .                     :  API NUMBER
UWI  .         100000787700:  UNIQUE WELL ID
LATI .          -39.1846084:  LATITUDE
LONG .          174.1883756:  LONGITUDE
~Curve Information Block
#MNEM.UNIT         API CODE   Curve Description
#---------- ----------------  -----------------
DEPTH.M                    :  
BS   .IN                   :  Bit Size (Created in Geolog)
CALI .IN                   :  HRCC Cal. Caliper (HCAL)
DENS .G/C3                 :  HRDD High Resolution Formation Density (RHO8)
DRHO .G/C3                 :  HRDD Density Correction (HDRA)
GR   .GAPI                 :  HiRes Gamma-Ray (EHGR)
NEUT .V/V                  :  HiRes Thermal Neutron Porosity (HTNP)
PEF  .B/E                  :  HRDD High Resolution Formation Photoelectric Factor (PEF8)
RESD .OHMM                 :  Array Induction Two Foot Resistivity A90 (AHT90)
RESM .OHMM                 :  Array Induction Two Foot Resistivity A30 (AHT30)
RESS .OHMM                 :  Array Induction Two Foot Resistivity A10 (AHT10)
SP   .MV                   :  SP Shifted (SP)
TEMP .DEGC                 :  HTC Temperature (HTEM)
TENS .KGF                  :  Cable Tension (TENS)
~Parameter Information Block
#MNEM.UNIT            Value   Description
#---------- ----------------  -----------
CUR_INT_BOT.M                1899:  Current interpolated bottom
PROJECT.     New Zealand Log QC Project:  
SET  .     A0_FINAL_INTER_REF_D:  
ELEVATION_AMSL.M              262.91:  Elevation above mean sea level
ELEVATION_REF.                   DF:  Measurement reference
FORMATION_AT_TD.             Manganui:  Formation at TD
GL_ELEVATION_AMSL.M            259.3000:  Ground level elevation above mean sea level
KICK_OFF_DATE.           26/09/2005:  Kick off date
KICK_OFF_DEPTH.M                 645:  Kick off depth
LICENCE_NUMBER.             PMP38148:  Licence number
ONSHORE_OR_OFFSHORE.              Onshore:  Onshore/offshore
PARENT_WELL.            Ngatoro-3:  Parent well
PR_NUMBER.               PR3237:  Petroleum report number
STATUS_AT_COMPLETION.     Completed ready for perforating:  Status at completion
TD_DATE.           05/10/2005:  Total depth date
TOTAL_DEPTH_DRILLED.M             1898.82:  Total depth drilled
~Other Information Block
# 
~A       DEPTH             BS           CALI           DENS           DRHO             GR           NEUT            PEF           RESD           RESM           RESS             SP           TEMP           TENS 
# ...
     979.47480         6.0000         5.6905         2.2929      0.0189100        90.8335       0.335240         3.0818         2.9201         2.9517         3.1687       386.4702        47.2157       972.9120
     979.62720         6.0000         5.7571         2.2951      0.0151945        92.3680       0.336189         3.0387         2.8774         2.9103         3.1260       387.4159        47.2157       962.9379
     979.77960         6.0000         5.8319         2.2950      0.0106545        94.1339       0.336853         2.9848         2.8423         2.8762         3.0914       388.3880        47.2157       953.5068
     979.93200         6.0000         5.9067         2.2949      0.0061144        95.8998       0.337516         2.9309         2.8071         2.8422         3.0568       389.3602        47.2157       944.0757
     980.08440         6.0000         5.8856         2.2932      0.0061211        95.4548       0.337256         2.9248         2.7761         2.8116         3.0259       389.4237        47.2157       946.0949
     980.23680         6.0000         5.7873         2.2902      0.0097911        93.2286       0.336252         2.9570         2.7483         2.7838         2.9981       388.7552        47.2157       957.3394
     980.38920         6.0000         5.6889         2.2872      0.0134611        91.0024       0.335248         2.9893         2.7205         2.7561         2.9702       388.0868        47.2157       968.5838
     980.54160         6.0000         5.6200         2.2851      0.0160092        89.9019       0.336376         3.0073         2.7063         2.7408         2.9560       387.1904        47.2157       974.8803
     980.69400         6.0000         5.6294         2.2853      0.0155693        91.7997       0.343185         2.9874         2.7286         2.7587         2.9780       385.6873        47.2157       967.9982
     980.84640         6.0000         5.6388         2.2855      0.0151293        93.6976       0.349994         2.9674         2.7509         2.7766         3.0001       384.1842        47.2157       961.1161
     980.99880         6.0000         5.6482         2.2857      0.0146894        95.5954       0.356803         2.9475         2.7731         2.7945         3.0222       382.6811        47.2157       954.2339
     981.15120         6.0000         5.6519         2.2888      0.0105204        93.2842       0.349191         2.9154         2.7713         2.7885         3.0102       383.2352        47.2157       946.8810
     981.30360         6.0000         5.6557         2.2919      0.0063217        90.9395       0.341464         2.8833         2.7692         2.7824         2.9979       383.8055        47.2157       939.5244
     981.45600         6.0000         5.6594         2.2950      0.0021231        88.5948       0.333737         2.8511         2.7671         2.7762         2.9856       384.3759        47.2157       932.1677
     981.60840         6.0000         5.6412         2.2920      0.0012401        89.6509       0.330309         2.8801         2.7680         2.7768         2.9910       385.5812        47.2157       937.6630
     981.76080         6.0000         5.6140         2.2865      0.0017029        92.0873       0.328625         2.9339         2.7700         2.7801         3.0034       387.0442        47.2157       948.3749
     981.91320         6.0000         5.5868         2.2811      0.0021657        94.5237       0.326941         2.9876         2.7720         2.7835         3.0159       388.5071        47.2157       959.0868
     982.06560         6.0000         5.5680         2.2759      0.0031939        96.1034       0.329292         3.0155         2.7778         2.7856         3.0236       389.5154        47.2157       965.3735
     982.21800         6.0000         5.5602         2.2713      0.0049700        96.5496       0.336981         3.0092         2.7887         2.7861         3.0250       389.9221        47.2157       965.8051
     982.37040         6.0000         5.5524         2.2666      0.0067462        96.9957       0.344671         3.0029         2.7995         2.7866         3.0265       390.3288        47.2157       966.2365
     982.52280         6.0000         5.5454         2.2640      0.0080945        97.2747       0.350240         2.9966         2.8108         2.7898         3.0324       390.6205        47.2157       966.2567
     982.67520         6.0000         5.5435         2.2728      0.0070104        96.6031       0.343757         2.9898         2.8247         2.8082         3.0637       390.2584        47.2157       963.9390
     982.82760         6.0000         5.5416         2.2816      0.0059263        95.9316       0.337273         2.9830         2.8386         2.8267         3.0950       389.8963        47.2157       961.6213
     982.98000         6.0000         5.5397         2.2904      0.0048422        95.2600       0.330789         2.9762         2.8524         2.8452         3.1262       389.5342        47.2157       959.3036
     983.13240         6.0000         5.6119         2.2879      0.0036892        96.1136       0.325031         2.9507         2.8256         2.8261         3.0995       389.3362        47.2157       964.3278
     983.28480         6.0000         5.6952         2.2838      0.0025257        97.1977       0.319383         2.9224         2.7927         2.8012         3.0639       389.1629        47.2157       970.4609
     983.43720         6.0000         5.7786         2.2797      0.0013622        98.2817       0.313735         2.8941         2.7598         2.7764         3.0284       388.9897        47.2157       976.5941
     983.58960         6.0000         5.7780         2.2795      0.0066722        97.8100       0.311697         2.9453         2.7430         2.7652         3.0191       387.8102        47.2157       977.2844
     983.74200         6.0000         5.7185         2.2820      0.0165195        96.2478       0.312190         3.0522         2.7376         2.7635         3.0282       385.9254        47.2157       974.1601
     983.89440         6.0000         5.6590         2.2846      0.0263667        94.6857       0.312683         3.1591         2.7323         2.7619         3.0373       384.0406        47.2157       971.0357
     984.04680         6.0000         5.6155         2.2856      0.0323833        94.0871       0.312803         3.2144         2.7277         2.7585         3.0430       381.8683        47.2157       972.0004
     984.19920         6.0000         5.6084         2.2829      0.0297563        95.6626       0.312081         3.1530         2.7248         2.7515         3.0410       379.0474        47.2157       982.1916
     984.35160         6.0000         5.6012         2.2802      0.0271292        97.2381       0.311359         3.0917         2.7219         2.7444         3.0391       376.2264        47.2157       992.3828
     984.50400         6.0000         5.5939         2.2776      0.0245206        98.7347       0.310908         3.0315         2.7193         2.7380         3.0377       373.5150        47.2157      1001.8457
     984.65640         6.0000         5.5847         2.2792      0.0225923        97.3044       0.320521         3.0122         2.7277         2.7548         3.0591       374.8698        47.2157       984.2921
     984.80880         6.0000         5.5755         2.2808      0.0206640        95.8742       0.330133         2.9929         2.7361         2.7717         3.0804       376.2245        47.2157       966.7385
     984.96120         6.0000         5.5663         2.2824      0.0187357        94.4439       0.339745         2.9736         2.7445         2.7885         3.1018       377.5793        47.2157       949.1849
     985.11360         6.0000         5.5792         2.2834      0.0209502        95.9852       0.344057         2.9868         2.7434         2.7911         3.1016       376.8400        47.2157       951.7591
     985.26600         6.0000         5.5997         2.2840      0.0245797        98.5413       0.346559         3.0111         2.7390         2.7887         3.0941       375.3855        47.2157       961.2078
