~Version Information Block
VERS .                 2.00:  CWLS LOG ASCII STANDARD - VERSION 2.00
WRAP .                   NO:  One line per depth step
~Well Information Block
#MNEM.UNIT        Data Type   Information
#---------- ----------------  -----------
STRT .M           376.58040:  START DEPTH
STOP .M          2000.85960:  STOP DEPTH
STEP .M             0.15240:  STEP
NULL .              -999.25:  NULL VALUE
COMP .                     :  COMPANY
WELL .            Ngatoro-9:  WELL
FLD  .                     :  FIELD
LOC  .                     :  LOCATION
CTRY .                     :  COUNTRY
STAT .                     :  STATE
CNTY .                     :  COUNTY
SRVC .     New Zealand Petroleum Co Ltd:  SERVICE COMPANY
DATE .                     :  DATE
API  .                     :  API NUMBER
UWI  .         100000290639:  UNIQUE WELL ID
LATI .          -39.1948838:  LATITUDE
LONG .          174.1848348:  LONGITUDE
~Curve Information Block
#MNEM.UNIT         API CODE   Curve Description
#---------- ----------------  -----------------
DEPTH.M                    :  
BS   .IN                   :  Bit Size (Created in Geolog)
CALI .IN                   :  Caliper Log (CALI)
DENS .G/C3                 :  Compensated Formation Density Log (RHOB)
DRHO .G/C3                 :  Density Log Correction (DRHO)
DTC  .US/F                 :  3-5 Ft Compensated Sonic (BPB) (DTC1)
GR   .GAPI                 :  Gamma-Ray Log (GR)
GR_CORR.GAPI                 :  Gamma ray corrected
NEUT .V/V                  :  Neutron Log Porosity (NPHI)
NEUT_CORR.V/V                  :  Corrected NPHI (limestone units)
PEF  .B/E                  :  Photoelectric Factor (PEDF)
RESD .OHMM                 :  Laterolog Deep Resistivity (LLD)
RESD_CORR.OHMM                 :  Borehole corrected LLD
RESS .OHMM                 :  Shallow Laterolog (LLS)
RESS_CORR.OHMM                 :  Borehole corrected LLS
SP   .MV                   :  Spontaneous Potential Log (SP)
TEMP .DEGC                 :  Temperature (TEMP)
TENS .KGF                  :  Cable tension at surface (TENS)
~Parameter Information Block
#MNEM.UNIT            Value   Description
#---------- ----------------  -----------
CUR_INT_BOT.M              2001.5:  Current interpolated bottom
PROJECT.     New Zealand Log QC Project:  
SET  .     A0_FINAL_INTER_REF_D:  
ELEVATION_AMSL.M              291.65:  Elevation above mean sea level
ELEVATION_REF.                   KB:  Measurement reference
FORMATION_AT_TD.      Mount Messenger:  Formation at TD
GL_ELEVATION_AMSL.M            286.3000:  Ground level elevation above mean sea level
LICENCE_NUMBER.             PMP38148:  Licence number
ONSHORE_OR_OFFSHORE.              Onshore:  Onshore/offshore
PR_NUMBER.               PR2437:  Petroleum report number
SPUD_DATE.           06/06/1998:  Spud date
STATUS_AT_COMPLETION.     Cased and suspended as a potential oil producer:  Status at completion
TD_DATE.           20/06/1998:  Total depth date
TOTAL_DEPTH_DRILLED.M              2001.5:  Total depth drilled
~Other Information Block
# 
~A       DEPTH             BS           CALI           DENS           DRHO            DTC             GR        GR_CORR           NEUT      NEUT_CORR            PEF           RESD      RESD_CORR           RESS      RESS_CORR             SP           TEMP           TENS 
# ...
    1464.71640         8.5000         9.0458         2.3328      0.0248164        93.8672       103.3876       106.3267       0.272985       0.258158         2.8081         2.4029         2.4084         2.6400         2.7370        19.7999        48.2666       337.0977
    1464.86880         8.5000         9.1002         2.3270      0.0224602        95.7057       104.1397       107.3918       0.281795       0.265507         2.7568         2.2310         2.2344         2.4770         2.5735        19.6089        48.2666       336.4084
    1465.02120         8.5000         9.1445         2.3220      0.0215915        97.3825       104.8027       108.3105       0.289002       0.271528         2.7134         2.0853         2.0868         2.3392         2.4352        19.4204        48.2666       335.8211
    1465.17360         8.5000         9.1259         2.3226      0.0299286        98.0577       104.9143       108.3237       0.286295       0.269319         2.7189         2.1011         2.1025         2.3572         2.4528        19.2475        48.2666       335.8646
    1465.32600         8.5000         9.1072         2.3231      0.0382657        98.7329       105.0259       108.3370       0.283587       0.267111         2.7244         2.1169         2.1182         2.3752         2.4704        19.0746        48.2666       335.9081
    1465.47840         8.5000         9.0886         2.3236      0.0466028        99.4082       105.1375       108.3502       0.280880       0.264903         2.7300         2.1327         2.1339         2.3932         2.4880        18.9017        48.2666       335.9517
    1465.63080         8.5000         9.1499         2.3211      0.0411351        99.9059       103.7666       107.2460       0.278566       0.261632         2.7486         2.1400         2.1431         2.3964         2.4941        18.9754        48.2666       336.5536
    1465.78320         8.5000         9.2243         2.3181      0.0333877       100.3744       102.1508       105.9573       0.276318       0.258187         2.7695         2.1459         2.1513         2.3972         2.4983        19.0898        48.2666       337.2479
    1465.93560         8.5000         9.2987         2.3151      0.0256403       100.8428       100.5350       104.6685       0.274070       0.254741         2.7903         2.1518         2.1594         2.3979         2.5025        19.2041        48.2666       337.9420
    1466.08800         8.5000         9.3353         2.3142      0.0241466       100.8287        99.2001       103.4690       0.276735       0.256558         2.7989         2.1607         2.1696         2.3989         2.5052        19.3825        48.2666       338.0057
    1466.24040         8.5000         9.3441         2.3150      0.0272294       100.4614        98.0707       102.3348       0.282994       0.262227         2.7985         2.1719         2.1813         2.4000         2.5068        19.6077        48.2666       337.6079
    1466.39280         8.5000         9.3530         2.3157      0.0303122       100.0940        96.9414       101.2005       0.289254       0.267895         2.7981         2.1831         2.1931         2.4011         2.5083        19.8330        48.2666       337.2101
    1466.54520         8.5000         9.3565         2.3146      0.0316215        99.7821        96.9714       101.2499       0.292955       0.271277         2.7978         2.1848         2.1950         2.3954         2.5026        19.9998        48.2666       336.9404
    1466.69760         8.5000         9.3474         2.3088      0.0287245        99.6013        99.7514       104.1065       0.290588       0.269234         2.7979         2.1641         2.1734         2.3734         2.4795        20.0284        48.2666       336.9745
    1466.85000         8.5000         9.3383         2.3030      0.0258276        99.4206       102.5313       106.9631       0.288221       0.267191         2.7979         2.1434         2.1519         2.3514         2.4564        20.0569        48.2666       337.0086
    1467.00240         8.5000         9.3299         2.2974      0.0231071        99.2414       105.2522       109.7618       0.285829       0.265113         2.7980         2.1230         2.1307         2.3295         2.4335        20.0839        48.2666       337.0431
    1467.15480         8.5000         9.3673         2.3078      0.0314141        99.1638       104.2810       108.9410       0.281887       0.260788         2.8000         2.1170         2.1255         2.3192         2.4244        20.0145        48.2666       337.1015
    1467.30720         8.5000         9.4048         2.3181      0.0397210        99.0862       103.3097       108.1203       0.277944       0.256462         2.8021         2.1110         2.1204         2.3089         2.4154        19.9451        48.2666       337.1600
    1467.45960         8.5000         9.4423         2.3284      0.0480280        99.0086       102.3384       107.2995       0.274002       0.252137         2.8042         2.1051         2.1153         2.2986         2.4063        19.8757        48.2666       337.2184
    1467.61200         8.5000         9.4420         2.3320      0.0464214        98.6110       103.2028       108.2044       0.278919       0.256694         2.8199         2.0912         2.1010         2.2845         2.3918        19.7491        48.2666       337.5965
    1467.76440         8.5000         9.4281         2.3333      0.0412389        98.0980       104.7292       109.7318       0.287031       0.264455         2.8406         2.0745         2.0834         2.2692         2.3753        19.6018        48.2666       338.0898
    1467.91680         8.5000         9.4142         2.3345      0.0360563        97.5851       106.2556       111.2591       0.295144       0.272216         2.8613         2.0577         2.0658         2.2538         2.3588        19.4545        48.2666       338.5832
    1468.06920         8.5000         9.4217         2.3352      0.0310444        97.2242       106.8531       111.9250       0.297254       0.274038         2.8919         2.0368         2.0445         2.2316         2.3361        19.3455        48.2666       338.7340
    1468.22160         8.5000         9.4548         2.3352      0.0262377        97.0463       106.3337       111.5549       0.292148       0.268721         2.9344         2.0109         2.0186         2.2011         2.3059        19.2825        48.2666       338.4730
    1468.37400         8.5000         9.4879         2.3353      0.0214310        96.8683       105.8144       111.1849       0.287041       0.263404         2.9769         1.9850         1.9928         2.1706         2.2757        19.2195        48.2666       338.2120
    1468.52640         8.5000         9.5055         2.3326      0.0174816        96.8176       105.0985       110.5286       0.284693       0.260926         3.0073         1.9962         2.0047         2.1800         2.2859        18.0404        48.2724       338.1645
    1468.67880         8.5000         9.4492         2.3170      0.0176239        97.3741       103.4449       108.5057       0.295509       0.272001         2.9795         2.1843         2.1966         2.3792         2.4893        11.5344        48.3057       339.1359
    1468.83120         8.5000         9.3930         2.3015      0.0177662        97.9305       101.7914       106.4828       0.306325       0.283076         2.9518         2.3724         2.3885         2.5784         2.6927         5.0284        48.3390       340.1074
    1468.98360         8.5000         9.3367         2.2859      0.0179084        98.4870       100.1378       104.4599       0.317141       0.294151         2.9240         2.5605         2.5805         2.7776         2.8960        -1.4775        48.3723       341.0788
    1469.13600         8.5000         9.3469         2.2839      0.0179246        98.9832        98.2029       102.4854       0.316670       0.293497         2.8597         2.6794         2.7031         2.9032         3.0265        -4.9867        48.3905       339.8138
