~Version Information Block
VERS .                 2.00:  CWLS LOG ASCII STANDARD - VERSION 2.00
WRAP .                   NO:  One line per depth step
~Well Information Block
#MNEM.UNIT        Data Type   Information
#---------- ----------------  -----------
STRT .M           387.55320:  START DEPTH
STOP .M          1999.48800:  STOP DEPTH
STEP .M             0.15240:  STEP
NULL .              -999.25:  NULL VALUE
COMP .                     :  COMPANY
WELL .           Ngatoro-13:  WELL
FLD  .                     :  FIELD
LOC  .                     :  LOCATION
CTRY .                     :  COUNTRY
STAT .                     :  STATE
CNTY .                     :  COUNTY
SRVC .     Greymouth Petroleum Ltd:  SERVICE COMPANY
DATE .                     :  DATE
API  .                     :  API NUMBER
UWI  .         100000787699:  UNIQUE WELL ID
LATI .            -39.21139:  LATITUDE
LONG .            174.18349:  LONGITUDE
~Curve Information Block
#MNEM.UNIT         API CODE   Curve Description
#---------- ----------------  -----------------
DEPTH.M                    :  
BS   .IN                   :  Bit Size (Created in Geolog)
CALI .IN                   :  HRCC Cal. Caliper (HCAL)
DENS .G/C3                 :  HRDD Standard Resolution Formation Density (RHOZ) and (RHO8)
DRHO .G/C3                 :  HRDD Density Correction (HDRA)
DTC  .US/F                 :  Delta-T Compressional (DTCO)
DTS  .US/F                 :  Delta-T Shear (DTSM)
GR   .GAPI                 :  Gamma-Ray (GR) and HiRes Gamma-Ray (EHGR)
NEUT .V/V                  :  Enhanced Thermal Neutron Porosity(NPOR) and (HNPO)
PEF  .B/E                  :  HRDD Std Resolution Formation Photoelectric Factor (PEFZ) and (PEF8)
RESD .OHMM                 :  HALS Laterolog Deep R (HLLD) and HALS HiRes Deep Res (HRLD)
RESS .OHMM                 :  HALS Shallow Res. (HLLS) and HR HALS Shallow Res. (HRLS)
SP   .MV                   :  SP Shifted (SP)
TENS .KGF                  :  Cable Tension (TENS)
~Parameter Information Block
#MNEM.UNIT            Value   Description
#---------- ----------------  -----------
CUR_INT_BOT.M                2032:  Current interpolated bottom
PROJECT.     New Zealand Log QC Project:  
SET  .     A0_FINAL_INTER_REF_D:  
ELEVATION_AMSL.M              323.75:  Elevation above mean sea level
ELEVATION_REF.                   DF:  Measurement reference
FORMATION_AT_TD.                 Moki:  Formation at TD
GL_ELEVATION_AMSL.M            323.3000:  Ground level elevation above mean sea level
LICENCE_NUMBER.             PMP38148:  Licence number
ONSHORE_OR_OFFSHORE.              Onshore:  Onshore/offshore
PR_NUMBER.               PR3545:  Petroleum report number
SPUD_DATE.           28/10/2006:  Spud date
STATUS_AT_COMPLETION.     Completed ready for perforating:  Status at completion
TD_DATE.           10/11/2006:  Total depth date
TOTAL_DEPTH_DRILLED.M                2032:  Total depth drilled
~Other Information Block
# 
~A       DEPTH             BS           CALI           DENS           DRHO            DTC            DTS             GR           NEUT            PEF           RESD           RESS             SP           TENS 
# ...
    1570.32960         8.5000         8.3412         2.2886        -0.0013       119.9897       214.9094        87.3502       0.318119         2.8520         2.5715         2.6648       199.2072      1321.4216
    1570.48200         8.5000         8.3237         2.2976        -0.0012       120.6613       213.0204        89.6675       0.311439         2.8554         2.5375         2.6272       199.0053      1308.1381
    1570.63440         8.5000         8.3344         2.3064        -0.0001       119.0960       214.1927        92.0352       0.311475         2.8881         2.5463         2.6191       199.0164      1306.8112
    1570.78680         8.5000         8.3490         2.3151         0.0012       117.2311       215.7749        94.4097       0.312411         2.9248         2.5608         2.6149       199.0559      1307.0857
    1570.93920         8.5000         8.3636         2.3239         0.0025       115.3662       217.3572        96.7842       0.313347         2.9615         2.5754         2.6107       199.0954      1307.3602
    1571.09160         8.5000         8.3717         2.3275         0.0062       114.6647       219.2753        98.2734       0.311787         2.9814         2.5729         2.6008       199.1210      1316.4469
    1571.24400         8.5000         8.3756         2.3277         0.0115       114.7353       221.4164        99.1751       0.308571         2.9902         2.5591         2.5869       199.1373      1331.3827
    1571.39640         8.5000         8.3795         2.3279         0.0169       114.8060       223.5574       100.0767       0.305356         2.9989         2.5453         2.5731       199.1536      1346.3185
    1571.54880         8.5000         8.3447         2.3230         0.0215       115.5227       226.0418       100.0747       0.304551         2.9922         2.5961         2.6223       199.1409      1354.5088
    1571.70120         8.5000         8.2279         2.3069         0.0245       117.6111       229.2553        98.1543       0.308865         2.9524         2.7840         2.8055       199.0665      1348.3790
    1571.85360         8.5000         8.1111         2.2909         0.0275       119.6994       232.4687        96.2338       0.313179         2.9127         2.9719         2.9887       198.9922      1342.2493
    1572.00600         8.5000         8.0007         2.2751         0.0301       121.6775       235.4662        94.3808       0.317343         2.8728         3.1432         3.1556       198.9084      1335.9879
    1572.15840         8.5000         8.0476         2.2636         0.0207       120.9665       233.1925        94.1734       0.317844         2.8299         2.9092         2.9243       198.5955      1326.5189
    1572.31080         8.5000         8.0945         2.2521         0.0113       120.2555       230.9188        93.9660       0.318345         2.7870         2.6753         2.6931       198.2825      1317.0500
    1572.46320         8.5000         8.1414         2.2405         0.0019       119.5445       228.6451        93.7586       0.318847         2.7441         2.4413         2.4618       197.9696      1307.5811
    1572.61560         8.5000         8.1956         2.2546         0.0029       118.5063       228.0088        94.2040       0.325021         2.7750         2.3668         2.3907       197.8365      1301.9343
    1572.76800         8.5000         8.2520         2.2768         0.0073       117.3638       227.8937        94.8572       0.333001         2.8294         2.3430         2.3706       197.7606      1297.5044
    1572.92040         8.5000         8.3084         2.2989         0.0116       116.2213       227.7785        95.5104       0.340982         2.8838         2.3192         2.3505       197.6847      1293.0745
    1573.07280         8.5000         8.3383         2.3133         0.0127       115.4077       226.8486        96.2224       0.341347         2.9210         2.3149         2.3493       197.4490      1291.5234
    1573.22520         8.5000         8.3391         2.3190         0.0102       114.9537       225.0278        96.9987       0.333386         2.9394         2.3320         2.3687       197.0387      1293.1204
    1573.37760         8.5000         8.3398         2.3247         0.0078       114.4996       223.2070        97.7750       0.325426         2.9577         2.3490         2.3881       196.6285      1294.7172
    1573.53000         8.5000         8.3571         2.3291         0.0059       114.2488       221.3640        98.3576       0.318386         2.9761         2.3637         2.4054       196.2658      1296.2538
    1573.68240         8.5000         8.4419         2.3286         0.0064       114.8274       219.4304        98.1503       0.315105         2.9944         2.3684         2.4139       196.0975      1297.5446
    1573.83480         8.5000         8.5266         2.3280         0.0069       115.4059       217.4968        97.9430       0.311824         3.0127         2.3731         2.4225       195.9292      1298.8352
    1573.98720         8.5000         8.6114         2.3274         0.0074       115.9844       215.5633        97.7356       0.308543         3.0311         2.3778         2.4311       195.7609      1300.1260
    1574.13960         8.5000         8.5098         2.3322         0.0128       115.5062       217.0602        98.2507       0.318270         3.0565         2.3736         2.4205       195.4360      1298.2263
    1574.29200         8.5000         8.3911         2.3375         0.0186       114.9312       218.8717        98.8320       0.329189         3.0826         2.3685         2.4082       195.0967      1296.0341
    1574.44440         8.5000         8.2724         2.3428         0.0245       114.3561       220.6831        99.4133       0.340108         3.1087         2.3634         2.3958       194.7575      1293.8418
    1574.59680         8.5000         8.2086         2.3410         0.0251       114.1300       221.3536       100.9366       0.338043         3.1007         2.3615         2.3898       195.3598      1291.7666
    1574.74920         8.5000         8.1762         2.3351         0.0229       114.1042       221.3688       103.0009       0.328521         3.0732         2.3615         2.3874       196.5029      1289.7587
    1574.90160         8.5000         8.1438         2.3292         0.0206       114.0785       221.3840       105.0653       0.318999         3.0457         2.3615         2.3849       197.6460      1287.7509
    1575.05400         8.5000         8.1437         2.3270         0.0176       114.1020       221.4893       106.5721       0.316835         3.0234         2.3505         2.3720       198.4594      1286.6354
    1575.20640         8.5000         8.2024         2.3313         0.0134       114.2151       221.7590       107.0629       0.328081         3.0104         2.3197         2.3401       198.6718      1287.1461
    1575.35880         8.5000         8.2612         2.3357         0.0091       114.3282       222.0288       107.5537       0.339326         2.9974         2.2888         2.3082       198.8842      1287.6567
    1575.51120         8.5000         8.3169         2.3386         0.0052       114.5770       222.5866       107.8468       0.348857         2.9838         2.2601         2.2785       199.0843      1288.4536
    1575.66360         8.5000         8.3355         2.3235         0.0047       116.5355       226.7761       105.6471       0.336764         2.9630         2.2588         2.2764       199.1293      1292.8572
    1575.81600         8.5000         8.3541         2.3085         0.0042       118.4940       230.9656       103.4474       0.324671         2.9421         2.2576         2.2742       199.1743      1297.2606
    1575.96840         8.5000         8.3727         2.2935         0.0038       120.4525       235.1552       101.2477       0.312578         2.9213         2.2564         2.2721       199.2193      1301.6642
    1576.12080         8.5000         8.3713         2.2814         0.0036       123.1156       239.6253        98.6267       0.309674         2.9099         2.2595         2.2749       199.0906      1302.4026
