~Version Information Block
VERS .                 2.00:  CWLS LOG ASCII STANDARD - VERSION 2.00
WRAP .                   NO:  One line per depth step
~Well Information Block
#MNEM.UNIT        Data Type   Information
#---------- ----------------  -----------
STRT .M            16.61160:  START DEPTH
STOP .M          1898.90400:  STOP DEPTH
STEP .M             0.15240:  STEP
NULL .              -999.25:  NULL VALUE
COMP .                     :  COMPANY
WELL .         Ngatoro-3ST1:  WELL
FLD  .                     :  FIELD
LOC  .                     :  LOCATION
CTRY .                     :  COUNTRY
STAT .                     :  STATE
CNTY .                     :  COUNTY
SRVC .     Greymouth Petroleum Ltd:  SERVICE COMPANY
DATE .                     :  DATE
API  .                     :  API NUMBER
UWI  .         100000787700:  UNIQUE WELL ID
LATI .          -39.1846084:  LATITUDE
LONG .          174.1883756:  LONGITUDE
~Curve Information Block
#MNEM.UNIT         API CODE   Curve Description
#---------- ----------------  -----------------
DEPTH.M                    :  
BS   .IN                   :  Bit Size (Created in Geolog)
CALI .IN                   :  HRCC Cal. Caliper (HCAL)
DENS .G/C3                 :  HRDD High Resolution Formation Density (RHO8)
DRHO .G/C3                 :  HRDD Density Correction (HDRA)
GR   .GAPI                 :  HiRes Gamma-Ray (EHGR)
NEUT .V/V                  :  HiRes Thermal Neutron Porosity (HTNP)
PEF  .B/E                  :  HRDD High Resolution Formation Photoelectric Factor (PEF8)
RESD .OHMM                 :  Array Induction Two Foot Resistivity A90 (AHT90)
RESM .OHMM                 :  Array Induction Two Foot Resistivity A30 (AHT30)
RESS .OHMM                 :  Array Induction Two Foot Resistivity A10 (AHT10)
SP   .MV                   :  SP Shifted (SP)
TEMP .DEGC                 :  HTC Temperature (HTEM)
TENS .KGF                  :  Cable Tension (TENS)
~Parameter Information Block
#MNEM.UNIT            Value   Description
#---------- ----------------  -----------
CUR_INT_BOT.M                1899:  Current interpolated bottom
PROJECT.     New Zealand Log QC Project:  
SET  .     A0_FINAL_INTER_REF_D:  
ELEVATION_AMSL.M              262.91:  Elevation above mean sea level
ELEVATION_REF.                   DF:  Measurement reference
FORMATION_AT_TD.             Manganui:  Formation at TD
GL_ELEVATION_AMSL.M            259.3000:  Ground level elevation above mean sea level
KICK_OFF_DATE.           26/09/2005:  Kick off date
KICK_OFF_DEPTH.M                 645:  Kick off depth
LICENCE_NUMBER.             PMP38148:  Licence number
ONSHORE_OR_OFFSHORE.              Onshore:  Onshore/offshore
PARENT_WELL.            Ngatoro-3:  Parent well
PR_NUMBER.               PR3237:  Petroleum report number
STATUS_AT_COMPLETION.     Completed ready for perforating:  Status at completion
TD_DATE.           05/10/2005:  Total depth date
TOTAL_DEPTH_DRILLED.M             1898.82:  Total depth drilled
~Other Information Block
# 
~A       DEPTH             BS           CALI           DENS           DRHO             GR           NEUT            PEF           RESD           RESM           RESS             SP           TEMP           TENS 
# ...
     896.26440         6.0000         6.4953         2.2958      0.0129728       106.6727       0.348033         3.1481         3.3909         3.3158         3.4431       363.1189        46.0180      1020.2369
     896.41680         6.0000         6.5325         2.2972      0.0148277       107.5364       0.344952         3.1229         3.3597         3.2965         3.4365       366.6212        46.0180      1032.3059
     896.56920         6.0000         6.5474         2.2930      0.0148247       107.1965       0.344695         3.0922         3.3461         3.2937         3.4481       372.9434        46.0180      1032.0216
     896.72160         6.0000         6.5354         2.2821      0.0125877       105.4095       0.347833         3.0548         3.3538         3.3108         3.4816       382.6559        46.0180      1016.8848
     896.87400         6.0000         6.5235         2.2712      0.0103508       103.6225       0.350972         3.0174         3.3615         3.3280         3.5150       392.3685        46.0180      1001.7480
     897.02640         6.0000         6.5255         2.2632      0.0085103       101.8788       0.353994         2.9852         3.3636         3.3396         3.5417       400.3738        46.0180       988.9155
     897.17880         6.0000         6.5937         2.2694      0.0085624       100.3419       0.356458         2.9778         3.3391         3.3247         3.5363       400.2307        46.0180       987.0814
     897.33120         6.0000         6.6620         2.2755      0.0086146        98.8050       0.358922         2.9703         3.3146         3.3098         3.5309       400.0875        46.0180       985.2471
     897.48360         6.0000         6.7303         2.2816      0.0086667        97.2680       0.361386         2.9629         3.2901         3.2949         3.5256       399.9444        46.0180       983.4130
     897.63600         6.0000         6.7201         2.2780      0.0074292        98.1264       0.349626         2.9796         3.2955         3.3101         3.5438       398.1216        46.0180       983.8097
     897.78840         6.0000         6.7004         2.2732      0.0060362        99.2737       0.336150         2.9993         3.3045         3.3289         3.5650       396.0963        46.0180       984.4755
     897.94080         6.0000         6.6807         2.2685      0.0046432       100.4210       0.322675         3.0189         3.3135         3.3477         3.5861       394.0710        46.0180       985.1412
     898.09320         6.0000         6.6903         2.2658      0.0085064       100.5182       0.325831         3.0336         3.3175         3.3531         3.5970       390.6620        46.0180       994.5140
     898.24560         6.0000         6.7184         2.2645      0.0157083        99.9484       0.339551         3.0451         3.3184         3.3500         3.6014       386.3741        46.0180      1009.4176
     898.39800         6.0000         6.7465         2.2632      0.0229102        99.3787       0.353272         3.0566         3.3192         3.3470         3.6059       382.0862        46.0180      1024.3210
     898.55040         6.0000         6.7360         2.2646      0.0252908        98.8591       0.360386         3.0488         3.3178         3.3383         3.6046       377.4564        46.0180      1037.6577
     898.70280         6.0000         6.6475         2.2717      0.0179142        98.4411       0.354130         3.0019         3.3117         3.3182         3.5917       372.1350        46.0180      1047.8231
     898.85520         6.0000         6.5589         2.2787      0.0105375        98.0231       0.347874         2.9550         3.3056         3.2981         3.5788       366.8136        46.0180      1057.9885
     899.00760         6.0000         6.4712         2.2854      0.0037102        97.6932       0.342042         2.9119         3.3007         3.2796         3.5667       361.7499        46.0180      1066.5963
     899.16000         6.0000         6.3986         2.2850      0.0073505        99.0410       0.344284         2.9406         3.3202         3.2919         3.5688       361.5963        46.0180      1045.5283
     899.31240         6.0000         6.3261         2.2845      0.0109908       100.3888       0.346526         2.9693         3.3397         3.3042         3.5709       361.4427        46.0180      1024.4603
     899.46480         6.0000         6.2535         2.2841      0.0146310       101.7367       0.348768         2.9981         3.3591         3.3166         3.5730       361.2891        46.0180      1003.3923
     899.61720         6.0000         6.1818         2.2861      0.0193507       102.6388       0.344198         3.0085         3.3729         3.3325         3.5705       359.5072        46.0180       999.1639
     899.76960         6.0000         6.1104         2.2889      0.0243947       103.4071       0.337582         3.0135         3.3850         3.3495         3.5665       357.2362        46.0180       999.9931
     899.92200         6.0000         6.0389         2.2917      0.0294386       104.1754       0.330966         3.0185         3.3971         3.3665         3.5626       354.9651        46.0180      1000.8223
     900.07440         6.0000         5.9903         2.2917      0.0300465       104.2178       0.327311         3.0168         3.4058         3.3816         3.5464       354.3154        46.0180      1007.0689
     900.22680         6.0000         5.9657         2.2886      0.0260037       103.4991       0.326762         3.0083         3.4109         3.3948         3.5173       355.3655        46.0180      1018.9951
     900.37920         6.0000         5.9411         2.2856      0.0219610       102.7804       0.326212         2.9997         3.4160         3.4081         3.4883       356.4155        46.0180      1030.9213
     900.53160         6.0000         5.9248         2.2840      0.0178440       101.8322       0.325139         2.9875         3.4154         3.4168         3.4623       358.6662        46.0185      1041.7743
     900.68400         6.0000         5.9399         2.2881      0.0134431       100.0071       0.322062         2.9615         3.3931         3.4083         3.4481       365.5070        46.0211      1048.5251
     900.83640         6.0000         5.9551         2.2923      0.0090422        98.1820       0.318985         2.9354         3.3708         3.3998         3.4339       372.3478        46.0237      1055.2759
     900.98880         6.0000         5.9703         2.2965      0.0046414        96.3568       0.315908         2.9093         3.3485         3.3913         3.4196       379.1886        46.0263      1062.0267
     901.14120         6.0000         6.0218         2.2979      0.0081041        96.1767       0.320259         2.9424         3.3512         3.3710         3.4337       377.0060        46.0805      1045.6492
     901.29360         6.0000         6.0763         2.2991      0.0121905        96.1270       0.325200         2.9800         3.3560         3.3497         3.4500       374.1078        46.1387      1027.4373
     901.44600         6.0000         6.1307         2.3003      0.0162770        96.0773       0.330141         3.0177         3.3607         3.3285         3.4663       371.2095        46.1970      1009.2252
     901.59840         6.0000         6.1976         2.2948      0.0247338        96.4806       0.330490         3.0272         3.3527         3.3133         3.4589       368.4140        46.2105       999.3178
     901.75080         6.0000         6.2714         2.2856      0.0355890        97.1325       0.328320         3.0211         3.3376         3.3014         3.4383       365.6750        46.1994       993.9678
     901.90320         6.0000         6.3452         2.2764      0.0464442        97.7844       0.326149         3.0150         3.3226         3.2895         3.4178       362.9361        46.1883       988.6179
     902.05560         6.0000         6.3473         2.2739      0.0551441        97.5098       0.328265         3.0406         3.3008         3.2721         3.3992       362.0776        46.1854       984.7134
