~Version Information Block
VERS .                 2.00:  CWLS LOG ASCII STANDARD - VERSION 2.00
WRAP .                   NO:  One line per depth step
~Well Information Block
#MNEM.UNIT        Data Type   Information
#---------- ----------------  -----------
STRT .M           387.55320:  START DEPTH
STOP .M          1999.48800:  STOP DEPTH
STEP .M             0.15240:  STEP
NULL .              -999.25:  NULL VALUE
COMP .                     :  COMPANY
WELL .           Ngatoro-13:  WELL
FLD  .                     :  FIELD
LOC  .                     :  LOCATION
CTRY .                     :  COUNTRY
STAT .                     :  STATE
CNTY .                     :  COUNTY
SRVC .     Greymouth Petroleum Ltd:  SERVICE COMPANY
DATE .                     :  DATE
API  .                     :  API NUMBER
UWI  .         100000787699:  UNIQUE WELL ID
LATI .            -39.21139:  LATITUDE
LONG .            174.18349:  LONGITUDE
~Curve Information Block
#MNEM.UNIT         API CODE   Curve Description
#---------- ----------------  -----------------
DEPTH.M                    :  
BS   .IN                   :  Bit Size (Created in Geolog)
CALI .IN                   :  HRCC Cal. Caliper (HCAL)
DENS .G/C3                 :  HRDD Standard Resolution Formation Density (RHOZ) and (RHO8)
DRHO .G/C3                 :  HRDD Density Correction (HDRA)
DTC  .US/F                 :  Delta-T Compressional (DTCO)
DTS  .US/F                 :  Delta-T Shear (DTSM)
GR   .GAPI                 :  Gamma-Ray (GR) and HiRes Gamma-Ray (EHGR)
NEUT .V/V                  :  Enhanced Thermal Neutron Porosity(NPOR) and (HNPO)
PEF  .B/E                  :  HRDD Std Resolution Formation Photoelectric Factor (PEFZ) and (PEF8)
RESD .OHMM                 :  HALS Laterolog Deep R (HLLD) and HALS HiRes Deep Res (HRLD)
RESS .OHMM                 :  HALS Shallow Res. (HLLS) and HR HALS Shallow Res. (HRLS)
SP   .MV                   :  SP Shifted (SP)
TENS .KGF                  :  Cable Tension (TENS)
~Parameter Information Block
#MNEM.UNIT            Value   Description
#---------- ----------------  -----------
CUR_INT_BOT.M                2032:  Current interpolated bottom
PROJECT.     New Zealand Log QC Project:  
SET  .     A0_FINAL_INTER_REF_D:  
ELEVATION_AMSL.M              323.75:  Elevation above mean sea level
ELEVATION_REF.                   DF:  Measurement reference
FORMATION_AT_TD.                 Moki:  Formation at TD
GL_ELEVATION_AMSL.M            323.3000:  Ground level elevation above mean sea level
LICENCE_NUMBER.             PMP38148:  Licence number
ONSHORE_OR_OFFSHORE.              Onshore:  Onshore/offshore
PR_NUMBER.               PR3545:  Petroleum report number
SPUD_DATE.           28/10/2006:  Spud date
STATUS_AT_COMPLETION.     Completed ready for perforating:  Status at completion
TD_DATE.           10/11/2006:  Total depth date
TOTAL_DEPTH_DRILLED.M                2032:  Total depth drilled
~Other Information Block
# 
~A       DEPTH             BS           CALI           DENS           DRHO            DTC            DTS             GR           NEUT            PEF           RESD           RESS             SP           TENS 
# ...
    1784.29920         8.5000         9.0275         2.4117         0.0013        94.3012       174.1628       112.5420       0.323697         3.3689         3.4240         3.6042       196.9956      1573.2734
    1784.45160         8.5000         9.0248         2.4111         0.0021        94.7260       174.8119       113.3005       0.319937         3.3482         3.4394         3.6316       196.8540      1552.7113
    1784.60400         8.5000         9.0250         2.4138         0.0020        94.9582       174.8792       113.6872       0.316842         3.3176         3.4362         3.6303       196.8649      1545.3428
    1784.75640         8.5000         9.0265         2.4179         0.0014        95.1009       174.6758       113.9008       0.314058         3.2823         3.4245         3.6156       196.9468      1544.1141
    1784.90880         8.5000         9.0281         2.4220         0.0008        95.2435       174.4724       114.1145       0.311273         3.2470         3.4127         3.6009       197.0287      1542.8856
    1785.06120         8.5000         9.0241         2.4225         0.0002        95.2758       173.9325       113.6746       0.310929         3.2362         3.4140         3.6006       197.1428      1544.5911
    1785.21360         8.5000         9.0118         2.4176        -0.0003        95.1435       172.8910       112.2607       0.314220         3.2618         3.4346         3.6215       197.3049      1550.6688
    1785.36600         8.5000         8.9995         2.4127        -0.0009        95.0113       171.8495       110.8469       0.317511         3.2874         3.4553         3.6425       197.4670      1556.7466
    1785.51840         8.5000         8.9897         2.4088        -0.0014        94.8822       170.9246       109.5869       0.320050         3.3108         3.4761         3.6636       197.6119      1565.4653
    1785.67080         8.5000         8.9977         2.4131        -0.0020        94.7763       170.8489       109.4467       0.317106         3.3180         3.4979         3.6852       197.6307      1593.4176
    1785.82320         8.5000         9.0058         2.4173        -0.0027        94.6703       170.7733       109.3066       0.314162         3.3251         3.5198         3.7067       197.6495      1621.3699
    1785.97560         8.5000         9.0139         2.4216        -0.0033        94.5643       170.6977       109.1664       0.311218         3.3323         3.5416         3.7283       197.6683      1649.3221
    1786.12800         8.5000         9.0118         2.4269        -0.0035        94.5288       170.1898       111.8517       0.312465         3.3117         3.5517         3.7372       197.5811      1642.6880
    1786.28040         8.5000         9.0079         2.4323        -0.0035        94.5067       169.5996       115.0755       0.314512         3.2858         3.5596         3.7436       197.4736      1629.4607
    1786.43280         8.5000         9.0039         2.4378        -0.0036        94.4846       169.0093       118.2994       0.316558         3.2598         3.5674         3.7499       197.3661      1616.2335
    1786.58520         8.5000         9.0062         2.4384        -0.0033        94.3369       168.3277       117.9536       0.316802         3.2604         3.5748         3.7578       197.2816      1611.9421
    1786.73760         8.5000         9.0135         2.4351        -0.0028        94.0903       167.5742       114.7923       0.315625         3.2818         3.5817         3.7667       197.2152      1614.6989
    1786.89000         8.5000         9.0208         2.4318        -0.0022        93.8437       166.8206       111.6311       0.314447         3.3032         3.5886         3.7757       197.1487      1617.4556
    1787.04240         8.5000         9.0244         2.4308        -0.0015        93.5584       166.3855       109.9967       0.314256         3.3188         3.6166         3.8063       197.1262      1616.4401
    1787.19480         8.5000         9.0185         2.4357        -0.0002        93.1731       166.7766       112.3239       0.316624         3.3194         3.6995         3.8930       197.2177      1605.6383
    1787.34720         8.5000         9.0126         2.4407         0.0010        92.7877       167.1676       114.6510       0.318991         3.3200         3.7824         3.9798       197.3091      1594.8365
    1787.49960         8.5000         9.0066         2.4456         0.0023        92.4024       167.5587       116.9781       0.321359         3.3206         3.8653         4.0665       197.4006      1584.0347
    1787.65200         8.5000         8.9984         2.4412         0.0019        92.7868       168.5065       113.6482       0.321618         3.3048         3.8136         4.0144       197.4170      1570.4337
    1787.80440         8.5000         8.9902         2.4367         0.0015        93.1731       169.4557       110.3033       0.321872         3.2889         3.7616         3.9618       197.4333      1556.8253
    1787.95680         8.5000         8.9821         2.4322         0.0011        93.5595       170.4049       106.9585       0.322125         3.2729         3.7096         3.9093       197.4496      1543.2170
    1788.10920         8.5000         8.9792         2.4324         0.0009        93.6636       170.6899       105.7976       0.324640         3.2683         3.6733         3.8724       197.3573      1541.4011
    1788.26160         8.5000         8.9784         2.4343         0.0008        93.6560       170.7122       105.5007       0.328049         3.2681         3.6434         3.8418       197.2222      1544.2505
    1788.41400         8.5000         8.9776         2.4362         0.0007        93.6484       170.7344       105.2038       0.331457         3.2679         3.6134         3.8111       197.0870      1547.0997
    1788.56640         8.5000         8.9787         2.4369         0.0003        93.5344       170.5758       106.0134       0.333620         3.2732         3.5855         3.7813       197.0228      1556.9644
    1788.71880         8.5000         8.9821         2.4360        -0.0004        93.2828       170.1830       108.2563       0.334169         3.2858         3.5602         3.7525       197.0506      1575.9152
    1788.87120         8.5000         8.9856         2.4351        -0.0011        93.0311       169.7902       110.4991       0.334718         3.2984         3.5349         3.7238       197.0785      1594.8660
    1789.02360         8.5000         8.9893         2.4348        -0.0016        92.8767       169.4421       112.4625       0.333130         3.3089         3.5215         3.7074       197.1379      1609.7303
    1789.17600         8.5000         8.9947         2.4377        -0.0010        93.2532       169.3379       112.9009       0.319880         3.3088         3.5725         3.7590       197.3701      1602.2930
    1789.32840         8.5000         9.0000         2.4406        -0.0003        93.6296       169.2337       113.3394       0.306630         3.3087         3.6236         3.8105       197.6022      1594.8555
    1789.48080         8.5000         9.0053         2.4435         0.0004        94.0060       169.1295       113.7778       0.293380         3.3086         3.6747         3.8621       197.8343      1587.4181
    1789.63320         8.5000         9.0072         2.4432         0.0009        93.8832       169.1995       114.4687       0.295565         3.3010         3.6722         3.8561       198.0142      1571.3910
    1789.78560         8.5000         9.0087         2.4425         0.0014        93.6884       169.2946       115.1959       0.299975         3.2923         3.6619         3.8419       198.1866      1554.1259
    1789.93800         8.5000         9.0101         2.4418         0.0019        93.4937       169.3897       115.9232       0.304385         3.2836         3.6516         3.8276       198.3589      1536.8607
    1790.09040         8.5000         9.0170         2.4407         0.0011        93.4442       169.7133       115.2324       0.307473         3.2772         3.6523         3.8272       198.3446      1532.1946
