~Version Information Block
VERS .                 2.00:  CWLS LOG ASCII STANDARD - VERSION 2.00
WRAP .                   NO:  One line per depth step
~Well Information Block
#MNEM.UNIT        Data Type   Information
#---------- ----------------  -----------
STRT .M           527.15160:  START DEPTH
STOP .M          2099.31000:  STOP DEPTH
STEP .M             0.15240:  STEP
NULL .              -999.25:  NULL VALUE
COMP .                     :  COMPANY
WELL .            Ngatoro-8:  WELL
FLD  .                     :  FIELD
LOC  .                     :  LOCATION
CTRY .                     :  COUNTRY
STAT .                     :  STATE
CNTY .                     :  COUNTY
SRVC .     New Zealand Petroleum Co Ltd:  SERVICE COMPANY
DATE .                     :  DATE
API  .                     :  API NUMBER
UWI  .         100000210422:  UNIQUE WELL ID
LATI .          -39.2038856:  LATITUDE
LONG .          174.1703227:  LONGITUDE
~Curve Information Block
#MNEM.UNIT         API CODE   Curve Description
#---------- ----------------  -----------------
DEPTH.M                    :  
BS   .IN                   :  Bit Size (Created in Geolog)
CALI .IN                   :  Caliper (HCAL)
DENS .G/C3                 :  Bulk Density (RHOZ) and HR Bulk Density (RHO8)
DTC  .US/F                 :  Delta Time (DT)
GR   .GAPI                 :  Gamma Ray (GR) and HR Gamma Ray (HGR)
NEUT .V/V                  :  Neutron Porosity (NPHI) and HR Neutron Porosity (HTNP)
NEUT_CORR.V/V                  :  Corrected NPHI (limestone units)
PEF  .B/E                  :  Photoelectric Factor (PEF) and (PEFZ)
RESD .OHMM                 :  HALS Deep Res. (HLLD) and HR HALS Deep Res. (HRLD)
RESS .OHMM                 :  HALS Shallow Res. (HLLS) and HR HALS Shallow Res. (HRLS)
SP   .MV                   :  Spontaneous Potential (SP)
~Parameter Information Block
#MNEM.UNIT            Value   Description
#---------- ----------------  -----------
CUR_INT_BOT.M                2100:  Current interpolated bottom
PROJECT.     New Zealand Log QC Project:  
SET  .     A0_FINAL_INTER_REF_D:  
ELEVATION_AMSL.M                 328:  Elevation above mean sea level
ELEVATION_REF.                   KB:  Measurement reference
FORMATION_AT_TD.             Manganui:  Formation at TD
GL_ELEVATION_AMSL.M            322.5000:  Ground level elevation above mean sea level
LICENCE_NUMBER.             PPL38706:  Licence number
ONSHORE_OR_OFFSHORE.              Onshore:  Onshore/offshore
PR_NUMBER.               PR2216:  Petroleum report number
SPUD_DATE.           22/04/1996:  Spud date
STATUS_AT_COMPLETION.     Suspended with 7" casing cemented to TD:  Status at completion
TD_DATE.           29/04/1996:  Total depth date
TOTAL_DEPTH_DRILLED.M                2100:  Total depth drilled
~Other Information Block
# 
~A       DEPTH             BS           CALI           DENS            DTC             GR           NEUT      NEUT_CORR            PEF           RESD           RESS             SP 
# ...
     863.19360         8.5000         8.4620         2.2171        98.5080        72.8078       0.322121       0.317809         2.9235         4.4051         3.7236        72.7239
     863.34600         8.5000         8.4569         2.2184        98.4548        74.9452       0.315957       0.311383         2.9436         4.3498         3.6920        72.7531
     863.49840         8.5000         8.4519         2.2197        98.4015        77.0825       0.309793       0.304957         2.9638         4.2944         3.6605        72.7823
     863.65080         8.5000         8.4346         2.2418        98.3483        79.8099       0.306437       0.301511         2.9807         4.6116         3.9520        72.4342
     863.80320         8.5000         8.4172         2.2641        98.2950        82.5435       0.303111       0.298096         2.9977         4.9328         4.2469        72.0821
     863.95560         8.5000         8.3998         2.2864        98.2418        85.2771       0.299785       0.294681         3.0147         5.2540         4.5419        71.7300
     864.10800         8.5000         8.4107         2.3053        98.1885        88.4253       0.292967       0.287682         3.0650         5.4624         4.7334        71.4112
     864.26040         8.5000         8.4333         2.3227        98.1353        91.7441       0.284713       0.279210         3.1291         5.6244         4.8824        71.1062
     864.41280         8.5000         8.4558         2.3401        98.0820        95.0628       0.276459       0.270737         3.1932         5.7864         5.0313        70.8011
     864.56520         8.5000         8.4627         2.3482        98.0288        96.5539       0.273878       0.268133         3.2341         5.8258         5.0845        70.5986
     864.71760         8.5000         8.4487         2.3439        97.9755        95.6006       0.278883       0.273377         3.2440         5.7012         5.0096        70.5333
     864.87000         8.5000         8.4347         2.3397        97.9223        94.6473       0.283889       0.278621         3.2539         5.5767         4.9348        70.4680
     865.02240         8.5000         8.4243         2.3319        97.8690        94.0042       0.290999       0.285910         3.2511         5.4231         4.8333        70.4179
     865.17480         8.5000         8.4355         2.3037        97.8158        95.1614       0.310324       0.305074         3.1746         5.1014         4.5776        70.4561
     865.32720         8.5000         8.4467         2.2755        97.7626        96.3186       0.329648       0.324238         3.0982         4.7797         4.3220        70.4943
     865.47960         8.5000         8.4579         2.2473        97.7093        97.4758       0.348973       0.343401         3.0217         4.4580         4.0663        70.5325
     865.63200         8.5000         8.4408         2.2468        97.6561        97.9238       0.339865       0.334364         3.0234         4.4719         4.0707        70.7286
     865.78440         8.5000         8.4194         2.2506        97.6028        98.2623       0.326362       0.320969         3.0370         4.5376         4.1154        70.9491
     865.93680         8.5000         8.3979         2.2545        97.5496        98.6007       0.312860       0.307573         3.0507         4.6033         4.1600        71.1696
     866.08920         8.5000         8.3925         2.2569        97.4963        96.5850       0.312224       0.306999         3.0596         4.6316         4.1535        71.1349
     866.24160         8.5000         8.3984         2.2583        97.4431        92.9013       0.320703       0.315509         3.0650         4.6333         4.1107        70.9193
     866.39400         8.5000         8.4043         2.2597        97.3898        89.2176       0.329182       0.324018         3.0704         4.6350         4.0680        70.7038
     866.54640         8.5000         8.4079         2.2594        97.3366        87.1362       0.335817       0.330688         3.0734         4.6387         4.0343        70.3773
     866.69880         8.5000         8.4062         2.2555        97.2833        88.7152       0.338237       0.333152         3.0707         4.6470         4.0214        69.7975
     866.85120         8.5000         8.4044         2.2516        97.2301        90.2942       0.340658       0.335617         3.0680         4.6552         4.0085        69.2177
     867.00360         8.5000         8.4028         2.2477        97.1768        91.9108       0.342904       0.337915         3.0662         4.6627         3.9953        68.6394
     867.15600         8.5000         8.4034         2.2481        97.1236        95.0825       0.337958       0.333341         3.1012         4.6361         3.9710        68.1252
     867.30840         8.5000         8.4040         2.2484        97.0703        98.2542       0.333012       0.328766         3.1363         4.6095         3.9466        67.6109
     867.46080         8.5000         8.4047         2.2488        97.0171       101.4259       0.328066       0.324192         3.1713         4.5829         3.9222        67.0966
     867.61320         8.5000         8.4037         2.2494        96.9638       100.9737       0.331199       0.326987         3.1753         4.5925         3.9293        67.0385
     867.76560         8.5000         8.4021         2.2502        96.9106        99.2665       0.337129       0.332335         3.1686         4.6147         3.9474        67.1382
     867.91800         8.5000         8.4005         2.2510        96.8573        97.5594       0.343059       0.337683         3.1619         4.6369         3.9655        67.2380
     868.07040         8.5000         8.4000         2.2515        96.8041        96.2388       0.344533       0.339171         3.1530         4.6460         3.9703        67.2359
     868.22280         8.5000         8.4009         2.2518        96.7508        95.3686       0.340817       0.336162         3.1417         4.6398         3.9596        67.1153
     868.37520         8.5000         8.4018         2.2520        96.6976        94.4983       0.337101       0.333153         3.1303         4.6335         3.9489        66.9946
     868.52760         8.5000         8.4021         2.2526        96.6443        93.9841       0.333720       0.330343         3.1241         4.6397         3.9467        66.8987
     868.68000         8.5000         8.3999         2.2546        96.5911        95.0798       0.331855       0.328430         3.1417         4.7018         3.9832        66.9147
     868.83240         8.5000         8.3978         2.2566        96.5378        96.1756       0.329989       0.326517         3.1593         4.7640         4.0197        66.9308
     868.98480         8.5000         8.3957         2.2586        96.4846        97.2713       0.328123       0.324604         3.1769         4.8262         4.0563        66.9468
     869.13720         8.5000         8.3978         2.2492        96.4313        98.6970       0.323873       0.320038         3.1385         4.6816         3.9210        67.3473
     869.28960         8.5000         8.4003         2.2386        96.3781       100.1593       0.319358       0.315178         3.0940         4.5142         3.7667        67.7905
     869.44200         8.5000         8.4029         2.2280        96.3248       101.6216       0.314844       0.310317         3.0495         4.3468         3.6125        68.2337
     869.59440         8.5000         8.3995         2.2256        96.2716       101.8431       0.313502       0.308726         3.0477         4.3871         3.6496        68.5335
     869.74680         8.5000         8.3926         2.2284        96.2184       101.3023       0.314110       0.309143         3.0721         4.5551         3.8042        68.7454
     869.89920         8.5000         8.3856         2.2311        96.1651       100.7614       0.314718       0.309560         3.0966         4.7231         3.9589        68.9572
