~Version Information Block
VERS .                 2.00:  CWLS LOG ASCII STANDARD - VERSION 2.00
WRAP .                   NO:  One line per depth step
~Well Information Block
#MNEM.UNIT        Data Type   Information
#---------- ----------------  -----------
STRT .M           527.15160:  START DEPTH
STOP .M          2099.31000:  STOP DEPTH
STEP .M             0.15240:  STEP
NULL .              -999.25:  NULL VALUE
COMP .                     :  COMPANY
WELL .            Ngatoro-8:  WELL
FLD  .                     :  FIELD
LOC  .                     :  LOCATION
CTRY .                     :  COUNTRY
STAT .                     :  STATE
CNTY .                     :  COUNTY
SRVC .     New Zealand Petroleum Co Ltd:  SERVICE COMPANY
DATE .                     :  DATE
API  .                     :  API NUMBER
UWI  .         100000210422:  UNIQUE WELL ID
LATI .          -39.2038856:  LATITUDE
LONG .          174.1703227:  LONGITUDE
~Curve Information Block
#MNEM.UNIT         API CODE   Curve Description
#---------- ----------------  -----------------
DEPTH.M                    :  
BS   .IN                   :  Bit Size (Created in Geolog)
CALI .IN                   :  Caliper (HCAL)
DENS .G/C3                 :  Bulk Density (RHOZ) and HR Bulk Density (RHO8)
DTC  .US/F                 :  Delta Time (DT)
GR   .GAPI                 :  Gamma Ray (GR) and HR Gamma Ray (HGR)
NEUT .V/V                  :  Neutron Porosity (NPHI) and HR Neutron Porosity (HTNP)
NEUT_CORR.V/V                  :  Corrected NPHI (limestone units)
PEF  .B/E                  :  Photoelectric Factor (PEF) and (PEFZ)
RESD .OHMM                 :  HALS Deep Res. (HLLD) and HR HALS Deep Res. (HRLD)
RESS .OHMM                 :  HALS Shallow Res. (HLLS) and HR HALS Shallow Res. (HRLS)
SP   .MV                   :  Spontaneous Potential (SP)
~Parameter Information Block
#MNEM.UNIT            Value   Description
#---------- ----------------  -----------
CUR_INT_BOT.M                2100:  Current interpolated bottom
PROJECT.     New Zealand Log QC Project:  
SET  .     A0_FINAL_INTER_REF_D:  
ELEVATION_AMSL.M                 328:  Elevation above mean sea level
ELEVATION_REF.                   KB:  Measurement reference
FORMATION_AT_TD.             Manganui:  Formation at TD
GL_ELEVATION_AMSL.M            322.5000:  Ground level elevation above mean sea level
LICENCE_NUMBER.             PPL38706:  Licence number
ONSHORE_OR_OFFSHORE.              Onshore:  Onshore/offshore
PR_NUMBER.               PR2216:  Petroleum report number
SPUD_DATE.           22/04/1996:  Spud date
STATUS_AT_COMPLETION.     Suspended with 7" casing cemented to TD:  Status at completion
TD_DATE.           29/04/1996:  Total depth date
TOTAL_DEPTH_DRILLED.M                2100:  Total depth drilled
~Other Information Block
# 
~A       DEPTH             BS           CALI           DENS            DTC             GR           NEUT      NEUT_CORR            PEF           RESD           RESS             SP 
# ...
    1062.07560         8.5000         8.2348         2.3378        97.1343       101.3219       0.298575       0.293614         3.2032         3.3033         3.2230        58.8316
    1062.22800         8.5000         8.2334         2.3421        97.1285       100.7703       0.298554       0.293590         3.1929         3.2595         3.1883        59.1821
    1062.38040         8.5000         8.2319         2.3463        97.1227       100.2188       0.298533       0.293565         3.1826         3.2157         3.1536        59.5326
    1062.53280         8.5000         8.2313         2.3493        97.1169        99.8542       0.296642       0.291617         3.1720         3.1854         3.1312        59.8454
    1062.68520         8.5000         8.2332         2.3477        97.1111       100.1714       0.287930       0.282657         3.1604         3.2044         3.1538        60.0211
    1062.83760         8.5000         8.2352         2.3461        97.1053       100.4887       0.279217       0.273696         3.1487         3.2234         3.1763        60.1968
    1062.99000         8.5000         8.2372         2.3444        97.0994       100.8060       0.270505       0.264735         3.1371         3.2424         3.1988        60.3725
    1063.14240         8.5000         8.2351         2.3441        96.7649       101.1953       0.271090       0.265395         3.1079         3.3191         3.2830        60.2898
    1063.29480         8.5000         8.2327         2.3439        96.4072       101.5898       0.272328       0.266730         3.0775         3.3998         3.3715        60.1889
    1063.44720         8.5000         8.2303         2.3437        96.0495       101.9842       0.273566       0.268065         3.0470         3.4805         3.4600        60.0879
    1063.59960         8.5000         8.2338         2.3410        95.9665       102.1158       0.278227       0.272866         3.0766         3.5239         3.5060        59.9367
    1063.75200         8.5000         8.2405         2.3370        96.0291       102.1080       0.284703       0.279504         3.1381         3.5475         3.5293        59.7587
    1063.90440         8.5000         8.2471         2.3329        96.0917       102.1003       0.291180       0.286142         3.1995         3.5711         3.5527        59.5808
    1064.05680         8.5000         8.2568         2.3317        96.0321       101.5674       0.293101       0.288108         3.2398         3.5958         3.5757        59.3089
    1064.20920         8.5000         8.2716         2.3353        95.7670       100.1508       0.287357       0.282211         3.2443         3.6223         3.5981        58.8789
    1064.36160         8.5000         8.2865         2.3388        95.5018        98.7343       0.281612       0.276314         3.2487         3.6488         3.6204        58.4489
    1064.51400         8.5000         8.3009         2.3421        95.3606        97.4537       0.276919       0.271495         3.2500         3.6726         3.6413        58.0562
    1064.66640         8.5000         8.3115         2.3427        96.4451        97.5184       0.282619       0.277329         3.2191         3.6705         3.6481        58.0327
    1064.81880         8.5000         8.3221         2.3432        97.5295        97.5831       0.288319       0.283164         3.1882         3.6683         3.6548        58.0093
    1064.97120         8.5000         8.3327         2.3438        98.6140        97.6478       0.294019       0.288998         3.1573         3.6661         3.6616        57.9858
    1065.12360         8.5000         8.3244         2.3439        98.8600        96.1367       0.290118       0.285012         3.1476         3.5727         3.5763        58.2719
    1065.27600         8.5000         8.3116         2.3438        98.9107        94.2584       0.283981       0.278737         3.1428         3.4581         3.4696        58.6302
    1065.42840         8.5000         8.2988         2.3438        98.9613        92.3801       0.277843       0.272463         3.1381         3.3435         3.3629        58.9884
    1065.58080         8.5000         8.2912         2.3437        98.9907        91.7940       0.275082       0.269627         3.1375         3.3020         3.3227        59.2088
    1065.73320         8.5000         8.2881         2.3437        99.0013        92.3528       0.275312       0.269838         3.1406         3.3255         3.3414        59.3071
    1065.88560         8.5000         8.2850         2.3436        99.0119        92.9116       0.275542       0.270050         3.1438         3.3490         3.3602        59.4053
    1066.03800         8.5000         8.2798         2.3443        99.0225        93.6367       0.277186       0.271730         3.1511         3.4045         3.4078        59.4452
    1066.19040         8.5000         8.2683         2.3473        99.0331        94.8624       0.283090       0.277831         3.1711         3.5565         3.5424        59.3095
    1066.34280         8.5000         8.2569         2.3503        99.0437        96.0881       0.288994       0.283932         3.1910         3.7085         3.6770        59.1737
    1066.49520         8.5000         8.2454         2.3533        99.0543        97.3138       0.294898       0.290033         3.2110         3.8605         3.8117        59.0379
    1066.64760         8.5000         8.2905         2.3510        99.0648        97.5548       0.289518       0.284484         3.1987         3.7394         3.6947        59.0008
    1066.80000         8.5000         8.3375         2.3485        99.0754        97.7637       0.283772       0.278557         3.1853         3.6093         3.5695        58.9668
    1066.95240         8.5000         8.3846         2.3460        99.0860        97.9726       0.278025       0.272629         3.1719         3.4793         3.4443        58.9329
    1067.10480         8.5000         8.4036         2.3459        99.0966        97.3757       0.275533       0.270046         3.1595         3.4076         3.3789        58.7581
    1067.25720         8.5000         8.4099         2.3469        99.1072        96.4128       0.274519       0.268982         3.1474         3.3624         3.3407        58.5194
    1067.40960         8.5000         8.4162         2.3480        99.1178        95.4500       0.273505       0.267918         3.1354         3.3171         3.3025        58.2808
    1067.56200         8.5000         8.4237         2.3472        99.1283        94.8713       0.274318       0.268761         3.1313         3.2953         3.2931        58.0604
    1067.71440         8.5000         8.4328         2.3437        99.1389        94.8529       0.277793       0.272386         3.1390         3.3076         3.3260        57.8667
    1067.86680         8.5000         8.4420         2.3403        99.1495        94.8344       0.281268       0.276011         3.1467         3.3199         3.3589        57.6730
    1068.01920         8.5000         8.4498         2.3372        99.1593        94.8375       0.284253       0.279124         3.1537         3.3240         3.3839        57.5067
    1068.17160         8.5000         8.4488         2.3366        99.1635        94.9897       0.283836       0.278684         3.1553         3.2712         3.3546        57.5302
    1068.32400         8.5000         8.4477         2.3361        99.1677        95.1419       0.283419       0.278243         3.1570         3.2184         3.3253        57.5537
    1068.47640         8.5000         8.4467         2.3355        99.1719        95.2941       0.283002       0.277803         3.1586         3.1657         3.2960        57.5772
    1068.62880         8.5000         8.4400         2.3418        99.1326        95.2196       0.279448       0.274117         3.1597         3.1507         3.2751        57.9035
    1068.78120         8.5000         8.4322         2.3494        99.0853        95.1035       0.275319       0.269837         3.1607         3.1426         3.2557        58.2853
