~Version Information Block
VERS .                 2.00:  CWLS LOG ASCII STANDARD - VERSION 2.00
WRAP .                   NO:  One line per depth step
~Well Information Block
#MNEM.UNIT        Data Type   Information
#---------- ----------------  -----------
STRT .M           422.60520:  START DEPTH
STOP .M          2060.90520:  STOP DEPTH
STEP .M             0.15240:  STEP
NULL .              -999.25:  NULL VALUE
COMP .                     :  COMPANY
WELL .           Ngatoro-11:  WELL
FLD  .                     :  FIELD
LOC  .                     :  LOCATION
CTRY .                     :  COUNTRY
STAT .                     :  STATE
CNTY .                     :  COUNTY
SRVC .     New Zealand Petroleum Co Ltd:  SERVICE COMPANY
DATE .                     :  DATE
API  .                     :  API NUMBER
UWI  .         100000290650:  UNIQUE WELL ID
LATI .          -39.1949222:  LATITUDE
LONG .          174.1848583:  LONGITUDE
~Curve Information Block
#MNEM.UNIT         API CODE   Curve Description
#---------- ----------------  -----------------
DEPTH.M                    :  
BS   .IN                   :  Bit Size (Created in Geolog)
CALI .IN                   :  Caliper Log (CALI)
DENS .G/C3                 :  Compensated Formation Density Log (RHOB)
DRHO .G/C3                 :  Density Log Correction (DRHO)
DTC  .US/F                 :  8-10 Ft Compensated Sonic (BPB) (DTC3)
GR   .GAPI                 :  Gamma-Ray Log (GR)
GR_CORR.GAPI                 :  Gamma ray corrected
NEUT .V/V                  :  Neutron Log Porosity (NPHI)
NEUT_CORR.V/V                  :  Corrected NPHI (limestone units)
PEF  .B/E                  :  Photoelectric Factor (PEDF)
RESD .OHMM                 :  Laterolog Deep Resistivity (LLD)
RESD_CORR.OHMM                 :  Borehole corrected LLD
RESS .OHMM                 :  Shallow Laterolog (LLS)
RESS_CORR.OHMM                 :  Borehole corrected LLS
SP   .MV                   :  Spontaneous Potential Log (SP)
TENS .KGF                  :  Cable tension at surface (TENS)
~Parameter Information Block
#MNEM.UNIT            Value   Description
#---------- ----------------  -----------
CUR_INT_BOT.M                2063:  Current interpolated bottom
PROJECT.     New Zealand Log QC Project:  
SET  .     A0_FINAL_INTER_REF_D:  
ELEVATION_AMSL.M              291.65:  Elevation above mean sea level
ELEVATION_REF.                   KB:  Measurement reference
FORMATION_AT_TD.      Mount Messenger:  Formation at TD
GL_ELEVATION_AMSL.M            286.3000:  Ground level elevation above mean sea level
LICENCE_NUMBER.             PMP38148:  Licence number
ONSHORE_OR_OFFSHORE.              Onshore:  Onshore/offshore
PR_NUMBER.               PR2438:  Petroleum report number
SPUD_DATE.           28/06/1998:  Spud date
STATUS_AT_COMPLETION.     Cased and suspended as a future oil producer:  Status at completion
TD_DATE.           15/07/1998:  Total depth date
TOTAL_DEPTH_DRILLED.M                2063:  Total depth drilled
~Other Information Block
# 
~A       DEPTH             BS           CALI           DENS           DRHO            DTC             GR        GR_CORR           NEUT      NEUT_CORR            PEF           RESD      RESD_CORR           RESS      RESS_CORR             SP           TENS 
# ...
    1597.91400         8.5000         8.7235         2.3957       0.013227        89.1549       106.9041       108.1421       0.246758       0.240109         2.9701         2.5575         2.5693         2.8143         2.8774       127.3433      1816.1039
    1598.06640         8.5000         8.7260         2.3963       0.014835        88.6146       106.3935       107.6401       0.242531       0.235971         2.9731         2.5080         2.5190         2.7706         2.8334       127.2678      1819.4348
    1598.21880         8.5000         8.7344         2.3818       0.014773        91.4588       107.0339       108.3362       0.247751       0.240875         2.9715         2.2294         2.2360         2.4930         2.5541       127.4107      1804.4946
    1598.37120         8.5000         8.7428         2.3673       0.014711        94.3030       107.6744       109.0322       0.252971       0.245779         2.9700         1.9508         1.9529         2.2154         2.2748       127.5535      1789.5543
    1598.52360         8.5000         8.7464         2.3532       0.014699        96.8745       107.5191       108.8981       0.257540       0.250138         2.9507         1.7188         1.7172         1.9842         2.0419       127.6559      1777.2174
    1598.67600         8.5000         8.7244         2.3412       0.014956        97.9572       103.0208       104.2329       0.258559       0.251525         2.8339         1.7416         1.7398         2.0060         2.0629       127.5374      1779.0880
    1598.82840         8.5000         8.7024         2.3293       0.015214        99.0400        98.5224        99.5678       0.259579       0.252911         2.7172         1.7643         1.7624         2.0278         2.0839       127.4190      1780.9586
    1598.98080         8.5000         8.6803         2.3173       0.015471       100.1228        94.0241        94.9026       0.260598       0.254298         2.6005         1.7871         1.7849         2.0497         2.1049       127.3005      1782.8292
    1599.13320         8.5000         8.6804         2.3254       0.017417        99.5062        95.8295        96.7246       0.266158       0.259693         2.6386         1.8597         1.8588         2.1273         2.1831       126.8634      1787.8181
    1599.28560         8.5000         8.6837         2.3364       0.019607        98.6447        98.5436        99.4816       0.272372       0.265665         2.6991         1.9396         1.9401         2.2129         2.2694       126.3803      1793.2563
    1599.43800         8.5000         8.6870         2.3474       0.021796        97.7832       101.2577       102.2386       0.278586       0.271638         2.7595         2.0194         2.0213         2.2985         2.3558       125.8972      1798.6947
    1599.59040         8.5000         8.6921         2.3563       0.022285        97.2061       103.5051       104.5357       0.275914       0.268955         2.7723         2.0750         2.0780         2.3471         2.4050       125.9494      1797.1826
    1599.74280         8.5000         8.6983         2.3638       0.021606        96.8240       105.4324       106.5172       0.267149       0.260335         2.7525         2.1139         2.1178         2.3702         2.4286       126.3688      1790.9038
    1599.89520         8.5000         8.7046         2.3713       0.020928        96.4418       107.3598       108.4988       0.258384       0.251716         2.7326         2.1529         2.1576         2.3934         2.4523       126.7882      1784.6250
    1600.04760         8.5000         8.7060         2.3723       0.019523        96.3680       108.8890       110.0506       0.252627       0.246103         2.7078         2.1524         2.1571         2.3820         2.4409       126.9419      1780.4119
    1600.20000         8.5000         8.6967         2.3592       0.016518        96.9731       109.5419       110.6561       0.253492       0.247110         2.6722         2.0651         2.0681         2.2943         2.3521       126.5107      1780.7467
    1600.35240         8.5000         8.6873         2.3461       0.013513        97.5781       110.1947       111.2616       0.254357       0.248117         2.6366         1.9778         1.9791         2.2066         2.2634       126.0794      1781.0815
    1600.50480         8.5000         8.6784         2.3335       0.010660        98.1343       110.7517       111.7725       0.255440       0.249328         2.6033         1.8947         1.8943         2.1231         2.1788       125.6547      1781.1632
    1600.65720         8.5000         8.6811         2.3375       0.012469        97.1865       108.3617       109.3753       0.263214       0.256825         2.6405         1.9388         1.9392         2.1657         2.2218       125.4284      1773.4564
    1600.80960         8.5000         8.6839         2.3415       0.014277        96.2387       105.9716       106.9782       0.270988       0.264322         2.6776         1.9830         1.9842         2.2083         2.2648       125.2021      1765.7496
    1600.96200         8.5000         8.6866         2.3455       0.016085        95.2910       103.5816       104.5810       0.278762       0.271818         2.7148         2.0271         2.0292         2.2509         2.3078       124.9758      1758.0430
    1601.11440         8.5000         8.6912         2.3458       0.021056        95.2230       105.1471       106.1889       0.288479       0.281158         2.7297         2.0015         2.0032         2.2316         2.2886       124.5786      1779.0491
    1601.26680         8.5000         8.6964         2.3447       0.027079        95.4473       108.0265       109.1272       0.298842       0.291109         2.7372         1.9527         1.9538         2.1918         2.2488       124.1247      1809.5928
    1601.41920         8.5000         8.7017         2.3437       0.033101        95.6716       110.9059       112.0655       0.309206       0.301061         2.7448         1.9039         1.9043         2.1520         2.2090       123.6708      1840.1365
    1601.57160         8.5000         8.7252         2.3458       0.037497        95.7739       112.0894       113.3956       0.310209       0.301582         2.7614         1.9017         1.9028         2.1594         2.2178       123.4059      1847.3431
    1601.72400         8.5000         8.7693         2.3515       0.040059        95.7385       111.3591       112.9109       0.300651       0.291461         2.7884         1.9520         1.9553         2.2202         2.2816       123.3544      1828.2144
    1601.87640         8.5000         8.8135         2.3571       0.042620        95.7031       110.6289       112.4261       0.291092       0.281340         2.8154         2.0023         2.0079         2.2809         2.3453       123.3029      1809.0854
    1602.02880         8.5000         8.8517         2.3616       0.043380        95.6946       110.0281       112.0384       0.284806       0.274491         2.8352         2.0465         2.0540         2.3351         2.4021       123.2355      1792.5403
    1602.18120         8.5000         8.8645         2.3612       0.036414        95.8019       109.9830       112.0671       0.292563       0.281687         2.8242         2.0643         2.0726         2.3609         2.4290       123.1000      1787.0835
    1602.33360         8.5000         8.8774         2.3608       0.029448        95.9092       109.9380       112.0959       0.300321       0.288883         2.8131         2.0821         2.0911         2.3867         2.4559       122.9645      1781.6267
    1602.48600         8.5000         8.8902         2.3604       0.022482        96.0165       109.8929       112.1246       0.308079       0.296079         2.8021         2.0999         2.1096         2.4124         2.4827       122.8291      1776.1699
    1602.63840         8.5000         8.8742         2.3636       0.022181        95.8519       108.7522       110.8729       0.293881       0.282735         2.7981         2.1180         2.1276         2.4319         2.5014       122.7455      1787.3007
