~Version Information Block
VERS .                 2.00:  CWLS LOG ASCII STANDARD - VERSION 2.00
WRAP .                   NO:  One line per depth step
~Well Information Block
#MNEM.UNIT        Data Type   Information
#---------- ----------------  -----------
STRT .M             5.63880:  START DEPTH
STOP .M          2149.90680:  STOP DEPTH
STEP .M             0.15240:  STEP
NULL .              -999.25:  NULL VALUE
COMP .                     :  COMPANY
WELL .            Ngatoro-4:  WELL
FLD  .                     :  FIELD
LOC  .                     :  LOCATION
CTRY .                     :  COUNTRY
STAT .                     :  STATE
CNTY .                     :  COUNTY
SRVC .     New Zealand Petroleum Co Ltd:  SERVICE COMPANY
DATE .                     :  DATE
API  .                     :  API NUMBER
UWI  .         100000159749:  UNIQUE WELL ID
LATI .           -39.193014:  LATITUDE
LONG .          174.1756345:  LONGITUDE
~Curve Information Block
#MNEM.UNIT         API CODE   Curve Description
#---------- ----------------  -----------------
DEPTH.M                    :  
BS   .IN                   :  Bit Size (Created in Geolog)
CALI .IN                   :  Caliper Log (CALI)
DRHO .G/C3                 :  Density Log Correction (DRHO)
DTC  .US/F                 :  Delta T (DT)
DTS  .US/F                 :  Delta T Shear Lower Dipole (DT1)
GR   .GAPI                 :  Gamma-Ray Log (GR)
GR_CORR.GAPI                 :  Gamma ray corrected
NEUT .V/V                  :  Neutron Log Porosity (NPHI)
NEUT_CORR.V/V                  :  Corrected NPHI (limestone units)
PEF  .B/E                  :  Photoelectric Factor (PEDF)
RESD .OHMM                 :  Laterolog Deep Resistivity (LLD)
RESD_CORR.OHMM                 :  Borehole corrected LLD
RESS .OHMM                 :  Shallow Laterolog (LLS)
RESS_CORR.OHMM                 :  Borehole corrected LLS
SP   .MV                   :  Spontaneous Potential Log (SP)
TEMP .DEGC                 :  Temperature (TEMP)
TENS .KGF                  :  Cable tension at surface (TENS)
~Parameter Information Block
#MNEM.UNIT            Value   Description
#---------- ----------------  -----------
CUR_INT_BOT.M                2150:  Current interpolated bottom
PROJECT.     New Zealand Log QC Project:  
SET  .     A0_FINAL_INTER_REF_D:  
ELEVATION_AMSL.M               297.7:  Elevation above mean sea level
ELEVATION_REF.                   KB:  Measurement reference
FORMATION_AT_TD.                 Moki:  Formation at TD
GL_ELEVATION_AMSL.M            292.8000:  Ground level elevation above mean sea level
LICENCE_NUMBER.             PPL38706:  Licence number
ONSHORE_OR_OFFSHORE.              Onshore:  Onshore/offshore
PR_NUMBER.               PR1914:  Petroleum report number
SPUD_DATE.           07/03/1993:  Spud date
STATUS_AT_COMPLETION.     Suspended as a potential oil producer:  Status at completion
TD_DATE.           21/03/1993:  Total depth date
TOTAL_DEPTH_DRILLED.M                2150:  Total depth drilled
~Other Information Block
# 
~A       DEPTH             BS           CALI           DRHO            DTC            DTS             GR        GR_CORR           NEUT      NEUT_CORR            PEF           RESD      RESD_CORR           RESS      RESS_CORR             SP           TEMP           TENS 
# ...
     810.31080         8.5000         8.5118      0.0047437      -999.2500      -999.2500        77.2972        77.5288       0.262884       0.256038         2.5881         4.3662         4.3784         4.3878         4.4549      -999.2500      -999.2500       368.5139
     810.46320         8.5000         8.5217      0.0037845      -999.2500      -999.2500        79.0420        79.7149       0.262897       0.255898         2.6124         4.3339         4.3464         4.3984         4.4667      -999.2500      -999.2500       368.8126
     810.61560         8.5000         8.5338      0.0046926      -999.2500      -999.2500        84.6692        84.8427       0.260734       0.253567         2.7107         4.8361         4.8541         4.7864         4.8557      -999.2500      -999.2500       368.9613
     810.76800         8.5000         8.5466      0.0061951      -999.2500      -999.2500        91.5324        90.9069       0.257880       0.250538         2.8326         5.5085         5.5335         5.2945         5.3649      -999.2500      -999.2500       369.0623
     810.92040         8.5000         8.5594      0.0076976      -999.2500      -999.2500        98.3955        96.9712       0.255025       0.247509         2.9545         6.1810         6.2130         5.8027         5.8741      -999.2500      -999.2500       369.1633
     811.07280         8.5000         8.5674      0.0087368      -999.2500      -999.2500       101.6933       100.2059       0.252730       0.245172         3.0115         6.6405         6.6770         6.0633         6.1355      -999.2500      -999.2500       369.2792
     811.22520         8.5000         8.5700      0.0092696      -999.2500      -999.2500       101.0928       100.3468       0.251046       0.243592         2.9975         6.8672         6.9054         6.0533         6.1261      -999.2500      -999.2500       369.4114
     811.37760         8.5000         8.5727      0.0098024      -999.2500      -999.2500       100.4922       100.4878       0.249362       0.242011         2.9835         7.0939         7.1338         6.0433         6.1166      -999.2500      -999.2500       369.5436
     811.53000         8.5000         8.5698      0.0101334      -999.2500      -999.2500       100.1946       100.7426       0.252225       0.244912         2.9627         7.1344         7.1742         5.9218         5.9951      -999.2500      -999.2500       369.5939
     811.68240         8.5000         8.5446      0.0096412      -999.2500      -999.2500       101.1328       101.4620       0.273642       0.266094         2.9146         6.4152         6.4473         5.3457         5.4164      -999.2500      -999.2500       369.3100
     811.83480         8.5000         8.5194      0.0091489      -999.2500      -999.2500       102.0710       102.1814       0.295059       0.287276         2.8664         5.6961         5.7205         4.7695         4.8376      -999.2500      -999.2500       369.0262
     811.98720         8.5000         8.4942      0.0086567      -999.2500      -999.2500       103.0093       102.9009       0.316475       0.308458         2.8182         4.9769         4.9936         4.1933         4.2589      -999.2500      -999.2500       368.7423
     812.13960         8.5000         8.4917      0.0084128      -999.2500      -999.2500       102.8234       102.5135       0.312713       0.304925         2.8066         4.9797         4.9963         4.1976         4.2627      -999.2500      -999.2500       368.8995
     812.29200         8.5000         8.4914      0.0081918      -999.2500      -999.2500       102.5345       102.0246       0.306642       0.299125         2.7984         5.0488         5.0660         4.2551         4.3200      -999.2500      -999.2500       369.0971
     812.44440         8.5000         8.4910      0.0079707      -999.2500      -999.2500       102.2455       101.5357       0.300572       0.293326         2.7901         5.1178         5.1356         4.3125         4.3772      -999.2500      -999.2500       369.2947
     812.59680         8.5000         8.4911      0.0077950      -999.2500      -999.2500       101.7297       100.9918       0.302318       0.295009         2.7956         5.1271         5.1450         4.3135         4.3782      -999.2500      -999.2500       369.3149
     812.74920         8.5000         8.4915      0.0076454      -999.2500      -999.2500       101.0836       100.4165       0.308556       0.300992         2.8088         5.1022         5.1198         4.2819         4.3467      -999.2500      -999.2500       369.2332
     812.90160         8.5000         8.4919      0.0074959      -999.2500      -999.2500       100.4376        99.8411       0.314793       0.306974         2.8221         5.0772         5.0947         4.2503         4.3153      -999.2500      -999.2500       369.1514
     813.05400         8.5000         8.4942      0.0083113      -999.2500      -999.2500        99.6844        99.2315       0.316084       0.308165         2.8456         5.1099         5.1279         4.2530         4.3183      -999.2500      -999.2500       369.1064
     813.20640         8.5000         8.4999      0.0108852      -999.2500      -999.2500        98.7362        98.5594       0.308361       0.300625         2.8877         5.2477         5.2674         4.3182         4.3839      -999.2500      -999.2500       369.1284
     813.35880         8.5000         8.5056      0.0134592      -999.2500      -999.2500        97.7879        97.8874       0.300639       0.293086         2.9298         5.3856         5.4069         4.3833         4.4496      -999.2500      -999.2500       369.1504
     813.51120         8.5000         8.5104      0.0156703      -999.2500      -999.2500        97.0505        97.3820       0.294377       0.286973         2.9663         5.5003         5.5230         4.4353         4.5020      -999.2500      -999.2500       369.1758
     813.66360         8.5000         8.5044      0.0133081      -999.2500      -999.2500        98.9707        98.9770       0.306527       0.298843         2.9317         5.3242         5.3448         4.3213         4.3876      -999.2500      -999.2500       369.2460
     813.81600         8.5000         8.4983      0.0109458      -999.2500      -999.2500       100.8909       100.5720       0.318677       0.310712         2.8971         5.1480         5.1667         4.2074         4.2733      -999.2500      -999.2500       369.3162
     813.96840         8.5000         8.4923      0.0085835      -999.2500      -999.2500       102.8112       102.1669       0.330827       0.322582         2.8625         4.9719         4.9885         4.0935         4.1590      -999.2500      -999.2500       369.3864
     814.12080         8.5000         8.4923      0.0078805      -999.2500      -999.2500       104.3023       103.6106       0.326877       0.318775         2.8741         5.0138         5.0308         4.1677         4.2330      -999.2500      -999.2500       369.3166
     814.27320         8.5000         8.4939      0.0076116      -999.2500      -999.2500       105.6813       105.0146       0.318716       0.310869         2.8977         5.1128         5.1307         4.2912         4.3562      -999.2500      -999.2500       369.2101
     814.42560         8.5000         8.4955      0.0073427      -999.2500      -999.2500       107.0602       106.4186       0.310555       0.302962         2.9214         5.2117         5.2307         4.4146         4.4795      -999.2500      -999.2500       369.1037
     814.57800         8.5000         8.4954      0.0070305      -999.2500      -999.2500       107.2131       106.6372       0.306990       0.299496         2.9153         5.1610         5.1795         4.4002         4.4651      -999.2500      -999.2500       369.0524
     814.73040         8.5000         8.4935      0.0066770      -999.2500      -999.2500       106.1965       105.7250       0.307809       0.300265         2.8809         4.9676         4.9842         4.2542         4.3193      -999.2500      -999.2500       369.0537
