~Version Information Block
VERS .                 2.00:  CWLS LOG ASCII STANDARD - VERSION 2.00
WRAP .                   NO:  One line per depth step
~Well Information Block
#MNEM.UNIT        Data Type   Information
#---------- ----------------  -----------
STRT .M             9.14400:  START DEPTH
STOP .M          1999.48800:  STOP DEPTH
STEP .M             0.15240:  STEP
NULL .              -999.25:  NULL VALUE
COMP .                     :  COMPANY
WELL .            Ngatoro-2:  WELL
FLD  .                     :  FIELD
LOC  .                     :  LOCATION
CTRY .                     :  COUNTRY
STAT .                     :  STATE
CNTY .                     :  COUNTY
SRVC .     New Zealand Petroleum Co Ltd:  SERVICE COMPANY
DATE .                     :  DATE
API  .                     :  API NUMBER
UWI  .         100000127958:  UNIQUE WELL ID
LATI .          -39.1949429:  LATITUDE
LONG .          174.1849215:  LONGITUDE
~Curve Information Block
#MNEM.UNIT         API CODE   Curve Description
#---------- ----------------  -----------------
DEPTH.M                    :  
BS   .IN                   :  Bit Size (Created in Geolog)
CALI .IN                   :  Caliper Log (CALI)
DENS .G/C3                 :  Compensated Formation Density Log (RHOB)
DRHO .G/C3                 :  Density Log Correction (DRHO)
DTC  .US/F                 :  Delta T (DT)
DTS  .US/F                 :  Delta T Shear Lower Dipole (DT1)
GR   .GAPI                 :  Gamma-Ray Raw (Reeves PSD) (GRCF)
GR_CORR.GAPI                 :  Gamma ray corrected
NEUT .V/V                  :  Neutron Log Porosity (NPHI)
NEUT_CORR.V/V                  :  Corrected NPHI (limestone units)
PEF  .B/E                  :  Photoelectric Factor (PEDF)
RESD .OHMM                 :  Laterolog Deep Resistivity (LLD)
RESD_CORR.OHMM                 :  Borehole corrected LLD
RESS .OHMM                 :  Shallow Laterolog (LLS)
RESS_CORR.OHMM                 :  Borehole corrected LLS
SP   .MV                   :  Spontaneous Potential Log (SP)
TEMP .DEGC                 :  Temperature (TEMP)
TENS .KGF                  :  Cable tension at surface (TENS)
~Parameter Information Block
#MNEM.UNIT            Value   Description
#---------- ----------------  -----------
CUR_INT_BOT.M                2000:  Current interpolated bottom
PROJECT.     New Zealand Log QC Project:  
SET  .     A0_FINAL_INTER_REF_D:  
ELEVATION_AMSL.M              294.94:  Elevation above mean sea level
ELEVATION_REF.                   KB:  Measurement reference
FORMATION_AT_TD.             Manganui:  Formation at TD
GL_ELEVATION_AMSL.M            286.3000:  Ground level elevation above mean sea level
LICENCE_NUMBER.             PPL38706:  Licence number
ONSHORE_OR_OFFSHORE.              Onshore:  Onshore/offshore
PR_NUMBER.               PR1920:  Petroleum report number
SPUD_DATE.           12/10/1991:  Spud date
STATUS_AT_COMPLETION.     Completed as an oil producer:  Status at completion
TD_DATE.           26/10/1991:  Total depth date
TOTAL_DEPTH_DRILLED.M                2000:  Total depth drilled
~Other Information Block
# 
~A       DEPTH             BS           CALI           DENS           DRHO            DTC            DTS             GR        GR_CORR           NEUT      NEUT_CORR            PEF           RESD      RESD_CORR           RESS      RESS_CORR             SP           TEMP           TENS 
# ...
     411.32760         8.5000         8.9033      -999.2500   -999.2500000       155.1495        56.7555       106.8575       108.5379    -999.250000    -999.250000      -999.2500      -999.2500      -999.2500      -999.2500      -999.2500       124.9040        33.1750       298.1503
     411.48000         8.5000         8.8972      -999.2500   -999.2500000       154.2208        56.7841       106.4158       108.0540    -999.250000    -999.250000      -999.2500      -999.2500      -999.2500      -999.2500      -999.2500       124.9012        33.1884       298.6540
     411.63240         8.5000         8.8933      -999.2500   -999.2500000       154.1850        56.7768       108.7926       110.4439    -999.250000    -999.250000      -999.2500      -999.2500      -999.2500      -999.2500      -999.2500       124.2964        33.1879       301.3289
     411.78480         8.5000         8.8897      -999.2500   -999.2500000       154.2840        56.7640       111.5950       113.2679    -999.250000    -999.250000      -999.2500      -999.2500      -999.2500      -999.2500      -999.2500       123.6008        33.1853       304.3317
     411.93720         8.5000         8.8862      -999.2500   -999.2500000       154.3830        56.7513       114.3975       116.0918    -999.250000    -999.250000      -999.2500      -999.2500      -999.2500      -999.2500      -999.2500       122.9051        33.1828       307.3345
     412.08960         8.5000         8.8869      -999.2500   -999.2500000       152.9837        56.7298       114.3470       116.0448    -999.250000    -999.250000      -999.2500      -999.2500      -999.2500      -999.2500      -999.2500       122.4818        33.1831       307.5693
     412.24200         8.5000         8.8907      -999.2500   -999.2500000       150.5342        56.7020       112.2968       113.9855    -999.250000    -999.250000      -999.2500      -999.2500      -999.2500      -999.2500      -999.2500       122.2494        33.1856       305.8640
     412.39440         8.5000         8.8945      -999.2500   -999.2500000       148.0848        56.6742       110.2466       111.9261    -999.250000    -999.250000      -999.2500      -999.2500      -999.2500      -999.2500      -999.2500       122.0170        33.1880       304.1586
     412.54680         8.5000         8.8988      -999.2500   -999.2500000       145.8584        56.6525       108.7067       110.3875    -999.250000    -999.250000      -999.2500      -999.2500      -999.2500      -999.2500      -999.2500       121.7693        33.1912       303.0300
     412.69920         8.5000         8.9044      -999.2500   -999.2500000       144.1356        56.6444       108.3184       110.0237    -999.250000    -999.250000      -999.2500      -999.2500      -999.2500      -999.2500      -999.2500       121.4869        33.1959       303.2027
     412.85160         8.5000         8.9100      -999.2500   -999.2500000       142.4127        56.6362       107.9300       109.6600    -999.250000    -999.250000      -999.2500      -999.2500      -999.2500      -999.2500      -999.2500       121.2046        33.2007       303.3754
     413.00400         8.5000         8.9156      -999.2500   -999.2500000       140.7818        56.6286       107.4880       109.2420    -999.250000    -999.250000      -999.2500      -999.2500      -999.2500      -999.2500      -999.2500       120.9339        33.2053       303.4574
     413.15640         8.5000         8.9239      -999.2500   -999.2500000       142.5637        56.6406       105.0554       106.8123    -999.250000    -999.250000      -999.2500      -999.2500      -999.2500      -999.2500      -999.2500       121.0935        33.2068       300.1745
     413.30880         8.5000         8.9322      -999.2500   -999.2500000       144.3456        56.6526       102.6228       104.3826    -999.250000    -999.250000      -999.2500      -999.2500      -999.2500      -999.2500      -999.2500       121.2531        33.2083       296.8916
     413.46120         8.5000         8.9405      -999.2500   -999.2500000       146.1275        56.6646       100.1902       101.9529    -999.250000    -999.250000      -999.2500      -999.2500      -999.2500      -999.2500      -999.2500       121.4127        33.2098       293.6087
     413.61360         8.5000         8.9482      -999.2500   -999.2500000       147.2637        56.6423        97.8157        99.5741    -999.250000    -999.250000      -999.2500      -999.2500      -999.2500      -999.2500      -999.2500       121.4091        33.2101       293.7608
     413.76600         8.5000         8.9557      -999.2500   -999.2500000       148.1794        56.6081        95.4611        97.2127    -999.250000    -999.250000      -999.2500      -999.2500      -999.2500      -999.2500      -999.2500       121.3499        33.2101       295.0861
     413.91840         8.5000         8.9632      -999.2500   -999.2500000       149.0950        56.5740        93.1065        94.8512    -999.250000    -999.250000      -999.2500      -999.2500      -999.2500      -999.2500      -999.2500       121.2907        33.2101       296.4113
     414.07080         8.5000         8.9504      -999.2500   -999.2500000       148.2930        56.5787        93.5015        95.1854    -999.250000    -999.250000      -999.2500        15.4266      -999.2500      -999.2500      -999.2500       121.1124        33.2072       296.8454
     414.22320         8.5000         8.9141      -999.2500   -999.2500000       145.5111        56.6283        97.0657        98.6265    -999.250000    -999.250000      -999.2500        15.0424      -999.2500      -999.2500      -999.2500       120.7969        33.2010       296.2523
     414.37560         8.5000         8.8779      -999.2500   -999.2500000       142.7293        56.6778       100.6298       102.0676    -999.250000    -999.250000      -999.2500        14.6583      -999.2500      -999.2500      -999.2500       120.4813        33.1947       295.6592
     414.52800         8.5000         8.8421      -999.2500   -999.2500000       139.5155        56.7204       103.1669       104.4685    -999.250000    -999.250000      -999.2500        14.6591      -999.2500      -999.2500      -999.2500       120.2207        33.1924       295.0718
     414.68040         8.5000         8.8087      -999.2500   -999.2500000       134.3823        56.7318       101.1407       102.2480    -999.250000    -999.250000      -999.2500        16.3704      -999.2500      -999.2500      -999.2500       120.2043        33.2077       294.5091
     414.83280         8.5000         8.7752      -999.2500   -999.2500000       129.2491        56.7433        99.1146       100.0276    -999.250000    -999.250000      -999.2500        18.0816      -999.2500      -999.2500      -999.2500       120.1878        33.2230       293.9464
     414.98520         8.5000         8.7418      -999.2500   -999.2500000       124.1159        56.7548        97.0885        97.8072    -999.250000    -999.250000      -999.2500        19.7929      -999.2500      -999.2500      -999.2500       120.1713        33.2383       293.3838
     415.13760         8.5000         8.7266      -999.2500   -999.2500000       116.3106        57.2305        97.5190        98.1629    -999.250000    -999.250000      -999.2500        22.8607      -999.2500      -999.2500      -999.2500       119.8194        33.2393       295.2746
     415.29000         8.5000         8.7134      -999.2500   -999.2500000       108.2179        57.7561        98.2138        98.7957    -999.250000    -999.250000      -999.2500        26.0743      -999.2500      -999.2500      -999.2500       119.4314        33.2388       297.4294
     415.44240         8.5000         8.7002      -999.2500   -999.2500000       100.1253        58.2817        98.9086        99.4284    -999.250000    -999.250000      -999.2500        29.2880      -999.2500      -999.2500      -999.2500       119.0434        33.2383       299.5842
     415.59480         8.5000         8.7015      -999.2500   -999.2500000       100.6347        58.0784        99.1594        99.6882    -999.250000    -999.250000      -999.2500        28.7469        28.2619        25.0016        25.0359       119.0438        33.2328       300.5999
