~Version Information Block
VERS .                 2.00:  CWLS LOG ASCII STANDARD - VERSION 2.00
WRAP .                   NO:  One line per depth step
~Well Information Block
#MNEM.UNIT        Data Type   Information
#---------- ----------------  -----------
STRT .M           514.50240:  START DEPTH
STOP .M          1925.26920:  STOP DEPTH
STEP .M             0.15240:  STEP
NULL .              -999.25:  NULL VALUE
COMP .                     :  COMPANY
WELL .            Ngatoro-6:  WELL
FLD  .                     :  FIELD
LOC  .                     :  LOCATION
CTRY .                     :  COUNTRY
STAT .                     :  STATE
CNTY .                     :  COUNTY
SRVC .     New Zealand Petroleum Co Ltd:  SERVICE COMPANY
DATE .                     :  DATE
API  .                     :  API NUMBER
UWI  .         100000210185:  UNIQUE WELL ID
LATI .          -39.2039386:  LATITUDE
LONG .          174.1707675:  LONGITUDE
~Curve Information Block
#MNEM.UNIT         API CODE   Curve Description
#---------- ----------------  -----------------
DEPTH.M                    :  
BS   .IN                   :  Bit Size (Created in Geolog)
CALI .IN                   :  CALIPER (HCAL)
DENS .G/C3                 :  Bulk Density (RHOZ) and HR Bulk Density (RHO8)
DTC  .US/F                 :  Delta Time Compressional (DTCO)
DTS  .US/F                 :  Delta-T Shear (DTSM)
GR   .GAPI                 :  Gamma Ray (GR) and HR Gamma Ray (HGR)
NEUT .V/V                  :  Neutron Porosity (NPHI) and HR Neutron Porosity (HTNP)
NEUT_CORR.V/V                  :  Corrected NPHI (limestone units)
PEF  .B/E                  :  HRDD Std Resolution Formation Photoelectric Factor (PEFZ) and (PEF8)
RESD .OHMM                 :  HALS Deep Res. (HLLD) and HR HALS Deep Res. (HRLD)
RESS .OHMM                 :  HALS Shallow Res. (HLLS) and HR HALS Shallow Res. (HRLS)
SP   .MV                   :  Spontaneous Potential (SP)
~Parameter Information Block
#MNEM.UNIT            Value   Description
#---------- ----------------  -----------
CUR_INT_BOT.M                1930:  Current interpolated bottom
PROJECT.     New Zealand Log QC Project:  
SET  .     A0_FINAL_INTER_REF_D:  
ELEVATION_AMSL.M                 328:  Elevation above mean sea level
ELEVATION_REF.                   KB:  Measurement reference
FORMATION_AT_TD.      Mount Messenger:  Formation at TD
GL_ELEVATION_AMSL.M            322.5000:  Ground level elevation above mean sea level
LICENCE_NUMBER.             PPL38706:  Licence number
ONSHORE_OR_OFFSHORE.              Onshore:  Onshore/offshore
PR_NUMBER.               PR2214:  Petroleum report number
SPUD_DATE.           27/03/1996:  Spud date
STATUS_AT_COMPLETION.     Suspended with 7" casing cemented in place:  Status at completion
TD_DATE.           04/04/1996:  Total depth date
TOTAL_DEPTH_DRILLED.M                1930:  Total depth drilled
~Other Information Block
# 
~A       DEPTH             BS           CALI           DENS            DTC            DTS             GR           NEUT      NEUT_CORR            PEF           RESD           RESS             SP 
# ...
     732.12960         8.5000         8.4299         2.2063      -999.2500      -999.2500        92.5165       0.348416       0.346064         3.0494        21.3898        15.8014       233.8561
     732.28200         8.5000         8.4678         2.2095      -999.2500      -999.2500        93.4874       0.355541       0.353077         3.0143        22.1799        16.2968       233.4147
     732.43440         8.5000         8.5057         2.2128      -999.2500      -999.2500        94.4582       0.362667       0.360090         2.9791        22.9701        16.7922       232.9733
     732.58680         8.5000         8.5449         2.2155      -999.2500      -999.2500        94.6333       0.361061       0.358532         2.9821        23.0795        16.8735       232.2730
     732.73920         8.5000         8.5849         2.2178      -999.2500      -999.2500        94.2071       0.352855       0.350495         3.0138        22.6744        16.6418       231.3771
     732.89160         8.5000         8.6249         2.2201      -999.2500      -999.2500        93.7809       0.344650       0.342459         3.0456        22.2693        16.4102       230.4811
     733.04400         8.5000         8.6397         2.2220      -999.2500      -999.2500        93.4587       0.342147       0.339962         3.0677        21.6558        16.0214       229.6302
     733.19640         8.5000         8.5923         2.2226      -999.2500      -999.2500        93.3926       0.353697       0.351113         3.0660        20.5290        15.2454       228.8904
     733.34880         8.5000         8.5449         2.2232      -999.2500      -999.2500        93.3266       0.365246       0.362264         3.0643        19.4021        14.4695       228.1505
     733.50120         8.5000         8.4978         2.2238      -999.2500      -999.2500        93.2587       0.376637       0.373256         3.0625        18.2897        13.7029       227.4108
     733.65360         8.5000         8.4850         2.2164      -999.2500      -999.2500        92.9606       0.368075       0.364322         3.0427        18.9992        14.1076       226.6963
     733.80600         8.5000         8.4721         2.2090      -999.2500      -999.2500        92.6626       0.359512       0.355387         3.0229        19.7087        14.5124       225.9818
     733.95840         8.5000         8.4593         2.2016      -999.2500      -999.2500        92.3645       0.350949       0.346453         3.0031        20.4183        14.9171       225.2673
     734.11080         8.5000         8.4551         2.2053      -999.2500      -999.2500        93.0292       0.346859       0.342620         3.0190        20.4065        14.8980       225.3058
     734.26320         8.5000         8.4541         2.2131      -999.2500      -999.2500        94.0553       0.344448       0.340702         3.0484        20.1238        14.7198       225.6271
     734.41560         8.5000         8.4532         2.2210      -999.2500      -999.2500        95.0814       0.342037       0.338785         3.0778        19.8412        14.5415       225.9483
     734.56800         8.5000         8.4441         2.2249      -999.2500      -999.2500        95.7014       0.339358       0.336562         3.1013        19.6409        14.3768       226.2726
     734.72040         8.5000         8.4251         2.2239      -999.2500      -999.2500        95.8173       0.336348       0.333960         3.1175        19.5427        14.2287       226.6005
     734.87280         8.5000         8.4061         2.2228      -999.2500      -999.2500        95.9333       0.333338       0.331359         3.1337        19.4444        14.0807       226.9285
     735.02520         8.5000         8.3957         2.2210      -999.2500      -999.2500        95.9662       0.330585       0.328888         3.1421        19.4770        14.0179       227.1894
     735.17760         8.5000         8.4288         2.2148      -999.2500      -999.2500        95.5801       0.329124       0.327077         3.1112        20.1694        14.3857       227.1116
     735.33000         8.5000         8.4620         2.2087      -999.2500      -999.2500        95.1939       0.327664       0.325266         3.0803        20.8618        14.7535       227.0339
     735.48240         8.5000         8.4951         2.2026      -999.2500      -999.2500        94.8078       0.326203       0.323454         3.0495        21.5542        15.1212       226.9561
     735.63480         8.5000         8.5337         2.2019      -999.2500      -999.2500        95.5455       0.323627       0.320421         3.0244        21.0259        14.7962       226.4299
     735.78720         8.5000         8.5729         2.2018      -999.2500      -999.2500        96.4299       0.320904       0.317227         3.0001        20.3383        14.3807       225.8450
     735.93960         8.5000         8.6122         2.2018      -999.2500      -999.2500        97.3144       0.318182       0.314034         2.9758        19.6506        13.9652       225.2602
     736.09200         8.5000         8.6347         2.2002      -999.2500      -999.2500        97.6480       0.319028       0.314805         2.9643        19.1348        13.6259       224.7748
     736.24440         8.5000         8.6462         2.1974      -999.2500      -999.2500        97.6200       0.322216       0.318178         2.9611        18.7317        13.3367       224.3546
     736.39680         8.5000         8.6576         2.1947      -999.2500      -999.2500        97.5921       0.325405       0.321551         2.9580        18.3286        13.0475       223.9345
     736.54920         8.5000         8.6627         2.1925      -999.2500      -999.2500        97.6680       0.327330       0.323598         2.9690        18.0124        12.8135       223.4899
     736.70160         8.5000         8.6542         2.1916      -999.2500      -999.2500        97.9617       0.326607       0.322862         3.0094        17.8784        12.6953       222.9939
     736.85400         8.5000         8.6458         2.1906      -999.2500      -999.2500        98.2555       0.325883       0.322127         3.0498        17.7444        12.5772       222.4980
     737.00640         8.5000         8.6384         2.1902      -999.2500      -999.2500        98.5039       0.324975       0.321196         3.0885        17.6130        12.4633       222.0178
     737.15880         8.5000         8.6559         2.2012      -999.2500      -999.2500        97.7166       0.319858       0.315806         3.0868        17.5420        12.4456       221.8969
     737.31120         8.5000         8.6734         2.2122      -999.2500      -999.2500        96.9293       0.314742       0.310416         3.0852        17.4711        12.4279       221.7760
     737.46360         8.5000         8.6909         2.2232      -999.2500      -999.2500        96.1420       0.309625       0.305026         3.0835        17.4001        12.4102       221.6552
     737.61600         8.5000         8.6977         2.2247      -999.2500      -999.2500        97.3763       0.312108       0.307560         3.0826        17.4563        12.4056       221.9365
     737.76840         8.5000         8.7012         2.2231      -999.2500      -999.2500        99.2449       0.316976       0.312581         3.0819        17.5523        12.4051       222.3441
     737.92080         8.5000         8.7047         2.2216      -999.2500      -999.2500       101.1136       0.321844       0.317602         3.0812        17.6483        12.4046       222.7516
     738.07320         8.5000         8.6784         2.2236      -999.2500      -999.2500       100.9006       0.320559       0.316536         3.0740        17.4992        12.2680       223.0030
     738.22560         8.5000         8.6198         2.2296      -999.2500      -999.2500        98.4353       0.312616       0.308884         3.0598        17.0847        11.9840       223.0855
     738.37800         8.5000         8.5613         2.2355      -999.2500      -999.2500        95.9700       0.304674       0.301232         3.0456        16.6702        11.7000       223.1680
