~Version Information Block
VERS .                 2.00:  CWLS LOG ASCII STANDARD - VERSION 2.00
WRAP .                   NO:  One line per depth step
~Well Information Block
#MNEM.UNIT        Data Type   Information
#---------- ----------------  -----------
STRT .M           535.07640:  START DEPTH
STOP .M          2419.95960:  STOP DEPTH
STEP .M             0.15240:  STEP
NULL .              -999.25:  NULL VALUE
COMP .                     :  COMPANY
WELL .            Ngatoro-3:  WELL
FLD  .                     :  FIELD
LOC  .                     :  LOCATION
CTRY .                     :  COUNTRY
STAT .                     :  STATE
CNTY .                     :  COUNTY
SRVC .     New Zealand Petroleum Co Ltd:  SERVICE COMPANY
DATE .                     :  DATE
API  .                     :  API NUMBER
UWI  .         100000158215:  UNIQUE WELL ID
LATI .          -39.1846093:  LATITUDE
LONG .          174.1883769:  LONGITUDE
~Curve Information Block
#MNEM.UNIT         API CODE   Curve Description
#---------- ----------------  -----------------
DEPTH.M                    :  
BS   .IN                   :  Bit Size (Created in Geolog)
CALI .IN                   :  Caliper Log (CALI)
DENS .G/C3                 :  Compensated Formation Density Log (RHOB)
DRHO .G/C3                 :  Density Log Correction (DRHO)
DTC  .US/F                 :  Delta T (DT)
GR   .GAPI                 :  Gamma-Ray Log (GR)
GR_CORR.GAPI                 :  Gamma ray corrected
NEUT .V/V                  :  Neutron Log Porosity (NPHI)
NEUT_CORR.V/V                  :  Corrected NPHI (limestone units)
PEF  .B/E                  :  Photoelectric Factor (PEDF)
RESD .OHMM                 :  Laterolog Deep Resistivity (LLD)
RESD_CORR.OHMM                 :  Borehole corrected LLD
RESS .OHMM                 :  Shallow Laterolog (LLS)
RESS_CORR.OHMM                 :  Borehole corrected LLS
SP   .MV                   :  Spontaneous Potential Log (SP)
TEMP .DEGC                 :  Temperature (TEMP)
TENS .KGF                  :  Cable tension at surface (TENS)
~Parameter Information Block
#MNEM.UNIT            Value   Description
#---------- ----------------  -----------
CUR_INT_BOT.M                2420:  Current interpolated bottom
PROJECT.     New Zealand Log QC Project:  
SET  .     A0_FINAL_INTER_REF_D:  
ELEVATION_AMSL.M              267.94:  Elevation above mean sea level
ELEVATION_REF.                   KB:  Measurement reference
FORMATION_AT_TD.             Manganui:  Formation at TD
GL_ELEVATION_AMSL.M            263.2000:  Ground level elevation above mean sea level
LICENCE_NUMBER.             PPL38706:  Licence number
ONSHORE_OR_OFFSHORE.              Onshore:  Onshore/offshore
PR_NUMBER.               PR1863:  Petroleum report number
SPUD_DATE.           14/01/1993:  Spud date
STATUS_AT_COMPLETION.     Suspended as a potential oil producer:  Status at completion
TD_DATE.           08/02/1993:  Total depth date
TOTAL_DEPTH_DRILLED.M                2420:  Total depth drilled
~Other Information Block
# 
~A       DEPTH             BS           CALI           DENS           DRHO            DTC             GR        GR_CORR           NEUT      NEUT_CORR            PEF           RESD      RESD_CORR           RESS      RESS_CORR             SP           TEMP           TENS 
# ...
    1047.14040         8.5000         8.5498         2.3026      0.0141787       100.9158        99.7373        99.6446       0.347415       0.338546         2.7714         2.1959         2.1917         2.2192         2.2749        66.6042        49.2432       986.2874
    1047.29280         8.5000         8.5478         2.3068      0.0133953       100.8571       101.2641       101.1597       0.329523       0.321163         2.7726         2.2370         2.2333         2.2707         2.3264        66.9056        49.2433       985.7623
    1047.44520         8.5000         8.5459         2.3110      0.0126119       100.7984       102.7910       102.6748       0.311631       0.303780         2.7738         2.2781         2.2749         2.3222         2.3780        67.2071        49.2433       985.2371
    1047.59760         8.5000         8.5459         2.3154      0.0123118       100.6161       102.1204       102.0046       0.303895       0.296248         2.7904         2.3225         2.3200         2.3757         2.4316        67.7055        49.2462       984.5731
    1047.75000         8.5000         8.5469         2.3199      0.0122831       100.3645       100.2161       100.1076       0.301862       0.294248         2.8155         2.3689         2.3670         2.4304         2.4864        68.3145        49.2506       983.8311
    1047.90240         8.5000         8.5479         2.3244      0.0122543       100.1128        98.3117        98.2106       0.299828       0.292248         2.8407         2.4153         2.4141         2.4850         2.5411        68.9235        49.2551       983.0890
    1048.05480         8.5000         8.5484         2.3259      0.0122793        99.9823        97.1388        97.0420       0.303632       0.295941         2.8553         2.4069         2.4056         2.4808         2.5369        69.1460        49.2593       982.8167
    1048.20720         8.5000         8.5483         2.3221      0.0123998       100.0674        97.2685        97.1707       0.317830       0.309774         2.8511         2.3010         2.2983         2.3718         2.4277        68.6802        49.2632       983.3810
    1048.35960         8.5000         8.5481         2.3182      0.0125203       100.1524        97.3982        97.2995       0.332028       0.323606         2.8469         2.1952         2.1909         2.2627         2.3184        68.2143        49.2672       983.9453
    1048.51200         8.5000         8.5481         2.3140      0.0126535       100.2537        97.5232        97.4241       0.344994       0.336236         2.8426         2.0993         2.0937         2.1642         2.2196        67.7598        49.2708       984.3995
    1048.66440         8.5000         8.5494         2.3060      0.0129352       100.5445        97.5925        97.5004       0.343543       0.334793         2.8367         2.1201         2.1149         2.1880         2.2435        67.4371        49.2705       983.5671
    1048.81680         8.5000         8.5508         2.2981      0.0132170       100.8353        97.6619        97.5766       0.342093       0.333350         2.8308         2.1409         2.1360         2.2117         2.2674        67.1144        49.2703       982.7347
    1048.96920         8.5000         8.5521         2.2901      0.0134988       101.1261        97.7313        97.6529       0.340643       0.331906         2.8250         2.1618         2.1572         2.2355         2.2913        66.7918        49.2701       981.9023
    1049.12160         8.5000         8.5527         2.2966      0.0124994       100.9903        99.5797        99.5029       0.331426       0.322919         2.8305         2.2204         2.2167         2.3019         2.3579        66.9415        49.2664       981.7903
    1049.27400         8.5000         8.5531         2.3067      0.0111755       100.7465       101.8787       101.8022       0.320241       0.312022         2.8390         2.2885         2.2858         2.3790         2.4352        67.2110        49.2617       981.8610
    1049.42640         8.5000         8.5535         2.3168      0.0098516       100.5027       104.1777       104.1014       0.309056       0.301124         2.8474         2.3567         2.3550         2.4562         2.5125        67.4804        49.2570       981.9315
    1049.57880         8.5000         8.5580         2.3236      0.0098408       100.5675       105.0380       104.9859       0.304096       0.296199         2.8742         2.4078         2.4070         2.5149         2.5717        68.0739        49.2619       982.1309
    1049.73120         8.5000         8.5665         2.3275      0.0110563       100.9206       104.5545       104.5489       0.304952       0.296853         2.9183         2.4430         2.4429         2.5565         2.6138        68.9700        49.2758       982.4505
    1049.88360         8.5000         8.5750         2.3314      0.0122718       101.2736       104.0710       104.1120       0.305807       0.297506         2.9623         2.4781         2.4789         2.5980         2.6560        69.8661        49.2898       982.7702
    1050.03600         8.5000         8.5810         2.3360      0.0134366       101.4831       104.1355       104.2096       0.309315       0.300792         2.9986         2.5118         2.5133         2.6370         2.6954        70.5498        49.3019       983.4826
    1050.18840         8.5000         8.5789         2.3430      0.0144372       101.2280       105.9718       106.0356       0.321402       0.312590         3.0095         2.5406         2.5425         2.6678         2.7261        70.5465        49.3083       985.4650
    1050.34080         8.5000         8.5769         2.3500      0.0154378       100.9730       107.8081       107.8616       0.333489       0.324387         3.0205         2.5695         2.5716         2.6985         2.7567        70.5433        49.3147       987.4474
    1050.49320         8.5000         8.5749         2.3570      0.0164384       100.7180       109.6444       109.6876       0.345576       0.336185         3.0314         2.5983         2.6008         2.7292         2.7873        70.5400        49.3211       989.4297
    1050.64560         8.5000         8.5746         2.3543      0.0154982       100.4075       112.2368       112.2794       0.342114       0.332825         3.0058         2.5714         2.5735         2.7110         2.7691        69.8425        49.3280       987.3211
    1050.79800         8.5000         8.5744         2.3511      0.0144674       100.0944       114.8646       114.9071       0.337926       0.328757         2.9784         2.5418         2.5435         2.6906         2.7486        69.1125        49.3349       985.0214
    1050.95040         8.5000         8.5742         2.3479      0.0134366        99.7813       117.4924       117.5347       0.333737       0.324689         2.9510         2.5122         2.5135         2.6701         2.7281        68.3825        49.3418       982.7218
    1051.10280         8.5000         8.5752         2.3496      0.0142367        99.2792       118.0566       118.1053       0.320920       0.312209         2.9536         2.5125         2.5138         2.6734         2.7315        67.9360        49.3484       982.2773
    1051.25520         8.5000         8.5767         2.3536      0.0159201        98.6859       117.6253       117.6833       0.303939       0.295669         2.9707         2.5272         2.5287         2.6882         2.7464        67.6263        49.3548       982.7281
    1051.40760         8.5000         8.5783         2.3577      0.0176036        98.0926       117.1940       117.2613       0.286958       0.279129         2.9877         2.5418         2.5437         2.7030         2.7614        67.3165        49.3613       983.1788
    1051.56000         8.5000         8.5760         2.3597      0.0188573        97.8914       116.6410       116.6947       0.278397       0.270850         2.9766         2.5441         2.5459         2.7088         2.7670        67.2646        49.3652       983.2545
