~Version Information Block
VERS .                 2.00:  CWLS LOG ASCII STANDARD - VERSION 2.00
WRAP .                   NO:  One line per depth step
~Well Information Block
#MNEM.UNIT        Data Type   Information
#---------- ----------------  -----------
STRT .M             9.14400:  START DEPTH
STOP .M          1999.48800:  STOP DEPTH
STEP .M             0.15240:  STEP
NULL .              -999.25:  NULL VALUE
COMP .                     :  COMPANY
WELL .            Ngatoro-2:  WELL
FLD  .                     :  FIELD
LOC  .                     :  LOCATION
CTRY .                     :  COUNTRY
STAT .                     :  STATE
CNTY .                     :  COUNTY
SRVC .     New Zealand Petroleum Co Ltd:  SERVICE COMPANY
DATE .                     :  DATE
API  .                     :  API NUMBER
UWI  .         100000127958:  UNIQUE WELL ID
LATI .          -39.1949429:  LATITUDE
LONG .          174.1849215:  LONGITUDE
~Curve Information Block
#MNEM.UNIT         API CODE   Curve Description
#---------- ----------------  -----------------
DEPTH.M                    :  
BS   .IN                   :  Bit Size (Created in Geolog)
CALI .IN                   :  Caliper Log (CALI)
DENS .G/C3                 :  Compensated Formation Density Log (RHOB)
DRHO .G/C3                 :  Density Log Correction (DRHO)
DTC  .US/F                 :  Delta T (DT)
DTS  .US/F                 :  Delta T Shear Lower Dipole (DT1)
GR   .GAPI                 :  Gamma-Ray Raw (Reeves PSD) (GRCF)
GR_CORR.GAPI                 :  Gamma ray corrected
NEUT .V/V                  :  Neutron Log Porosity (NPHI)
NEUT_CORR.V/V                  :  Corrected NPHI (limestone units)
PEF  .B/E                  :  Photoelectric Factor (PEDF)
RESD .OHMM                 :  Laterolog Deep Resistivity (LLD)
RESD_CORR.OHMM                 :  Borehole corrected LLD
RESS .OHMM                 :  Shallow Laterolog (LLS)
RESS_CORR.OHMM                 :  Borehole corrected LLS
SP   .MV                   :  Spontaneous Potential Log (SP)
TEMP .DEGC                 :  Temperature (TEMP)
TENS .KGF                  :  Cable tension at surface (TENS)
~Parameter Information Block
#MNEM.UNIT            Value   Description
#---------- ----------------  -----------
CUR_INT_BOT.M                2000:  Current interpolated bottom
PROJECT.     New Zealand Log QC Project:  
SET  .     A0_FINAL_INTER_REF_D:  
ELEVATION_AMSL.M              294.94:  Elevation above mean sea level
ELEVATION_REF.                   KB:  Measurement reference
FORMATION_AT_TD.             Manganui:  Formation at TD
GL_ELEVATION_AMSL.M            286.3000:  Ground level elevation above mean sea level
LICENCE_NUMBER.             PPL38706:  Licence number
ONSHORE_OR_OFFSHORE.              Onshore:  Onshore/offshore
PR_NUMBER.               PR1920:  Petroleum report number
SPUD_DATE.           12/10/1991:  Spud date
STATUS_AT_COMPLETION.     Completed as an oil producer:  Status at completion
TD_DATE.           26/10/1991:  Total depth date
TOTAL_DEPTH_DRILLED.M                2000:  Total depth drilled
~Other Information Block
# 
~A       DEPTH             BS           CALI           DENS           DRHO            DTC            DTS             GR        GR_CORR           NEUT      NEUT_CORR            PEF           RESD      RESD_CORR           RESS      RESS_CORR             SP           TEMP           TENS 
# ...
    1251.05160         8.5000         8.6568         2.4050      0.0066174        93.7967      -999.2500       119.9168       120.2748       0.312645       0.302614         3.3938         2.4242         2.4327         2.5707         2.6258       122.1472        47.0230       662.3801
    1251.20400         8.5000         8.6619         2.4082      0.0078213        93.7351      -999.2500       117.2183       117.5980       0.304883       0.295001         3.3827         2.4260         2.4347         2.5797         2.6353       122.0752        47.0268       663.2629
    1251.35640         8.5000         8.6670         2.4113      0.0090252        93.6735      -999.2500       114.5198       114.9212       0.297121       0.287389         3.3716         2.4278         2.4367         2.5888         2.6447       122.0031        47.0307       664.1458
    1251.50880         8.5000         8.6724         2.4142      0.0100751        93.6155      -999.2500       112.1896       112.6167       0.289822       0.280216         3.3591         2.4299         2.4390         2.5976         2.6540       121.9282        47.0344       665.1239
    1251.66120         8.5000         8.6846         2.4132      0.0086109        93.6169      -999.2500       115.8695       116.3887       0.290073       0.280222         3.3242         2.4372         2.4469         2.6035         2.6608       121.8055        47.0347       667.6580
    1251.81360         8.5000         8.6968         2.4122      0.0071467        93.6184      -999.2500       119.5495       120.1607       0.290325       0.280228         3.2892         2.4446         2.4548         2.6095         2.6676       121.6827        47.0350       670.1920
    1251.96600         8.5000         8.7090         2.4111      0.0056825        93.6198      -999.2500       123.2294       123.9327       0.290576       0.280234         3.2542         2.4519         2.4627         2.6154         2.6743       121.5600        47.0353       672.7260
    1252.11840         8.5000         8.7094         2.4108      0.0056173        93.4748      -999.2500       121.8939       122.5915       0.284879       0.274729         3.2499         2.4585         2.4702         2.6196         2.6786       121.5610        47.0407       672.8347
    1252.27080         8.5000         8.7063         2.4106      0.0059538        93.2877      -999.2500       119.1181       119.7820       0.277473       0.267642         3.2544         2.4650         2.4776         2.6234         2.6822       121.5976        47.0475       672.2469
    1252.42320         8.5000         8.7033         2.4105      0.0062904        93.1006      -999.2500       116.3423       116.9724       0.270068       0.260554         3.2589         2.4714         2.4850         2.6272         2.6858       121.6341        47.0543       671.6592
    1252.57560         8.5000         8.6941         2.4173      0.0070598        92.1971      -999.2500       110.7839       111.3399       0.267262       0.258019         3.3093         2.5529         2.5668         2.7187         2.7770       121.7226        47.0581       672.9377
    1252.72800         8.5000         8.6785         2.4313      0.0082690        90.5660      -999.2500       102.3989       102.8395       0.269129       0.260107         3.4064         2.7108         2.7241         2.8994         2.9572       121.8639        47.0588       676.1121
    1252.88040         8.5000         8.6630         2.4453      0.0094781        88.9348      -999.2500        94.0139        94.3391       0.270996       0.262195         3.5036         2.8686         2.8814         3.0800         3.1374       122.0052        47.0595       679.2865
    1253.03280         8.5000         8.6508         2.4536      0.0101205        87.6762      -999.2500        89.3815        89.6214       0.275334       0.266616         3.5646         2.9760         2.9885         3.2030         3.2600       122.1202        47.0613       680.6152
    1253.18520         8.5000         8.6507         2.4414      0.0086958        87.7763      -999.2500        98.4326        98.6961       0.288684       0.279544         3.4941         2.8993         2.9124         3.1160         3.1726       122.1392        47.0667       675.2136
    1253.33760         8.5000         8.6507         2.4291      0.0072712        87.8763      -999.2500       107.4837       107.7709       0.302035       0.292472         3.4237         2.8227         2.8363         3.0289         3.0852       122.1582        47.0721       669.8120
    1253.49000         8.5000         8.6506         2.4169      0.0058466        87.9763      -999.2500       116.5348       116.8456       0.315385       0.305400         3.3532         2.7461         2.7602         2.9418         2.9978       122.1772        47.0776       664.4105
    1253.64240         8.5000         8.6511         2.4151      0.0059018        89.3375      -999.2500       117.1542       117.4699       0.303863       0.294235         3.3343         2.6804         2.6936         2.8746         2.9304       122.0106        47.0795       665.6042
    1253.79480         8.5000         8.6517         2.4141      0.0060609        90.7872      -999.2500       117.1816       117.5007       0.290593       0.281378         3.3191         2.6154         2.6276         2.8088         2.8644       121.8309        47.0811       667.2612
    1253.94720         8.5000         8.6523         2.4131      0.0062200        92.2369      -999.2500       117.2089       117.5315       0.277324       0.268521         3.3038         2.5505         2.5617         2.7430         2.7984       121.6512        47.0827       668.9182
    1254.09960         8.5000         8.6372         2.4106      0.0064029        92.8732      -999.2500       115.2072       115.4404       0.271930       0.263577         3.2809         2.5358         2.5458         2.7262         2.7804       121.4580        47.0852       667.5369
    1254.25200         8.5000         8.6138         2.4074      0.0065985        93.0783      -999.2500       112.1297       112.2245       0.270710       0.262828         3.2538         2.5478         2.5566         2.7354         2.7880       121.2577        47.0881       664.5451
    1254.40440         8.5000         8.5905         2.4042      0.0067940        93.2834      -999.2500       109.0523       109.0086       0.269491       0.262079         3.2268         2.5598         2.5673         2.7447         2.7956       121.0574        47.0910       661.5533
    1254.55680         8.5000         8.5736         2.3992      0.0069653        93.4659      -999.2500       109.0010       108.8535       0.270810       0.263680         3.2069         2.5678         2.5744         2.7502         2.7999       121.0998        47.0949       660.0205
    1254.70920         8.5000         8.5676         2.3913      0.0070958        93.6103      -999.2500       114.0429       113.8500       0.276402       0.269237         3.1992         2.5688         2.5754         2.7495         2.7987       121.5505        47.1005       660.9432
    1254.86160         8.5000         8.5615         2.3834      0.0072263        93.7547      -999.2500       119.0848       118.8465       0.281994       0.274793         3.1915         2.5699         2.5765         2.7487         2.7975       122.0012        47.1061       661.8660
    1255.01400         8.5000         8.5563         2.3766      0.0074876        93.8663      -999.2500       123.4386       123.1608       0.287632       0.280379         3.1842         2.5714         2.5779         2.7480         2.7964       122.4000        47.1115       662.7175
    1255.16640         8.5000         8.5588         2.3809      0.0090426        93.6534      -999.2500       120.9893       120.7322       0.293723       0.286257         3.1804         2.5761         2.5826         2.7472         2.7957       122.2853        47.1146       662.8638
    1255.31880         8.5000         8.5613         2.3853      0.0105976        93.4406      -999.2500       118.5401       118.3035       0.299814       0.292135         3.1766         2.5808         2.5874         2.7463         2.7950       122.1706        47.1178       663.0101
