~Version Information Block
VERS .                 2.00:  CWLS LOG ASCII STANDARD - VERSION 2.00
WRAP .                   NO:  One line per depth step
~Well Information Block
#MNEM.UNIT        Data Type   Information
#---------- ----------------  -----------
STRT .M             9.14400:  START DEPTH
STOP .M          1999.48800:  STOP DEPTH
STEP .M             0.15240:  STEP
NULL .              -999.25:  NULL VALUE
COMP .                     :  COMPANY
WELL .            Ngatoro-2:  WELL
FLD  .                     :  FIELD
LOC  .                     :  LOCATION
CTRY .                     :  COUNTRY
STAT .                     :  STATE
CNTY .                     :  COUNTY
SRVC .     New Zealand Petroleum Co Ltd:  SERVICE COMPANY
DATE .                     :  DATE
API  .                     :  API NUMBER
UWI  .         100000127958:  UNIQUE WELL ID
LATI .          -39.1949429:  LATITUDE
LONG .          174.1849215:  LONGITUDE
~Curve Information Block
#MNEM.UNIT         API CODE   Curve Description
#---------- ----------------  -----------------
DEPTH.M                    :  
BS   .IN                   :  Bit Size (Created in Geolog)
CALI .IN                   :  Caliper Log (CALI)
DENS .G/C3                 :  Compensated Formation Density Log (RHOB)
DRHO .G/C3                 :  Density Log Correction (DRHO)
DTC  .US/F                 :  Delta T (DT)
DTS  .US/F                 :  Delta T Shear Lower Dipole (DT1)
GR   .GAPI                 :  Gamma-Ray Raw (Reeves PSD) (GRCF)
GR_CORR.GAPI                 :  Gamma ray corrected
NEUT .V/V                  :  Neutron Log Porosity (NPHI)
NEUT_CORR.V/V                  :  Corrected NPHI (limestone units)
PEF  .B/E                  :  Photoelectric Factor (PEDF)
RESD .OHMM                 :  Laterolog Deep Resistivity (LLD)
RESD_CORR.OHMM                 :  Borehole corrected LLD
RESS .OHMM                 :  Shallow Laterolog (LLS)
RESS_CORR.OHMM                 :  Borehole corrected LLS
SP   .MV                   :  Spontaneous Potential Log (SP)
TEMP .DEGC                 :  Temperature (TEMP)
TENS .KGF                  :  Cable tension at surface (TENS)
~Parameter Information Block
#MNEM.UNIT            Value   Description
#---------- ----------------  -----------
CUR_INT_BOT.M                2000:  Current interpolated bottom
PROJECT.     New Zealand Log QC Project:  
SET  .     A0_FINAL_INTER_REF_D:  
ELEVATION_AMSL.M              294.94:  Elevation above mean sea level
ELEVATION_REF.                   KB:  Measurement reference
FORMATION_AT_TD.             Manganui:  Formation at TD
GL_ELEVATION_AMSL.M            286.3000:  Ground level elevation above mean sea level
LICENCE_NUMBER.             PPL38706:  Licence number
ONSHORE_OR_OFFSHORE.              Onshore:  Onshore/offshore
PR_NUMBER.               PR1920:  Petroleum report number
SPUD_DATE.           12/10/1991:  Spud date
STATUS_AT_COMPLETION.     Completed as an oil producer:  Status at completion
TD_DATE.           26/10/1991:  Total depth date
TOTAL_DEPTH_DRILLED.M                2000:  Total depth drilled
~Other Information Block
# 
~A       DEPTH             BS           CALI           DENS           DRHO            DTC            DTS             GR        GR_CORR           NEUT      NEUT_CORR            PEF           RESD      RESD_CORR           RESS      RESS_CORR             SP           TEMP           TENS 
# ...
    1043.33040         8.5000         8.8328         2.3963      0.0039884        96.6025      -999.2500       115.3031       116.6996       0.272456       0.259997         3.2520         2.8108         2.8392         2.8852         2.9583       122.1213        43.2169       570.8927
    1043.48280         8.5000         8.8160         2.4175      0.0024563        95.2312      -999.2500       113.4962       114.7701       0.248922       0.237788         3.2842         2.9218         2.9558         2.9538         3.0265       122.6239        43.2235       569.0201
    1043.63520         8.5000         8.8068         2.4209      0.0045950        93.1600      -999.2500       114.6615       115.8921       0.259711       0.248311         3.3228         3.1133         3.1390         3.2171         3.2914       122.5584        43.2257       572.9105
    1043.78760         8.5000         8.7985         2.4221      0.0072007        90.9997      -999.2500       116.2049       117.4022       0.274865       0.262998         3.3621         3.3151         3.3306         3.5051         3.5813       122.4207        43.2275       577.5341
    1043.94000         8.5000         8.7902         2.4232      0.0098063        88.8394      -999.2500       117.7482       118.9124       0.290020       0.277685         3.4015         3.5169         3.5222         3.7931         3.8713       122.2829        43.2292       582.1576
    1044.09240         8.5000         8.7900         2.4112      0.0106613        89.8732      -999.2500       118.7129       119.8863       0.302557       0.289713         3.3597         3.4034         3.4098         3.6706         3.7475       122.2792        43.2302       581.7454
    1044.24480         8.5000         8.7950         2.3908      0.0103795        92.9811      -999.2500       119.3018       120.5121       0.313394       0.300014         3.2652         3.0852         3.0999         3.2815         3.3552       122.3624        43.2309       578.0634
    1044.39720         8.5000         8.8000         2.3704      0.0100976        96.0891      -999.2500       119.8906       121.1378       0.324232       0.310315         3.1707         2.7670         2.7899         2.8923         2.9628       122.4456        43.2316       574.3812
    1044.54960         8.5000         8.8035         2.3552      0.0095646        98.2968      -999.2500       120.0630       121.3333       0.329326       0.315134         3.1201         2.5561         2.5831         2.6406         2.7090       122.4760        43.2292       572.1208
    1044.70200         8.5000         8.8038         2.3511      0.0085108        98.6386      -999.2500       119.3723       120.6368       0.322516       0.308593         3.1607         2.5678         2.5900         2.6736         2.7424       122.3970        43.2208       572.8069
    1044.85440         8.5000         8.8041         2.3469      0.0074571        98.9804      -999.2500       118.6816       119.9404       0.315706       0.302052         3.2012         2.5795         2.5970         2.7065         2.7757       122.3181        43.2123       573.4930
    1045.00680         8.5000         8.8046         2.3430      0.0065112        99.2869      -999.2500       118.0826       119.3382       0.309654       0.296234         3.2393         2.5901         2.6030         2.7372         2.8069       122.2427        43.2056       574.1915
    1045.15920         8.5000         8.8102         2.3439      0.0078756        98.8363      -999.2500       119.4496       120.7546       0.319835       0.305880         3.2228         2.5764         2.5899         2.7200         2.7898       122.2441        43.2366       575.1536
    1045.31160         8.5000         8.8157         2.3448      0.0092400        98.3857      -999.2500       120.8165       122.1710       0.330017       0.315527         3.2064         2.5627         2.5768         2.7028         2.7728       122.2455        43.2676       576.1157
    1045.46400         8.5000         8.8213         2.3457      0.0106044        97.9352      -999.2500       122.1834       123.5874       0.340198       0.325173         3.1899         2.5490         2.5637         2.6856         2.7558       122.2468        43.2986       577.0778
    1045.61640         8.5000         8.8170         2.3596      0.0099927        96.8464      -999.2500       122.8276       124.2117       0.323041       0.308805         3.1705         2.6037         2.6229         2.7025         2.7724       122.3686        43.2959       577.3797
    1045.76880         8.5000         8.8096         2.3776      0.0087700        95.5601      -999.2500       123.2483       124.5910       0.297430       0.284390         3.1503         2.6796         2.7045         2.7298         2.7995       122.5277        43.2828       577.4773
    1045.92120         8.5000         8.8023         2.3957      0.0075472        94.2739      -999.2500       123.6690       124.9703       0.271818       0.259975         3.1300         2.7555         2.7862         2.7571         2.8266       122.6867        43.2698       577.5750
    1046.07360         8.5000         8.7932         2.4217      0.0077119        91.5386      -999.2500       120.4043       121.6208       0.250734       0.239911         3.1547         3.0668         3.0961         3.1348         3.2063       122.6820        43.2645       579.4356
    1046.22600         8.5000         8.7823         2.4564      0.0093620        87.2517      -999.2500       113.1939       114.2792       0.234497       0.224505         3.2276         3.6303         3.6505         3.8875         3.9635       122.5021        43.2677       583.1839
    1046.37840         8.5000         8.7713         2.4910      0.0110121        82.9649      -999.2500       105.9835       106.9376       0.218260       0.209099         3.3005         4.1938         4.2049         4.6403         4.7208       122.3221        43.2708       586.9322
    1046.53080         8.5000         8.7608         2.5095      0.0122868        80.1522      -999.2500       101.0022       101.8481       0.210284       0.201625         3.3475         4.5461         4.5521         5.0996         5.1826       122.2132        43.2734       589.1303
    1046.68320         8.5000         8.7523         2.4640      0.0120789        83.1599      -999.2500       104.8216       105.6498       0.234924       0.225463         3.2919         4.0644         4.0813         4.4005         4.4779       122.3850        43.2735       585.2080
    1046.83560         8.5000         8.7437         2.4185      0.0118711        86.1675      -999.2500       108.6410       109.4514       0.259563       0.249302         3.2363         3.5828         3.6106         3.7014         3.7733       122.5569        43.2737       581.2858
    1046.98800         8.5000         8.7352         2.3730      0.0116632        89.1751      -999.2500       112.4604       113.2531       0.284203       0.273141         3.1807         3.1011         3.1398         3.0023         3.0686       122.7287        43.2738       577.3635
    1047.14040         8.5000         8.7348         2.3640      0.0109759        91.9728      -999.2500       113.8023       114.6028       0.279988       0.269087         3.1806         2.8933         2.9259         2.8327         2.8977       122.7551        43.2777       576.8469
    1047.29280         8.5000         8.7351         2.3581      0.0102476        94.7526      -999.2500       114.9323       115.7428       0.273308       0.262649         3.1852         2.7089         2.7339         2.7082         2.7724       122.7691        43.2818       576.6215
    1047.44520         8.5000         8.7354         2.3522      0.0095193        97.5324      -999.2500       116.0624       116.8829       0.266627       0.256212         3.1899         2.5245         2.5420         2.5838         2.6471       122.7831        43.2860       576.3960
    1047.59760         8.5000         8.7410         2.3489      0.0100043        98.6490      -999.2500       115.6752       116.5256       0.268354       0.257768         3.1773         2.4646         2.4786         2.5535         2.6169       122.5894        43.2896       576.0972
