~Version Information Block
VERS .                 2.00:  CWLS LOG ASCII STANDARD - VERSION 2.00
WRAP .                   NO:  One line per depth step
~Well Information Block
#MNEM.UNIT        Data Type   Information
#---------- ----------------  -----------
STRT .M           376.58040:  START DEPTH
STOP .M          2000.85960:  STOP DEPTH
STEP .M             0.15240:  STEP
NULL .              -999.25:  NULL VALUE
COMP .                     :  COMPANY
WELL .            Ngatoro-9:  WELL
FLD  .                     :  FIELD
LOC  .                     :  LOCATION
CTRY .                     :  COUNTRY
STAT .                     :  STATE
CNTY .                     :  COUNTY
SRVC .     New Zealand Petroleum Co Ltd:  SERVICE COMPANY
DATE .                     :  DATE
API  .                     :  API NUMBER
UWI  .         100000290639:  UNIQUE WELL ID
LATI .          -39.1948838:  LATITUDE
LONG .          174.1848348:  LONGITUDE
~Curve Information Block
#MNEM.UNIT         API CODE   Curve Description
#---------- ----------------  -----------------
DEPTH.M                    :  
BS   .IN                   :  Bit Size (Created in Geolog)
CALI .IN                   :  Caliper Log (CALI)
DENS .G/C3                 :  Compensated Formation Density Log (RHOB)
DRHO .G/C3                 :  Density Log Correction (DRHO)
DTC  .US/F                 :  3-5 Ft Compensated Sonic (BPB) (DTC1)
GR   .GAPI                 :  Gamma-Ray Log (GR)
GR_CORR.GAPI                 :  Gamma ray corrected
NEUT .V/V                  :  Neutron Log Porosity (NPHI)
NEUT_CORR.V/V                  :  Corrected NPHI (limestone units)
PEF  .B/E                  :  Photoelectric Factor (PEDF)
RESD .OHMM                 :  Laterolog Deep Resistivity (LLD)
RESD_CORR.OHMM                 :  Borehole corrected LLD
RESS .OHMM                 :  Shallow Laterolog (LLS)
RESS_CORR.OHMM                 :  Borehole corrected LLS
SP   .MV                   :  Spontaneous Potential Log (SP)
TEMP .DEGC                 :  Temperature (TEMP)
TENS .KGF                  :  Cable tension at surface (TENS)
~Parameter Information Block
#MNEM.UNIT            Value   Description
#---------- ----------------  -----------
CUR_INT_BOT.M              2001.5:  Current interpolated bottom
PROJECT.     New Zealand Log QC Project:  
SET  .     A0_FINAL_INTER_REF_D:  
ELEVATION_AMSL.M              291.65:  Elevation above mean sea level
ELEVATION_REF.                   KB:  Measurement reference
FORMATION_AT_TD.      Mount Messenger:  Formation at TD
GL_ELEVATION_AMSL.M            286.3000:  Ground level elevation above mean sea level
LICENCE_NUMBER.             PMP38148:  Licence number
ONSHORE_OR_OFFSHORE.              Onshore:  Onshore/offshore
PR_NUMBER.               PR2437:  Petroleum report number
SPUD_DATE.           06/06/1998:  Spud date
STATUS_AT_COMPLETION.     Cased and suspended as a potential oil producer:  Status at completion
TD_DATE.           20/06/1998:  Total depth date
TOTAL_DEPTH_DRILLED.M              2001.5:  Total depth drilled
~Other Information Block
# 
~A       DEPTH             BS           CALI           DENS           DRHO            DTC             GR        GR_CORR           NEUT      NEUT_CORR            PEF           RESD      RESD_CORR           RESS      RESS_CORR             SP           TEMP           TENS 
# ...
    1505.86440         8.5000         9.2828         2.3892      0.0288111        93.7319       113.4558       118.0267       0.237905       0.221232         2.8493         2.5524         2.5708         2.8504         2.9674        20.7849        49.7314       356.4305
    1506.01680         8.5000         9.2216         2.3861      0.0282048        93.4838       115.0613       119.3578       0.235015       0.219513         2.8269         2.5377         2.5536         2.8414         2.9543        21.4813        49.7314       356.4258
    1506.16920         8.5000         9.2327         2.3908      0.0279078        93.2869       112.8465       117.1213       0.243644       0.227417         2.8847         2.5381         2.5544         2.8424         2.9559        21.4821        49.7314       355.0385
    1506.32160         8.5000         9.2438         2.3954      0.0276108        93.0901       110.6317       114.8848       0.252272       0.235320         2.9426         2.5384         2.5551         2.8434         2.9576        21.4828        49.7314       353.6512
    1506.47400         8.5000         9.2549         2.4001      0.0273138        92.8932       108.4169       112.6483       0.260901       0.243224         3.0004         2.5388         2.5559         2.8444         2.9593        21.4836        49.7314       352.2639
    1506.62640         8.5000         9.2240         2.4021      0.0291474        92.9269       108.9897       113.0679       0.262834       0.245576         3.0135         2.5397         2.5558         2.8426         2.9555        21.5255        49.7314       353.1794
    1506.77880         8.5000         9.1844         2.4035      0.0314193        93.0080       110.1359       114.0339       0.263390       0.246786         3.0174         2.5408         2.5555         2.8402         2.9506        21.5759        49.7314       354.5685
    1506.93120         8.5000         9.1448         2.4049      0.0336912        93.0891       111.2820       114.9999       0.263946       0.247996         3.0213         2.5419         2.5552         2.8378         2.9457        21.6263        49.7314       355.9576
    1507.08360         8.5000         9.1688         2.4076      0.0337410        93.2811       112.3784       116.2787       0.264446       0.248052         3.0182         2.5545         2.5690         2.8481         2.9578        21.6999        49.7357       355.9760
    1507.23600         8.5000         9.2452         2.4112      0.0319620        93.5643       113.4337       117.8150       0.264900       0.247156         3.0094         2.5766         2.5944         2.8689         2.9840        21.7927        49.7436       354.8662
    1507.38840         8.5000         9.3216         2.4148      0.0301829        93.8475       114.4890       119.3513       0.265355       0.246260         3.0005         2.5988         2.6197         2.8897         3.0102        21.8856        49.7514       353.7564
    1507.54080         8.5000         9.3712         2.4170      0.0284529        94.0091       115.0589       120.2287       0.265920       0.245929         3.0017         2.6121         2.6351         2.9034         3.0275        21.8289        49.7561       352.6140
    1507.69320         8.5000         9.3479         2.4151      0.0268568        93.8380       114.3013       119.3042       0.266790       0.247139         3.0302         2.6013         2.6232         2.8977         3.0201        21.3635        49.7521       351.3822
    1507.84560         8.5000         9.3245         2.4131      0.0252607        93.6668       113.5437       118.3797       0.267660       0.248349         3.0588         2.5905         2.6113         2.8920         3.0128        20.8981        49.7481       350.1505
    1507.99800         8.5000         9.3011         2.4112      0.0236645        93.4957       112.7860       117.4552       0.268530       0.249559         3.0873         2.5796         2.5994         2.8863         3.0054        20.4327        49.7440       348.9188
    1508.15040         8.5000         9.3012         2.4107      0.0253896        93.5206       112.5303       117.1891       0.268122       0.249178         3.0886         2.5766         2.5963         2.8839         3.0029        20.4873        49.7412       349.0666
    1508.30280         8.5000         9.3016         2.4102      0.0271588        93.5482       112.2812       116.9317       0.267697       0.248776         3.0895         2.5737         2.5933         2.8815         3.0005        20.5488        49.7383       349.2327
    1508.45520         8.5000         9.3020         2.4097      0.0289281        93.5758       112.0322       116.6744       0.267272       0.248374         3.0904         2.5707         2.5903         2.8791         2.9980        20.6103        49.7354       349.3989
    1508.60760         8.5000         9.2980         2.4110      0.0296270        93.0380       112.0763       116.6976       0.271702       0.252585         3.0725         2.5667         2.5860         2.8753         2.9938        20.5572        49.7480       350.5142
    1508.76000         8.5000         9.2922         2.4131      0.0298802        92.2649       112.2425       116.8376       0.278152       0.258716         3.0468         2.5621         2.5811         2.8708         2.9889        20.4565        49.7670       352.0246
    1508.91240         8.5000         9.2864         2.4152      0.0301335        91.4919       112.4086       116.9777       0.284603       0.264848         3.0210         2.5575         2.5762         2.8664         2.9840        20.3558        49.7861       353.5350
    1509.06480         8.5000         9.2889         2.4161      0.0298764        91.3982       112.0154       116.5814       0.291269       0.271022         3.0153         2.5490         2.5676         2.8570         2.9745        20.5357        49.7934       354.2050
    1509.21720         8.5000         9.3025         2.4153      0.0289295        92.2230       110.8658       115.4602       0.298227       0.277254         3.0368         2.5351         2.5538         2.8411         2.9588        21.0951        49.7848       353.7387
    1509.36960         8.5000         9.3161         2.4146      0.0279827        93.0478       109.7161       114.3391       0.305184       0.283486         3.0582         2.5212         2.5399         2.8251         2.9432        21.6545        49.7763       353.2724
    1509.52200         8.5000         9.3218         2.4138      0.0265668        93.7217       108.8019       113.4189       0.309464       0.287364         3.0795         2.5101         2.5287         2.8126         2.9307        22.1093        49.7686       352.8192
    1509.67440         8.5000         9.2808         2.4131      0.0223711        93.5015       109.2831       113.6903       0.297876       0.277287         3.0996         2.5153         2.5326         2.8205         2.9363        21.9442        49.7658       352.4437
    1509.82680         8.5000         9.2398         2.4124      0.0181753        93.2813       109.7642       113.9618       0.286288       0.267211         3.1198         2.5204         2.5365         2.8285         2.9420        21.7791        49.7631       352.0681
    1509.97920         8.5000         9.1987         2.4116      0.0139796        93.0611       110.2454       114.2332       0.274699       0.257135         3.1400         2.5256         2.5405         2.8365         2.9477        21.6140        49.7604       351.6926
    1510.13160         8.5000         9.1922         2.4090      0.0142474        92.7632       113.1713       117.2301       0.277747       0.260123         3.1291         2.5604         2.5760         2.8704         2.9821        21.6814        49.7716       351.5368
    1510.28400         8.5000         9.1912         2.4061      0.0152208        92.4529       116.4837       120.6577       0.283109       0.265177         3.1134         2.5999         2.6164         2.9084         3.0210        21.7855        49.7851       351.4158
