~Version Information Block
VERS .                 2.00:  CWLS LOG ASCII STANDARD - VERSION 2.00
WRAP .                   NO:  One line per depth step
~Well Information Block
#MNEM.UNIT        Data Type   Information
#---------- ----------------  -----------
STRT .M             9.14400:  START DEPTH
STOP .M          1999.48800:  STOP DEPTH
STEP .M             0.15240:  STEP
NULL .              -999.25:  NULL VALUE
COMP .                     :  COMPANY
WELL .            Ngatoro-2:  WELL
FLD  .                     :  FIELD
LOC  .                     :  LOCATION
CTRY .                     :  COUNTRY
STAT .                     :  STATE
CNTY .                     :  COUNTY
SRVC .     New Zealand Petroleum Co Ltd:  SERVICE COMPANY
DATE .                     :  DATE
API  .                     :  API NUMBER
UWI  .         100000127958:  UNIQUE WELL ID
LATI .          -39.1949429:  LATITUDE
LONG .          174.1849215:  LONGITUDE
~Curve Information Block
#MNEM.UNIT         API CODE   Curve Description
#---------- ----------------  -----------------
DEPTH.M                    :  
BS   .IN                   :  Bit Size (Created in Geolog)
CALI .IN                   :  Caliper Log (CALI)
DENS .G/C3                 :  Compensated Formation Density Log (RHOB)
DRHO .G/C3                 :  Density Log Correction (DRHO)
DTC  .US/F                 :  Delta T (DT)
DTS  .US/F                 :  Delta T Shear Lower Dipole (DT1)
GR   .GAPI                 :  Gamma-Ray Raw (Reeves PSD) (GRCF)
GR_CORR.GAPI                 :  Gamma ray corrected
NEUT .V/V                  :  Neutron Log Porosity (NPHI)
NEUT_CORR.V/V                  :  Corrected NPHI (limestone units)
PEF  .B/E                  :  Photoelectric Factor (PEDF)
RESD .OHMM                 :  Laterolog Deep Resistivity (LLD)
RESD_CORR.OHMM                 :  Borehole corrected LLD
RESS .OHMM                 :  Shallow Laterolog (LLS)
RESS_CORR.OHMM                 :  Borehole corrected LLS
SP   .MV                   :  Spontaneous Potential Log (SP)
TEMP .DEGC                 :  Temperature (TEMP)
TENS .KGF                  :  Cable tension at surface (TENS)
~Parameter Information Block
#MNEM.UNIT            Value   Description
#---------- ----------------  -----------
CUR_INT_BOT.M                2000:  Current interpolated bottom
PROJECT.     New Zealand Log QC Project:  
SET  .     A0_FINAL_INTER_REF_D:  
ELEVATION_AMSL.M              294.94:  Elevation above mean sea level
ELEVATION_REF.                   KB:  Measurement reference
FORMATION_AT_TD.             Manganui:  Formation at TD
GL_ELEVATION_AMSL.M            286.3000:  Ground level elevation above mean sea level
LICENCE_NUMBER.             PPL38706:  Licence number
ONSHORE_OR_OFFSHORE.              Onshore:  Onshore/offshore
PR_NUMBER.               PR1920:  Petroleum report number
SPUD_DATE.           12/10/1991:  Spud date
STATUS_AT_COMPLETION.     Completed as an oil producer:  Status at completion
TD_DATE.           26/10/1991:  Total depth date
TOTAL_DEPTH_DRILLED.M                2000:  Total depth drilled
~Other Information Block
# 
~A       DEPTH             BS           CALI           DENS           DRHO            DTC            DTS             GR        GR_CORR           NEUT      NEUT_CORR            PEF           RESD      RESD_CORR           RESS      RESS_CORR             SP           TEMP           TENS 
# ...
     937.26000         8.5000         8.5901      -999.2500   -999.2500000       103.3947      -999.2500       113.7994       113.7416    -999.250000    -999.250000      -999.2500         3.0425         3.0528         3.1100         3.1661       124.3704        41.6886       523.8620
     937.41240         8.5000         8.5968      -999.2500   -999.2500000       103.1118      -999.2500       110.4231       110.4063    -999.250000    -999.250000      -999.2500         3.0605         3.0712         3.1301         3.1868       124.4985        41.6648       525.4956
     937.56480         8.5000         8.5997      -999.2500   -999.2500000       102.9838      -999.2500       110.8534       110.8547    -999.250000    -999.250000      -999.2500         3.0674         3.0786         3.1342         3.1912       124.3903        41.6510       525.3748
     937.71720         8.5000         8.5976      -999.2500   -999.2500000       103.0653      -999.2500       116.4299       116.4179    -999.250000    -999.250000      -999.2500         3.0594         3.0711         3.1166         3.1733       123.9627        41.6510       522.8824
     937.86960         8.5000         8.5956      -999.2500   -999.2500000       103.1468      -999.2500       122.0064       121.9812    -999.250000    -999.250000      -999.2500         3.0514         3.0636         3.0991         3.1555       123.5351        41.6511       520.3900
     938.02200         8.5000         8.5925      -999.2500   -999.2500000       103.1268      -999.2500       125.9243       125.8803    -999.250000    -999.250000      -999.2500         3.0553         3.0679         3.0976         3.1538       123.1820        41.6470       518.4839
     938.17440         8.5000         8.5830      -999.2500   -999.2500000       102.5057      -999.2500       120.0109       119.9153    -999.250000    -999.250000      -999.2500         3.1299         3.1418         3.1919         3.2472       123.2710        41.6189       520.0532
     938.32680         8.5000         8.5734      -999.2500   -999.2500000       101.8846      -999.2500       114.0975       113.9502    -999.250000    -999.250000      -999.2500         3.2046         3.2158         3.2861         3.3407       123.3599        41.5908       521.6224
     938.47920         8.5000         8.5639      -999.2500   -999.2500000       101.2635      -999.2500       108.1841       107.9852    -999.250000    -999.250000      -999.2500         3.2792         3.2898         3.3803         3.4341       123.4489        41.5627       523.1915
     938.63160         8.5000         8.5651      -999.2500   -999.2500000       101.4691      -999.2500       110.8022       110.6052    -999.250000    -999.250000      -999.2500         3.2409         3.2518         3.3375         3.3914       123.4825        41.6032       524.2562
     938.78400         8.5000         8.5679      -999.2500   -999.2500000       101.8053      -999.2500       114.7686       114.5822    -999.250000    -999.250000      -999.2500         3.1848         3.1961         3.2730         3.3271       123.5073        41.6545       525.2410
     938.93640         8.5000         8.5707      -999.2500   -999.2500000       102.1416      -999.2500       118.7351       118.5591    -999.250000    -999.250000      -999.2500         3.1287         3.1405         3.2084         3.2629       123.5321        41.7058       526.2260
     939.08880         8.5000         8.5721      -999.2500   -999.2500000       102.4194      -999.2500       118.3015       118.1340    -999.250000    -999.250000      -999.2500         3.0870         3.0991         3.1637         3.2182       123.7743        41.7232       525.6412
     939.24120         8.5000         8.5725      -999.2500   -999.2500000       102.6554      -999.2500       114.7164       114.5559    -999.250000    -999.250000      -999.2500         3.0556         3.0679         3.1330         3.1876       124.1722        41.7162       523.9322
     939.39360         8.5000         8.5729      -999.2500   -999.2500000       102.8914      -999.2500       111.1314       110.9779    -999.250000    -999.250000      -999.2500         3.0243         3.0367         3.1024         3.1569       124.5700        41.7093       522.2232
     939.54600         8.5000         8.5756      -999.2500   -999.2500000       102.7274      -999.2500       109.6927       109.5579    -999.250000    -999.250000      -999.2500         3.0180         3.0301         3.1048         3.1596       124.8157        41.7019       521.8250
     939.69840         8.5000         8.5837      -999.2500   -999.2500000       101.6385      -999.2500       113.2185       113.1294    -999.250000    -999.250000      -999.2500         3.0697         3.0803         3.1836         3.2392       124.7092        41.6932       524.4588
     939.85080         8.5000         8.5917      -999.2500   -999.2500000       100.5496      -999.2500       116.7442       116.7010    -999.250000    -999.250000      -999.2500         3.1214         3.1304         3.2625         3.3188       124.6028        41.6845       527.0925
     940.00320         8.5000         8.5996      -999.2500   -999.2500000        99.5070      -999.2500       120.1763       120.1778    -999.250000    -999.250000      -999.2500         3.1707         3.1781         3.3379         3.3949       124.4954        41.6761       529.6347
     940.15560         8.5000         8.5988      -999.2500   -999.2500000       100.6303      -999.2500       119.2410       119.2380    -999.250000    -999.250000      -999.2500         3.1032         3.1125         3.2488         3.3057       124.3474        41.6765       527.9040
     940.30800         8.5000         8.5981      -999.2500   -999.2500000       101.7536      -999.2500       118.3057       118.2981    -999.250000    -999.250000      -999.2500         3.0357         3.0468         3.1598         3.2165       124.1994        41.6770       526.1733
     940.46040         8.5000         8.5973      -999.2500   -999.2500000       102.8769      -999.2500       117.3704       117.3583    -999.250000    -999.250000      -999.2500         2.9682         2.9812         3.0708         3.1274       124.0514        41.6775       524.4426
     940.61280         8.5000         8.5933      -999.2500   -999.2500000       103.1745      -999.2500       117.3184       117.2817    -999.250000    -999.250000      -999.2500         2.9438         2.9570         3.0263         3.0825       123.9822        41.6816       524.0417
     940.76520         8.5000         8.5881      -999.2500   -999.2500000       103.1823      -999.2500       117.5764       117.5081    -999.250000    -999.250000      -999.2500         2.9346         2.9474         2.9974         3.0532       123.9407        41.6869       524.1076
     940.91760         8.5000         8.5830      -999.2500   -999.2500000       103.1900      -999.2500       117.8345       117.7345    -999.250000    -999.250000      -999.2500         2.9254         2.9378         2.9685         3.0239       123.8992        41.6923       524.1735
     941.07000         8.5000         8.5821      -999.2500   -999.2500000       102.1847      -999.2500       117.7344       117.6293    -999.250000    -999.250000      -999.2500         3.0065         3.0187         3.0723         3.1277       123.6203        41.6951       524.8890
     941.22240         8.5000         8.5864      -999.2500   -999.2500000        99.9870      -999.2500       117.2126       117.1337    -999.250000    -999.250000      -999.2500         3.1937         3.2060         3.3323         3.3881       123.0618        41.6948       526.3692
     941.37480         8.5000         8.5907      -999.2500   -999.2500000        97.7894      -999.2500       116.6908       116.6381    -999.250000    -999.250000      -999.2500         3.3809         3.3934         3.5922         3.6486       122.5034        41.6945       527.8493
     941.52720         8.5000         8.5930      -999.2500   -999.2500000        96.0883      -999.2500       115.3840       115.3467    -999.250000    -999.250000      -999.2500         3.5130         3.5257         3.7739         3.8306       122.0937        41.6949       528.6782
