~Version Information Block
VERS .                 2.00:  CWLS LOG ASCII STANDARD - VERSION 2.00
WRAP .                   NO:  One line per depth step
~Well Information Block
#MNEM.UNIT        Data Type   Information
#---------- ----------------  -----------
STRT .M             9.14400:  START DEPTH
STOP .M          1999.48800:  STOP DEPTH
STEP .M             0.15240:  STEP
NULL .              -999.25:  NULL VALUE
COMP .                     :  COMPANY
WELL .            Ngatoro-2:  WELL
FLD  .                     :  FIELD
LOC  .                     :  LOCATION
CTRY .                     :  COUNTRY
STAT .                     :  STATE
CNTY .                     :  COUNTY
SRVC .     New Zealand Petroleum Co Ltd:  SERVICE COMPANY
DATE .                     :  DATE
API  .                     :  API NUMBER
UWI  .         100000127958:  UNIQUE WELL ID
LATI .          -39.1949429:  LATITUDE
LONG .          174.1849215:  LONGITUDE
~Curve Information Block
#MNEM.UNIT         API CODE   Curve Description
#---------- ----------------  -----------------
DEPTH.M                    :  
BS   .IN                   :  Bit Size (Created in Geolog)
CALI .IN                   :  Caliper Log (CALI)
DENS .G/C3                 :  Compensated Formation Density Log (RHOB)
DRHO .G/C3                 :  Density Log Correction (DRHO)
DTC  .US/F                 :  Delta T (DT)
DTS  .US/F                 :  Delta T Shear Lower Dipole (DT1)
GR   .GAPI                 :  Gamma-Ray Raw (Reeves PSD) (GRCF)
GR_CORR.GAPI                 :  Gamma ray corrected
NEUT .V/V                  :  Neutron Log Porosity (NPHI)
NEUT_CORR.V/V                  :  Corrected NPHI (limestone units)
PEF  .B/E                  :  Photoelectric Factor (PEDF)
RESD .OHMM                 :  Laterolog Deep Resistivity (LLD)
RESD_CORR.OHMM                 :  Borehole corrected LLD
RESS .OHMM                 :  Shallow Laterolog (LLS)
RESS_CORR.OHMM                 :  Borehole corrected LLS
SP   .MV                   :  Spontaneous Potential Log (SP)
TEMP .DEGC                 :  Temperature (TEMP)
TENS .KGF                  :  Cable tension at surface (TENS)
~Parameter Information Block
#MNEM.UNIT            Value   Description
#---------- ----------------  -----------
CUR_INT_BOT.M                2000:  Current interpolated bottom
PROJECT.     New Zealand Log QC Project:  
SET  .     A0_FINAL_INTER_REF_D:  
ELEVATION_AMSL.M              294.94:  Elevation above mean sea level
ELEVATION_REF.                   KB:  Measurement reference
FORMATION_AT_TD.             Manganui:  Formation at TD
GL_ELEVATION_AMSL.M            286.3000:  Ground level elevation above mean sea level
LICENCE_NUMBER.             PPL38706:  Licence number
ONSHORE_OR_OFFSHORE.              Onshore:  Onshore/offshore
PR_NUMBER.               PR1920:  Petroleum report number
SPUD_DATE.           12/10/1991:  Spud date
STATUS_AT_COMPLETION.     Completed as an oil producer:  Status at completion
TD_DATE.           26/10/1991:  Total depth date
TOTAL_DEPTH_DRILLED.M                2000:  Total depth drilled
~Other Information Block
# 
~A       DEPTH             BS           CALI           DENS           DRHO            DTC            DTS             GR        GR_CORR           NEUT      NEUT_CORR            PEF           RESD      RESD_CORR           RESS      RESS_CORR             SP           TEMP           TENS 
# ...
     517.39800         8.5000         8.6403      -999.2500   -999.2500000       142.1895        56.9341        92.8481        93.0515    -999.250000    -999.250000      -999.2500        17.2990        17.3019        12.2299        12.2903       135.4256        34.9934       341.8841
     517.55040         8.5000         8.6355      -999.2500   -999.2500000       143.8806        56.9897        90.1269        90.2969    -999.250000    -999.250000      -999.2500        18.1470        18.1244        12.8335        12.8891       136.4181        34.9974       341.8475
     517.70280         8.5000         8.6415      -999.2500   -999.2500000       144.6957        57.1111        91.5388        91.7407    -999.250000    -999.250000      -999.2500        19.3708        19.2987        13.7745        13.8291       137.7878        35.0010       343.1594
     517.85520         8.5000         8.6475      -999.2500   -999.2500000       145.5108        57.2324        92.9507        93.1845    -999.250000    -999.250000      -999.2500        20.5945        20.4731        14.7155        14.7691       139.1575        35.0046       344.4713
     518.00760         8.5000         8.6566      -999.2500   -999.2500000       146.3513        57.3425        94.6441        94.9302    -999.250000    -999.250000      -999.2500        21.7169        21.5518        15.5700        15.6246       140.5119        35.0081       345.7003
     518.16000         8.5000         8.7261      -999.2500   -999.2500000       147.6745        57.2378       101.7013       102.4279    -999.250000    -999.250000      -999.2500        20.9079        20.8093        14.7778        14.8706       141.5764        35.0089       345.3519
     518.31240         8.5000         8.7955      -999.2500   -999.2500000       148.9978        57.1330       108.7585       109.9257    -999.250000    -999.250000      -999.2500        20.0989        20.0667        13.9855        14.1166       142.6410        35.0098       345.0035
     518.46480         8.5000         8.8650      -999.2500   -999.2500000       150.3210        57.0283       115.8157       117.4235    -999.250000    -999.250000      -999.2500        19.2899        19.3241        13.1933        13.3627       143.7056        35.0106       344.6551
     518.61720         8.5000         8.8432      -999.2500   -999.2500000       150.0563        56.9669       117.3473       118.8278    -999.250000    -999.250000      -999.2500        19.5941        19.6224        13.3646        13.5233       144.8304        35.0122       344.4010
     518.76960         8.5000         8.7940      -999.2500   -999.2500000       149.3146        56.9185       117.2194       118.4020    -999.250000    -999.250000      -999.2500        20.2326        20.2333        13.8253        13.9587       145.9733        35.0141       344.1752
     518.92200         8.5000         8.7449      -999.2500   -999.2500000       148.5729        56.8702       117.0915       117.9763    -999.250000    -999.250000      -999.2500        20.8711        20.8442        14.2860        14.3940       147.1163        35.0159       343.9495
     519.07440         8.5000         8.7019      -999.2500   -999.2500000       146.5163        56.8332       117.1979       117.8220    -999.250000    -999.250000      -999.2500        21.5512        21.4788        14.8710        14.9528       148.4942        35.0196       343.9146
     519.22680         8.5000         8.6655      -999.2500   -999.2500000       143.0813        56.8081       117.5498       117.9524    -999.250000    -999.250000      -999.2500        22.2750        22.1382        15.5862        15.6409       150.1184        35.0252       344.0797
     519.37920         8.5000         8.6290      -999.2500   -999.2500000       139.6462        56.7831       117.9017       118.0827    -999.250000    -999.250000      -999.2500        22.9988        22.7976        16.3014        16.3291       151.7426        35.0308       344.2449
     519.53160         8.5000         8.6014      -999.2500   -999.2500000       137.8277        56.7703       117.1380       117.1499    -999.250000    -999.250000      -999.2500        23.4046        23.1640        16.7902        16.7979       153.0957        35.0355       344.3534
     519.68400         8.5000         8.6074      -999.2500   -999.2500000       142.1888        56.8044       112.1093       112.1526    -999.250000    -999.250000      -999.2500        22.5951        22.4103        16.4140        16.4286       153.4125        35.0369       344.2452
     519.83640         8.5000         8.6133      -999.2500   -999.2500000       146.5500        56.8384       107.0806       107.1553    -999.250000    -999.250000      -999.2500        21.7855        21.6566        16.0378        16.0592       153.7292        35.0383       344.1370
     519.98880         8.5000         8.6193      -999.2500   -999.2500000       150.9111        56.8725       102.0520       102.1580    -999.250000    -999.250000      -999.2500        20.9759        20.9029        15.6616        15.6899       154.0459        35.0397       344.0287
     520.14120         8.5000         8.6408      -999.2500   -999.2500000       147.3225        56.8965        97.1180        97.3144    -999.250000    -999.250000      -999.2500        20.4001        20.3453        15.3491        15.3922       153.6833        35.0401       345.1116
     520.29360         8.5000         8.6636      -999.2500   -999.2500000       143.1034        56.9197        92.1915        92.4830    -999.250000    -999.250000      -999.2500        19.8428        19.8033        15.0417        15.1003       153.2669        35.0404       346.2890
     520.44600         8.5000         8.6863      -999.2500   -999.2500000       138.8843        56.9429        87.2651        87.6516    -999.250000    -999.250000      -999.2500        19.2856        19.2613        14.7342        14.8083       152.8505        35.0406       347.4663
     520.59840         8.5000         8.7072      -999.2500   -999.2500000       131.6714        56.9598        83.9611        84.4253    -999.250000    -999.250000      -999.2500        20.3727        20.3443        15.5018        15.5871       152.3649        35.0446       347.3485
     520.75080         8.5000         8.7271      -999.2500   -999.2500000       122.8156        56.9733        81.5476        82.0797    -999.250000    -999.250000      -999.2500        22.3623        22.3191        16.8592        16.9536       151.8414        35.0506       346.5200
     520.90320         8.5000         8.7470      -999.2500   -999.2500000       113.9599        56.9868        79.1340        79.7342    -999.250000    -999.250000      -999.2500        24.3518        24.2939        18.2166        18.3200       151.3179        35.0567       345.6914
     521.05560         8.5000         8.7582      -999.2500   -999.2500000       107.5157        56.9949        81.5840        82.2522    -999.250000    -999.250000      -999.2500        26.0132        25.9032        19.3970        19.5042       150.7497        35.0614       345.7021
     521.20800         8.5000         8.7543      -999.2500   -999.2500000       105.2700        56.9934        92.5012        93.2377    -999.250000    -999.250000      -999.2500        27.1031        26.8762        20.2691        20.3712       150.1038        35.0640       347.1737
     521.36040         8.5000         8.7504      -999.2500   -999.2500000       103.0244        56.9920       103.4185       104.2231    -999.250000    -999.250000      -999.2500        28.1930        27.8493        21.1411        21.2381       149.4579        35.0665       348.6454
     521.51280         8.5000         8.7458      -999.2500   -999.2500000       101.8836        56.9860       113.5334       114.3955    -999.250000    -999.250000      -999.2500        28.9559        28.5178        21.7654        21.8575       148.7990        35.0624       349.7891
     521.66520         8.5000         8.7340      -999.2500   -999.2500000       112.7931        56.9300       114.8983       115.7000    -999.250000    -999.250000      -999.2500        26.1522        25.8657        19.6865        19.7767       147.9995        34.9858       347.3564
