~Version Information Block
VERS .                 2.00:  CWLS LOG ASCII STANDARD - VERSION 2.00
WRAP .                   NO:  One line per depth step
~Well Information Block
#MNEM.UNIT        Data Type   Information
#---------- ----------------  -----------
STRT .M           387.55320:  START DEPTH
STOP .M          1999.48800:  STOP DEPTH
STEP .M             0.15240:  STEP
NULL .              -999.25:  NULL VALUE
COMP .                     :  COMPANY
WELL .           Ngatoro-13:  WELL
FLD  .                     :  FIELD
LOC  .                     :  LOCATION
CTRY .                     :  COUNTRY
STAT .                     :  STATE
CNTY .                     :  COUNTY
SRVC .     Greymouth Petroleum Ltd:  SERVICE COMPANY
DATE .                     :  DATE
API  .                     :  API NUMBER
UWI  .         100000787699:  UNIQUE WELL ID
LATI .            -39.21139:  LATITUDE
LONG .            174.18349:  LONGITUDE
~Curve Information Block
#MNEM.UNIT         API CODE   Curve Description
#---------- ----------------  -----------------
DEPTH.M                    :  
BS   .IN                   :  Bit Size (Created in Geolog)
CALI .IN                   :  HRCC Cal. Caliper (HCAL)
DENS .G/C3                 :  HRDD Standard Resolution Formation Density (RHOZ) and (RHO8)
DRHO .G/C3                 :  HRDD Density Correction (HDRA)
DTC  .US/F                 :  Delta-T Compressional (DTCO)
DTS  .US/F                 :  Delta-T Shear (DTSM)
GR   .GAPI                 :  Gamma-Ray (GR) and HiRes Gamma-Ray (EHGR)
NEUT .V/V                  :  Enhanced Thermal Neutron Porosity(NPOR) and (HNPO)
PEF  .B/E                  :  HRDD Std Resolution Formation Photoelectric Factor (PEFZ) and (PEF8)
RESD .OHMM                 :  HALS Laterolog Deep R (HLLD) and HALS HiRes Deep Res (HRLD)
RESS .OHMM                 :  HALS Shallow Res. (HLLS) and HR HALS Shallow Res. (HRLS)
SP   .MV                   :  SP Shifted (SP)
TENS .KGF                  :  Cable Tension (TENS)
~Parameter Information Block
#MNEM.UNIT            Value   Description
#---------- ----------------  -----------
CUR_INT_BOT.M                2032:  Current interpolated bottom
PROJECT.     New Zealand Log QC Project:  
SET  .     A0_FINAL_INTER_REF_D:  
ELEVATION_AMSL.M              323.75:  Elevation above mean sea level
ELEVATION_REF.                   DF:  Measurement reference
FORMATION_AT_TD.                 Moki:  Formation at TD
GL_ELEVATION_AMSL.M            323.3000:  Ground level elevation above mean sea level
LICENCE_NUMBER.             PMP38148:  Licence number
ONSHORE_OR_OFFSHORE.              Onshore:  Onshore/offshore
PR_NUMBER.               PR3545:  Petroleum report number
SPUD_DATE.           28/10/2006:  Spud date
STATUS_AT_COMPLETION.     Completed ready for perforating:  Status at completion
TD_DATE.           10/11/2006:  Total depth date
TOTAL_DEPTH_DRILLED.M                2032:  Total depth drilled
~Other Information Block
# 
~A       DEPTH             BS           CALI           DENS           DRHO            DTC            DTS             GR           NEUT            PEF           RESD           RESS             SP           TENS 
# ...
     732.28200         8.5000         8.7661         2.2810         0.0015       115.5114       240.4214       103.3412       0.363935         2.9305        11.7129         8.9367       223.7037       958.5375
     732.43440         8.5000         8.7385         2.2878         0.0036       114.5807       239.2673       101.9958       0.369318         2.9347        11.6465         8.8636       223.2405       957.0956
     732.58680         8.5000         8.7960         2.2927         0.0074       113.8369       238.3929       101.0321       0.367149         2.9483        12.0300         9.1071       222.9210       959.4664
     732.73920         8.5000         8.9179         2.2964         0.0125       113.2341       237.7299       100.3568       0.359273         2.9689        12.7533         9.5901       222.7101       964.7189
     732.89160         8.5000         9.0398         2.3000         0.0176       112.6314       237.0668        99.6815       0.351397         2.9896        13.4766        10.0730       222.4993       969.9713
     733.04400         8.5000         9.1156         2.3020         0.0197       112.3064       236.8336        98.2963       0.346143         2.9985        14.1132        10.4814       222.4018       971.6922
     733.19640         8.5000         9.0780         2.2999         0.0145       112.6653       237.6592        95.1623       0.347350         2.9785        14.5358        10.7060       222.5838       964.7128
     733.34880         8.5000         9.0404         2.2978         0.0093       113.0243       238.4848        92.0283       0.348556         2.9586        14.9584        10.9306       222.7658       957.7333
     733.50120         8.5000         9.0029         2.2957         0.0041       113.3809       239.3165        88.9152       0.349809         2.9387        15.3733        11.1507       222.9493       950.8433
     733.65360         8.5000         8.9833         2.2923         0.0035       113.4283       240.9244        88.4266       0.356985         2.9320        14.8100        10.7992       223.3320       955.2311
     733.80600         8.5000         8.9637         2.2888         0.0029       113.4757       242.5324        87.9380       0.364160         2.9252        14.2468        10.4477       223.7147       959.6190
     733.95840         8.5000         8.9441         2.2854         0.0022       113.5232       244.1404        87.4495       0.371336         2.9185        13.6835        10.0962       224.0974       964.0068
     734.11080         8.5000         8.9713         2.2782         0.0014       113.9305       244.1918        89.1313       0.372002         2.9241        13.3775         9.8993       224.5613       964.6779
     734.26320         8.5000         9.0160         2.2695         0.0006       114.4729       243.6587        91.6281       0.370225         2.9344        13.1680         9.7603       225.0556       963.9536
     734.41560         8.5000         9.0607         2.2609        -0.0003       115.0154       243.1257        94.1249       0.368448         2.9446        12.9586         9.6214       225.5500       963.2293
     734.56800         8.5000         9.0554         2.2576         0.0028       115.0899       242.3821        96.1325       0.369408         2.9586        12.7756         9.4960       225.7351       964.2598
     734.72040         8.5000         8.9879         2.2608         0.0108       114.5837       241.3770        97.5329       0.373765         2.9771        12.6254         9.3873       225.5361       967.4681
     734.87280         8.5000         8.9205         2.2640         0.0188       114.0775       240.3719        98.9333       0.378121         2.9956        12.4753         9.2787       225.3372       970.6765
     735.02520         8.5000         8.8688         2.2676         0.0249       113.6565       239.7076        99.5101       0.378911         3.0088        12.4837         9.2863       225.1658       973.0331
     735.17760         8.5000         8.8963         2.2730         0.0213       113.6654       240.7631        95.9290       0.361695         2.9954        13.2922         9.8810       225.1336       971.0905
     735.33000         8.5000         8.9238         2.2783         0.0176       113.6744       241.8186        92.3479       0.344479         2.9820        14.1008        10.4757       225.1013       969.1478
     735.48240         8.5000         8.9513         2.2837         0.0140       113.6833       242.8741        88.7668       0.327263         2.9686        14.9093        11.0704       225.0691       967.2051
     735.63480         8.5000         8.9680         2.2759         0.0143       113.9907       242.5218        91.0583       0.342779         2.9690        14.4791        10.7155       225.5333       960.0615
     735.78720         8.5000         8.9834         2.2663         0.0151       114.3371       241.9856        94.1166       0.362568         2.9713        13.8872        10.2366       226.0624       952.2388
     735.93960         8.5000         8.9987         2.2568         0.0160       114.6835       241.4495        97.1748       0.382357         2.9735        13.2953         9.7577       226.5915       944.4161
     736.09200         8.5000         8.9820         2.2556         0.0235       114.4232       240.8123        97.5554       0.387628         2.9939        12.8237         9.3909       226.8812       940.5351
     736.24440         8.5000         8.9441         2.2600         0.0353       113.7646       240.1087        96.1779       0.383370         3.0262        12.4310         9.0977       227.0138       939.2418
     736.39680         8.5000         8.9063         2.2644         0.0471       113.1059       239.4052        94.8005       0.379111         3.0585        12.0384         8.8045       227.1463       937.9485
     736.54920         8.5000         8.8649         2.2717         0.0526       112.6717       239.0599        94.8506       0.374035         3.0679        12.0226         8.7927       227.1830       939.0463
     736.70160         8.5000         8.8158         2.2853         0.0449       112.7082       239.4661        97.8950       0.367248         3.0291        12.7974         9.3710       227.0186       945.1595
     736.85400         8.5000         8.7666         2.2989         0.0371       112.7447       239.8724       100.9394       0.360461         2.9904        13.5723         9.9494       226.8542       951.2726
     737.00640         8.5000         8.7190         2.3116         0.0293       112.8100       240.2853       103.7613       0.354184         2.9527        14.3192        10.5051       226.7043       957.1866
     737.15880         8.5000         8.7053         2.3033         0.0198       113.5348       240.8502       101.5091       0.359551         2.9389        14.4281        10.5455       226.8845       958.5549
     737.31120         8.5000         8.6915         2.2950         0.0104       114.2595       241.4152        99.2568       0.364919         2.9252        14.5370        10.5859       227.0647       959.9233
     737.46360         8.5000         8.6777         2.2867         0.0009       114.9842       241.9801        97.0045       0.370286         2.9114        14.6459        10.6263       227.2449       961.2917
     737.61600         8.5000         8.6900         2.2774        -0.0021       115.2347       245.6343        96.7191       0.362709         2.8985        14.3664        10.4349       228.3138       963.7919
     737.76840         8.5000         8.7105         2.2678        -0.0030       115.3363       250.2579        97.0508       0.351070         2.8859        13.9650        10.1709       229.6614       966.6474
     737.92080         8.5000         8.7309         2.2582        -0.0039       115.4380       254.8814        97.3826       0.339431         2.8733        13.5637         9.9068       231.0091       969.5028
     738.07320         8.5000         8.7362         2.2460        -0.0028       115.9421       258.2715        95.9798       0.332865         2.8620        13.3236         9.7716       232.2711       969.7624
