~Version Information Block
VERS .                 2.00:  CWLS LOG ASCII STANDARD - VERSION 2.00
WRAP .                   NO:  One line per depth step
~Well Information Block
#MNEM.UNIT        Data Type   Information
#---------- ----------------  -----------
STRT .M           422.60520:  START DEPTH
STOP .M          2060.90520:  STOP DEPTH
STEP .M             0.15240:  STEP
NULL .              -999.25:  NULL VALUE
COMP .                     :  COMPANY
WELL .           Ngatoro-11:  WELL
FLD  .                     :  FIELD
LOC  .                     :  LOCATION
CTRY .                     :  COUNTRY
STAT .                     :  STATE
CNTY .                     :  COUNTY
SRVC .     New Zealand Petroleum Co Ltd:  SERVICE COMPANY
DATE .                     :  DATE
API  .                     :  API NUMBER
UWI  .         100000290650:  UNIQUE WELL ID
LATI .          -39.1949222:  LATITUDE
LONG .          174.1848583:  LONGITUDE
~Curve Information Block
#MNEM.UNIT         API CODE   Curve Description
#---------- ----------------  -----------------
DEPTH.M                    :  
BS   .IN                   :  Bit Size (Created in Geolog)
CALI .IN                   :  Caliper Log (CALI)
DENS .G/C3                 :  Compensated Formation Density Log (RHOB)
DRHO .G/C3                 :  Density Log Correction (DRHO)
DTC  .US/F                 :  8-10 Ft Compensated Sonic (BPB) (DTC3)
GR   .GAPI                 :  Gamma-Ray Log (GR)
GR_CORR.GAPI                 :  Gamma ray corrected
NEUT .V/V                  :  Neutron Log Porosity (NPHI)
NEUT_CORR.V/V                  :  Corrected NPHI (limestone units)
PEF  .B/E                  :  Photoelectric Factor (PEDF)
RESD .OHMM                 :  Laterolog Deep Resistivity (LLD)
RESD_CORR.OHMM                 :  Borehole corrected LLD
RESS .OHMM                 :  Shallow Laterolog (LLS)
RESS_CORR.OHMM                 :  Borehole corrected LLS
SP   .MV                   :  Spontaneous Potential Log (SP)
TENS .KGF                  :  Cable tension at surface (TENS)
~Parameter Information Block
#MNEM.UNIT            Value   Description
#---------- ----------------  -----------
CUR_INT_BOT.M                2063:  Current interpolated bottom
PROJECT.     New Zealand Log QC Project:  
SET  .     A0_FINAL_INTER_REF_D:  
ELEVATION_AMSL.M              291.65:  Elevation above mean sea level
ELEVATION_REF.                   KB:  Measurement reference
FORMATION_AT_TD.      Mount Messenger:  Formation at TD
GL_ELEVATION_AMSL.M            286.3000:  Ground level elevation above mean sea level
LICENCE_NUMBER.             PMP38148:  Licence number
ONSHORE_OR_OFFSHORE.              Onshore:  Onshore/offshore
PR_NUMBER.               PR2438:  Petroleum report number
SPUD_DATE.           28/06/1998:  Spud date
STATUS_AT_COMPLETION.     Cased and suspended as a future oil producer:  Status at completion
TD_DATE.           15/07/1998:  Total depth date
TOTAL_DEPTH_DRILLED.M                2063:  Total depth drilled
~Other Information Block
# 
~A       DEPTH             BS           CALI           DENS           DRHO            DTC             GR        GR_CORR           NEUT      NEUT_CORR            PEF           RESD      RESD_CORR           RESS      RESS_CORR             SP           TENS 
# ...
    1383.33480         8.5000        10.2484         2.3691       0.020074        97.2560       115.0493       125.1442       0.304588       0.267509         3.0409         1.9839         2.0234         2.1785         2.3197       175.6120      1491.7902
    1383.48720         8.5000        10.2804         2.3680       0.019375        96.5902       113.0592       123.1573       0.305942       0.268208         3.0101         1.9809         2.0211         2.1745         2.3176       175.9643      1498.0833
    1383.63960         8.5000        10.2617         2.3684       0.020166        96.4939       112.3187       122.2534       0.308528       0.270815         2.9780         1.9820         2.0218         2.1770         2.3189       176.6214      1494.7980
    1383.79200         8.5000        10.2384         2.3689       0.021094        96.4498       111.6928       121.4489       0.311226       0.273597         2.9457         1.9834         2.0228         2.1801         2.3206       177.3064      1490.6344
    1383.94440         8.5000        10.2151         2.3694       0.022022        96.4057       111.0668       120.6444       0.313925       0.276379         2.9134         1.9849         2.0238         2.1832         2.3223       177.9915      1486.4709
    1384.09680         8.5000        10.1960         2.3697       0.023045        96.7338       111.3657       120.8656       0.307187       0.270656         2.9268         1.9857         2.0242         2.1894         2.3275       177.8954      1492.0930
    1384.24920         8.5000        10.1793         2.3698       0.024121        97.2757       112.1958       121.6759       0.295027       0.260049         2.9664         1.9862         2.0244         2.1973         2.3347       177.3508      1503.3359
    1384.40160         8.5000        10.1626         2.3699       0.025197        97.8175       113.0258       122.4863       0.282868       0.249442         3.0059         1.9867         2.0245         2.2052         2.3419       176.8061      1514.5787
    1384.55400         8.5000        10.1479         2.3697       0.025072        98.1765       113.9008       123.3548       0.279124       0.246338         3.0342         1.9896         2.0271         2.2135         2.3497       176.4698      1517.7578
    1384.70640         8.5000        10.1367         2.3690       0.022759        98.2022       114.8576       124.3293       0.290717       0.256904         3.0417         1.9966         2.0342         2.2224         2.3584       176.5132      1506.2430
    1384.85880         8.5000        10.1255         2.3682       0.020445        98.2280       115.8144       125.3039       0.302309       0.267471         3.0492         2.0037         2.0413         2.2314         2.3672       176.5566      1494.7283
    1385.01120         8.5000        10.1141         2.3673       0.018237        98.2572       116.9042       126.4203       0.311936       0.276276         3.0519         2.0099         2.0475         2.2391         2.3746       176.5981      1487.3091
    1385.16360         8.5000        10.0998         2.3655       0.017357        98.3305       119.6715       129.3257       0.296772       0.262880         2.9947         2.0048         2.0419         2.2307         2.3646       176.6164      1531.5242
    1385.31600         8.5000        10.0855         2.3637       0.016477        98.4039       122.4388       132.2311       0.281609       0.249483         2.9374         1.9998         2.0364         2.2223         2.3546       176.6348      1575.7394
    1385.46840         8.5000        10.0711         2.3619       0.015597        98.4773       125.2060       135.1365       0.266446       0.236087         2.8801         1.9948         2.0308         2.2138         2.3446       176.6531      1619.9545
    1385.62080         8.5000        10.0393         2.3704       0.017444        96.0517       123.2384       132.8380       0.260001       0.230750         2.8527         2.0607         2.0984         2.2902         2.4232       176.6019      1600.4352
    1385.77320         8.5000        10.0029         2.3816       0.020004        92.9724       120.0322       129.1782       0.255836       0.227522         2.8331         2.1453         2.1851         2.3887         2.5249       176.5325      1564.2435
    1385.92560         8.5000         9.9665         2.3928       0.022564        89.8930       116.8259       125.5184       0.251671       0.224293         2.8135         2.2298         2.2718         2.4872         2.6267       176.4632      1528.0519
    1386.07800         8.5000         9.9532         2.3952       0.024456        88.2357       114.2173       122.6343       0.252584       0.225316         2.8087         2.2927         2.3367         2.5599         2.7027       176.1683      1516.0565
    1386.23040         8.5000         9.9619         2.3892       0.025711        87.9346       112.1788       120.4900       0.258339       0.230394         2.8181         2.3350         2.3807         2.6080         2.7542       175.6582      1527.1407
    1386.38280         8.5000         9.9706         2.3832       0.026966        87.6336       110.1404       118.3457       0.264095       0.235472         2.8274         2.3773         2.4247         2.6561         2.8056       175.1483      1538.2249
    1386.53520         8.5000         9.9865         2.3785       0.027560        87.8139       108.5985       116.7733       0.269812       0.240396         2.8434         2.3838         2.4319         2.6635         2.8146       174.8370      1552.4670
    1386.68760         8.5000        10.0269         2.3779       0.025953        89.5972       108.7103       117.1046       0.275404       0.244813         2.8818         2.2714         2.3164         2.5355         2.6820       175.1877      1577.2240
    1386.84000         8.5000        10.0672         2.3774       0.024346        91.3805       108.8221       117.4359       0.280996       0.249230         2.9201         2.1590         2.2009         2.4075         2.5494       175.5383      1601.9808
    1386.99240         8.5000        10.1075         2.3769       0.022739        93.1637       108.9338       117.7672       0.286588       0.253647         2.9585         2.0465         2.0854         2.2794         2.4168       175.8890      1626.7378
    1387.14480         8.5000        10.2262         2.3728       0.023292        94.4990       111.0001       120.6501       0.290623       0.255428         2.9872         2.0308         2.0717         2.2618         2.4066       176.2271      1607.5157
    1387.29720         8.5000        10.3490         2.3685       0.023959        95.8107       113.1690       123.6670       0.294577       0.257071         3.0153         2.0202         2.0634         2.2500         2.4029       176.5645      1585.9855
    1387.44960         8.5000        10.4718         2.3642       0.024625        97.1223       115.3379       126.6839       0.298531       0.258714         3.0435         2.0096         2.0551         2.2382         2.3992       176.9019      1564.4551
    1387.60200         8.5000        10.5642         2.3643       0.025137        97.9683       115.2604       127.0762       0.298532       0.257355         3.0417         1.9975         2.0444         2.2265         2.3932       176.8480      1549.9852
    1387.75440         8.5000        10.6416         2.3665       0.025572        98.5842       114.0728       126.1718       0.296582       0.254513         3.0251         1.9846         2.0326         2.2148         2.3861       176.6008      1539.0042
    1387.90680         8.5000        10.7189         2.3688       0.026007        99.2001       112.8853       125.2673       0.294631       0.251671         3.0086         1.9718         2.0207         2.2031         2.3790       176.3536      1528.0231
    1388.05920         8.5000        10.7596         2.3691       0.024710        99.4522       112.4715       125.0261       0.292285       0.249021         3.0122         1.9655         2.0150         2.1960         2.3743       176.1324      1519.2906
