~Version Information Block
VERS .                 2.00:  CWLS LOG ASCII STANDARD - VERSION 2.00
WRAP .                   NO:  One line per depth step
~Well Information Block
#MNEM.UNIT        Data Type   Information
#---------- ----------------  -----------
STRT .M             5.63880:  START DEPTH
STOP .M          2149.90680:  STOP DEPTH
STEP .M             0.15240:  STEP
NULL .              -999.25:  NULL VALUE
COMP .                     :  COMPANY
WELL .            Ngatoro-4:  WELL
FLD  .                     :  FIELD
LOC  .                     :  LOCATION
CTRY .                     :  COUNTRY
STAT .                     :  STATE
CNTY .                     :  COUNTY
SRVC .     New Zealand Petroleum Co Ltd:  SERVICE COMPANY
DATE .                     :  DATE
API  .                     :  API NUMBER
UWI  .         100000159749:  UNIQUE WELL ID
LATI .           -39.193014:  LATITUDE
LONG .          174.1756345:  LONGITUDE
~Curve Information Block
#MNEM.UNIT         API CODE   Curve Description
#---------- ----------------  -----------------
DEPTH.M                    :  
BS   .IN                   :  Bit Size (Created in Geolog)
CALI .IN                   :  Caliper Log (CALI)
DRHO .G/C3                 :  Density Log Correction (DRHO)
DTC  .US/F                 :  Delta T (DT)
DTS  .US/F                 :  Delta T Shear Lower Dipole (DT1)
GR   .GAPI                 :  Gamma-Ray Log (GR)
GR_CORR.GAPI                 :  Gamma ray corrected
NEUT .V/V                  :  Neutron Log Porosity (NPHI)
NEUT_CORR.V/V                  :  Corrected NPHI (limestone units)
PEF  .B/E                  :  Photoelectric Factor (PEDF)
RESD .OHMM                 :  Laterolog Deep Resistivity (LLD)
RESD_CORR.OHMM                 :  Borehole corrected LLD
RESS .OHMM                 :  Shallow Laterolog (LLS)
RESS_CORR.OHMM                 :  Borehole corrected LLS
SP   .MV                   :  Spontaneous Potential Log (SP)
TEMP .DEGC                 :  Temperature (TEMP)
TENS .KGF                  :  Cable tension at surface (TENS)
~Parameter Information Block
#MNEM.UNIT            Value   Description
#---------- ----------------  -----------
CUR_INT_BOT.M                2150:  Current interpolated bottom
PROJECT.     New Zealand Log QC Project:  
SET  .     A0_FINAL_INTER_REF_D:  
ELEVATION_AMSL.M               297.7:  Elevation above mean sea level
ELEVATION_REF.                   KB:  Measurement reference
FORMATION_AT_TD.                 Moki:  Formation at TD
GL_ELEVATION_AMSL.M            292.8000:  Ground level elevation above mean sea level
LICENCE_NUMBER.             PPL38706:  Licence number
ONSHORE_OR_OFFSHORE.              Onshore:  Onshore/offshore
PR_NUMBER.               PR1914:  Petroleum report number
SPUD_DATE.           07/03/1993:  Spud date
STATUS_AT_COMPLETION.     Suspended as a potential oil producer:  Status at completion
TD_DATE.           21/03/1993:  Total depth date
TOTAL_DEPTH_DRILLED.M                2150:  Total depth drilled
~Other Information Block
# 
~A       DEPTH             BS           CALI           DRHO            DTC            DTS             GR        GR_CORR           NEUT      NEUT_CORR            PEF           RESD      RESD_CORR           RESS      RESS_CORR             SP           TEMP           TENS 
# ...
     997.76280         8.5000         8.5071      0.0090788      -999.2500      -999.2500       106.4488       106.3641       0.261242       0.255310         2.9726         3.8225         3.8311         3.6800         3.7424      -999.2500      -999.2500       398.3775
     997.91520         8.5000         8.5113      0.0102880      -999.2500      -999.2500       107.3657       107.2908       0.261726       0.255664         2.9962         3.8658         3.8752         3.7217         3.7845      -999.2500      -999.2500       398.4224
     998.06760         8.5000         8.5103      0.0104393      -999.2500      -999.2500       108.4103       108.2486       0.262061       0.255995         3.0185         3.8439         3.8529         3.7039         3.7666      -999.2500      -999.2500       398.4844
     998.22000         8.5000         8.5028      0.0092637      -999.2500      -999.2500       109.6151       109.2455       0.262211       0.256297         3.0392         3.7399         3.7474         3.6112         3.6734      -999.2500      -999.2500       398.5678
     998.37240         8.5000         8.4953      0.0080881      -999.2500      -999.2500       110.8199       110.2424       0.262361       0.256599         3.0598         3.6360         3.6418         3.5185         3.5802      -999.2500      -999.2500       398.6512
     998.52480         8.5000         8.4891      0.0071076      -999.2500      -999.2500       111.6600       110.9201       0.262600       0.256968         3.0716         3.5440         3.5484         3.4385         3.4997      -999.2500      -999.2500       398.7758
     998.67720         8.5000         8.4893      0.0071314      -999.2500      -999.2500       110.6241       109.9550       0.263298       0.257686         3.0379         3.5136         3.5176         3.4235         3.4848      -999.2500      -999.2500       399.1125
     998.82960         8.5000         8.4895      0.0071551      -999.2500      -999.2500       109.5882       108.9899       0.263996       0.258403         3.0041         3.4831         3.4868         3.4085         3.4699      -999.2500      -999.2500       399.4492
     998.98200         8.5000         8.4898      0.0071789      -999.2500      -999.2500       108.5523       108.0247       0.264693       0.259120         2.9704         3.4526         3.4560         3.3935         3.4549      -999.2500      -999.2500       399.7859
     999.13440         8.5000         8.4899      0.0066634      -999.2500      -999.2500       107.9089       107.5567       0.275565       0.269658         2.9752         3.4377         3.4410         3.3925         3.4539      -999.2500      -999.2500       399.4624
     999.28680         8.5000         8.4901      0.0060757      -999.2500      -999.2500       107.3182       107.1553       0.287800       0.281510         2.9852         3.4250         3.4280         3.3933         3.4547      -999.2500      -999.2500       399.0504
     999.43920         8.5000         8.4902      0.0054880      -999.2500      -999.2500       106.7274       106.7538       0.300034       0.293362         2.9951         3.4122         3.4151         3.3941         3.4555      -999.2500      -999.2500       398.6383
     999.59160         8.5000         8.4903      0.0050371      -999.2500      -999.2500       107.7237       107.5693       0.302366       0.295635         3.0164         3.4187         3.4218         3.4080         3.4694      -999.2500      -999.2500       398.7118
     999.74400         8.5000         8.4902      0.0046770      -999.2500      -999.2500       109.7735       109.1925       0.298123       0.291550         3.0452         3.4382         3.4414         3.4305         3.4919      -999.2500      -999.2500       399.1074
     999.89640         8.5000         8.4901      0.0043168      -999.2500      -999.2500       111.8232       110.8156       0.293881       0.287464         3.0740         3.4576         3.4611         3.4531         3.5144      -999.2500      -999.2500       399.5031
    1000.04880         8.5000         8.4900      0.0042226      -999.2500      -999.2500       112.7105       111.5468       0.289216       0.282963         3.0848         3.4714         3.4751         3.4697         3.5308      -999.2500      -999.2500       399.6609
    1000.20120         8.5000         8.4897      0.0046928      -999.2500      -999.2500       111.1301       110.3842       0.283654       0.277577         3.0575         3.4733         3.4770         3.4734         3.5346      -999.2500      -999.2500       399.3141
    1000.35360         8.5000         8.4894      0.0051630      -999.2500      -999.2500       109.5497       109.2216       0.278092       0.272191         3.0302         3.4753         3.4789         3.4772         3.5383      -999.2500      -999.2500       398.9673
    1000.50600         8.5000         8.4892      0.0056057      -999.2500      -999.2500       108.1114       108.1750       0.273063       0.267320         3.0038         3.4742         3.4779         3.4782         3.5393      -999.2500      -999.2500       398.6331
    1000.65840         8.5000         8.4894      0.0053797      -999.2500      -999.2500       110.1401       109.9582       0.281048       0.275014         2.9982         3.4016         3.4043         3.4124         3.4737      -999.2500      -999.2500       398.6070
    1000.81080         8.5000         8.4896      0.0051536      -999.2500      -999.2500       112.1689       111.7414       0.289033       0.282707         2.9925         3.3289         3.3308         3.3467         3.4081      -999.2500      -999.2500       398.5809
    1000.96320         8.5000         8.4899      0.0049276      -999.2500      -999.2500       114.1976       113.5246       0.297018       0.290401         2.9869         3.2562         3.2573         3.2810         3.3425      -999.2500      -999.2500       398.5548
    1001.11560         8.5000         8.4899      0.0052531      -999.2500      -999.2500       114.5754       113.8812       0.292956       0.286475         3.0108         3.2590         3.2601         3.2921         3.3537      -999.2500      -999.2500       398.6478
    1001.26800         8.5000         8.4900      0.0057542      -999.2500      -999.2500       114.4278       113.7837       0.285060       0.278851         3.0440         3.2857         3.2872         3.3277         3.3892      -999.2500      -999.2500       398.7787
    1001.42040         8.5000         8.4901      0.0062553      -999.2500      -999.2500       114.2801       113.6861       0.277163       0.271226         3.0772         3.3125         3.3143         3.3634         3.4248      -999.2500      -999.2500       398.9096
    1001.57280         8.5000         8.4904      0.0062762      -999.2500      -999.2500       113.7029       113.2295       0.277964       0.272021         3.0832         3.3299         3.3320         3.3900         3.4513      -999.2500      -999.2500       398.8943
    1001.72520         8.5000         8.4912      0.0057722      -999.2500      -999.2500       112.6559       112.3803       0.288276       0.282022         3.0595         3.3372         3.3393         3.4067         3.4681      -999.2500      -999.2500       398.7191
    1001.87760         8.5000         8.4919      0.0052681      -999.2500      -999.2500       111.6089       111.5311       0.298588       0.292023         3.0357         3.3444         3.3467         3.4234         3.4848      -999.2500      -999.2500       398.5439
    1002.03000         8.5000         8.4973      0.0051026      -999.2500      -999.2500       111.1712       111.2098       0.306802       0.299897         3.0207         3.3530         3.3557         3.4387         3.5005      -999.2500      -999.2500       398.4532
    1002.18240         8.5000         8.5217      0.0063185      -999.2500      -999.2500       113.2191       113.0426       0.306456       0.299089         3.0413         3.3670         3.3712         3.4480         3.5120      -999.2500      -999.2500       398.7073
