~Version Information Block
VERS .                 2.00:  CWLS LOG ASCII STANDARD - VERSION 2.00
WRAP .                   NO:  One line per depth step
~Well Information Block
#MNEM.UNIT        Data Type   Information
#---------- ----------------  -----------
STRT .M           376.58040:  START DEPTH
STOP .M          2000.85960:  STOP DEPTH
STEP .M             0.15240:  STEP
NULL .              -999.25:  NULL VALUE
COMP .                     :  COMPANY
WELL .            Ngatoro-9:  WELL
FLD  .                     :  FIELD
LOC  .                     :  LOCATION
CTRY .                     :  COUNTRY
STAT .                     :  STATE
CNTY .                     :  COUNTY
SRVC .     New Zealand Petroleum Co Ltd:  SERVICE COMPANY
DATE .                     :  DATE
API  .                     :  API NUMBER
UWI  .         100000290639:  UNIQUE WELL ID
LATI .          -39.1948838:  LATITUDE
LONG .          174.1848348:  LONGITUDE
~Curve Information Block
#MNEM.UNIT         API CODE   Curve Description
#---------- ----------------  -----------------
DEPTH.M                    :  
BS   .IN                   :  Bit Size (Created in Geolog)
CALI .IN                   :  Caliper Log (CALI)
DENS .G/C3                 :  Compensated Formation Density Log (RHOB)
DRHO .G/C3                 :  Density Log Correction (DRHO)
DTC  .US/F                 :  3-5 Ft Compensated Sonic (BPB) (DTC1)
GR   .GAPI                 :  Gamma-Ray Log (GR)
GR_CORR.GAPI                 :  Gamma ray corrected
NEUT .V/V                  :  Neutron Log Porosity (NPHI)
NEUT_CORR.V/V                  :  Corrected NPHI (limestone units)
PEF  .B/E                  :  Photoelectric Factor (PEDF)
RESD .OHMM                 :  Laterolog Deep Resistivity (LLD)
RESD_CORR.OHMM                 :  Borehole corrected LLD
RESS .OHMM                 :  Shallow Laterolog (LLS)
RESS_CORR.OHMM                 :  Borehole corrected LLS
SP   .MV                   :  Spontaneous Potential Log (SP)
TEMP .DEGC                 :  Temperature (TEMP)
TENS .KGF                  :  Cable tension at surface (TENS)
~Parameter Information Block
#MNEM.UNIT            Value   Description
#---------- ----------------  -----------
CUR_INT_BOT.M              2001.5:  Current interpolated bottom
PROJECT.     New Zealand Log QC Project:  
SET  .     A0_FINAL_INTER_REF_D:  
ELEVATION_AMSL.M              291.65:  Elevation above mean sea level
ELEVATION_REF.                   KB:  Measurement reference
FORMATION_AT_TD.      Mount Messenger:  Formation at TD
GL_ELEVATION_AMSL.M            286.3000:  Ground level elevation above mean sea level
LICENCE_NUMBER.             PMP38148:  Licence number
ONSHORE_OR_OFFSHORE.              Onshore:  Onshore/offshore
PR_NUMBER.               PR2437:  Petroleum report number
SPUD_DATE.           06/06/1998:  Spud date
STATUS_AT_COMPLETION.     Cased and suspended as a potential oil producer:  Status at completion
TD_DATE.           20/06/1998:  Total depth date
TOTAL_DEPTH_DRILLED.M              2001.5:  Total depth drilled
~Other Information Block
# 
~A       DEPTH             BS           CALI           DENS           DRHO            DTC             GR        GR_CORR           NEUT      NEUT_CORR            PEF           RESD      RESD_CORR           RESS      RESS_CORR             SP           TEMP           TENS 
# ...
    1816.76040         8.5000         9.0881         2.4703      0.0175310        83.7901       111.8673       115.2832       0.247822       0.234352         3.0991         3.8726         3.9170         4.2561         4.3891        18.3360        55.1025       420.8974
    1816.91280         8.5000         9.0867         2.4711      0.0183429        83.9537       110.1737       113.5296       0.246679       0.233295         3.1074         3.8720         3.9162         4.2509         4.3835        18.5126        55.1025       422.3271
    1817.06520         8.5000         9.0818         2.4752      0.0196171        83.8218       110.2801       113.6102       0.240521       0.227543         3.1367         3.8956         3.9401         4.2715         4.4040        18.5048        55.1031       423.2547
    1817.21760         8.5000         9.0725         2.4839      0.0215092        83.2946       112.7940       116.1440       0.227655       0.215513         3.1940         3.9517         3.9968         4.3266         4.4591        18.2503        55.1046       423.5106
    1817.37000         8.5000         9.0631         2.4926      0.0234014        82.7674       115.3078       118.6778       0.214790       0.203482         3.2513         4.0078         4.0534         4.3818         4.5142        17.9958        55.1060       423.7665
    1817.52240         8.5000         9.0531         2.4989      0.0246235        82.1230       117.3306       120.7018       0.204996       0.194372         3.2916         4.0613         4.1074         4.4335         4.5657        17.8480        55.1071       424.1371
    1817.67480         8.5000         9.0388         2.4908      0.0219568        80.7983       116.5039       119.7669       0.213024       0.202208         3.2334         4.0993         4.1453         4.4657         4.5966        18.3197        55.1062       425.1739
    1817.82720         8.5000         9.0244         2.4827      0.0192901        79.4735       115.6773       118.8320       0.221052       0.210044         3.1752         4.1374         4.1832         4.4979         4.6275        18.7914        55.1053       426.2105
    1817.97960         8.5000         9.0101         2.4746      0.0166234        78.1487       114.8506       117.8971       0.229081       0.217880         3.1170         4.1755         4.2212         4.5301         4.6584        19.2631        55.1044       427.2473
    1818.13200         8.5000         9.0087         2.4745      0.0162811        79.6938       114.7981       117.8344       0.231747       0.220434         3.0980         4.1491         4.1942         4.4950         4.6226        19.6075        55.1089       426.0434
    1818.28440         8.5000         9.0092         2.4755      0.0162979        81.6825       114.8653       117.9064       0.233585       0.222171         3.0851         4.1128         4.1572         4.4496         4.5764        19.9322        55.1142       424.4933
    1818.43680         8.5000         9.0098         2.4766      0.0163148        83.6711       114.9324       117.9785       0.235423       0.223908         3.0722         4.0764         4.1202         4.4042         4.5302        20.2570        55.1195       422.9433
    1818.58920         8.5000         9.0085         2.4786      0.0172787        84.4000       115.4134       118.4647       0.234612       0.223158         3.0601         4.0445         4.0876         4.3654         4.4905        20.1571        55.1228       422.4937
    1818.74160         8.5000         9.0061         2.4814      0.0189137        84.2363       116.1875       119.2443       0.231925       0.220645         3.0485         4.0157         4.0581         4.3314         4.4556        19.7563        55.1245       422.8239
    1818.89400         8.5000         9.0036         2.4841      0.0205486        84.0726       116.9616       120.0239       0.229237       0.218132         3.0369         3.9869         4.0286         4.2974         4.4206        19.3554        55.1263       423.1541
    1819.04640         8.5000         9.0032         2.4853      0.0213873        83.7963       117.1884       120.2540       0.227970       0.216936         3.0366         3.9730         4.0144         4.2807         4.4036        19.1050        55.1344       423.7287
    1819.19880         8.5000         9.0074         2.4830      0.0204068        83.2626       116.1649       119.2286       0.229949       0.218747         3.0621         3.9930         4.0351         4.3037         4.4275        19.1981        55.1571       424.8615
    1819.35120         8.5000         9.0116         2.4807      0.0194263        82.7289       115.1414       118.2031       0.231927       0.220559         3.0875         4.0130         4.0557         4.3267         4.4515        19.2913        55.1798       425.9942
    1819.50360         8.5000         9.0156         2.4784      0.0184998        82.2147       114.1180       117.1768       0.233810       0.222283         3.1130         4.0322         4.0755         4.3487         4.4744        19.3851        55.2018       427.1910
    1819.65600         8.5000         9.0122         2.4776      0.0198071        82.5038       113.0991       116.1114       0.231764       0.220394         3.1429         4.0178         4.0607         4.3290         4.4539        19.5085        55.1949       431.0370
    1819.80840         8.5000         9.0089         2.4767      0.0211143        82.7929       112.0802       115.0460       0.229717       0.218505         3.1727         4.0034         4.0458         4.3093         4.4334        19.6318        55.1879       434.8830
    1819.96080         8.5000         9.0055         2.4759      0.0224216        83.0820       111.0613       113.9807       0.227671       0.216616         3.2025         3.9890         4.0309         4.2896         4.4129        19.7552        55.1810       438.7290
    1820.11320         8.5000         9.0076         2.4774      0.0231447        82.9120       111.6253       114.5716       0.225320       0.214351         3.1950         3.9885         4.0305         4.2871         4.4106        19.7665        55.1889       437.8016
    1820.26560         8.5000         9.0115         2.4797      0.0236656        82.5830       112.7373       115.7361       0.222864       0.211956         3.1745         3.9928         4.0351         4.2905         4.4146        19.7389        55.2020       435.2213
    1820.41800         8.5000         9.0154         2.4820      0.0241864        82.2541       113.8494       116.9005       0.220407       0.209561         3.1540         3.9972         4.0398         4.2940         4.4186        19.7113        55.2150       432.6409
    1820.57040         8.5000         9.0182         2.4834      0.0249158        81.8950       114.8938       117.9893       0.222195       0.211213         3.1197         4.0079         4.0510         4.3078         4.4331        19.6353        55.2215       431.6437
    1820.72280         8.5000         9.0198         2.4839      0.0258879        81.5010       115.8592       118.9900       0.228926       0.217579         3.0694         4.0263         4.0697         4.3338         4.4597        19.5028        55.2204       432.4907
    1820.87520         8.5000         9.0213         2.4844      0.0268601        81.1069       116.8246       119.9907       0.235657       0.223944         3.0192         4.0446         4.0885         4.3597         4.4863        19.3704        55.2193       433.3377
    1821.02760         8.5000         9.0219         2.4831      0.0268931        80.7421       117.2792       120.4615       0.240735       0.228755         2.9748         4.0567         4.1009         4.3772         4.5042        19.3038        55.2188       433.9527
    1821.18000         8.5000         9.0186         2.4737      0.0226795        80.5098       115.4242       118.5367       0.238339       0.226536         2.9570         4.0409         4.0846         4.3562         4.4824        19.5346        55.2207       433.5184
