~Version Information Block
VERS .                 2.00:  CWLS LOG ASCII STANDARD - VERSION 2.00
WRAP .                   NO:  One line per depth step
~Well Information Block
#MNEM.UNIT        Data Type   Information
#---------- ----------------  -----------
STRT .M           376.58040:  START DEPTH
STOP .M          2000.85960:  STOP DEPTH
STEP .M             0.15240:  STEP
NULL .              -999.25:  NULL VALUE
COMP .                     :  COMPANY
WELL .            Ngatoro-9:  WELL
FLD  .                     :  FIELD
LOC  .                     :  LOCATION
CTRY .                     :  COUNTRY
STAT .                     :  STATE
CNTY .                     :  COUNTY
SRVC .     New Zealand Petroleum Co Ltd:  SERVICE COMPANY
DATE .                     :  DATE
API  .                     :  API NUMBER
UWI  .         100000290639:  UNIQUE WELL ID
LATI .          -39.1948838:  LATITUDE
LONG .          174.1848348:  LONGITUDE
~Curve Information Block
#MNEM.UNIT         API CODE   Curve Description
#---------- ----------------  -----------------
DEPTH.M                    :  
BS   .IN                   :  Bit Size (Created in Geolog)
CALI .IN                   :  Caliper Log (CALI)
DENS .G/C3                 :  Compensated Formation Density Log (RHOB)
DRHO .G/C3                 :  Density Log Correction (DRHO)
DTC  .US/F                 :  3-5 Ft Compensated Sonic (BPB) (DTC1)
GR   .GAPI                 :  Gamma-Ray Log (GR)
GR_CORR.GAPI                 :  Gamma ray corrected
NEUT .V/V                  :  Neutron Log Porosity (NPHI)
NEUT_CORR.V/V                  :  Corrected NPHI (limestone units)
PEF  .B/E                  :  Photoelectric Factor (PEDF)
RESD .OHMM                 :  Laterolog Deep Resistivity (LLD)
RESD_CORR.OHMM                 :  Borehole corrected LLD
RESS .OHMM                 :  Shallow Laterolog (LLS)
RESS_CORR.OHMM                 :  Borehole corrected LLS
SP   .MV                   :  Spontaneous Potential Log (SP)
TEMP .DEGC                 :  Temperature (TEMP)
TENS .KGF                  :  Cable tension at surface (TENS)
~Parameter Information Block
#MNEM.UNIT            Value   Description
#---------- ----------------  -----------
CUR_INT_BOT.M              2001.5:  Current interpolated bottom
PROJECT.     New Zealand Log QC Project:  
SET  .     A0_FINAL_INTER_REF_D:  
ELEVATION_AMSL.M              291.65:  Elevation above mean sea level
ELEVATION_REF.                   KB:  Measurement reference
FORMATION_AT_TD.      Mount Messenger:  Formation at TD
GL_ELEVATION_AMSL.M            286.3000:  Ground level elevation above mean sea level
LICENCE_NUMBER.             PMP38148:  Licence number
ONSHORE_OR_OFFSHORE.              Onshore:  Onshore/offshore
PR_NUMBER.               PR2437:  Petroleum report number
SPUD_DATE.           06/06/1998:  Spud date
STATUS_AT_COMPLETION.     Cased and suspended as a potential oil producer:  Status at completion
TD_DATE.           20/06/1998:  Total depth date
TOTAL_DEPTH_DRILLED.M              2001.5:  Total depth drilled
~Other Information Block
# 
~A       DEPTH             BS           CALI           DENS           DRHO            DTC             GR        GR_CORR           NEUT      NEUT_CORR            PEF           RESD      RESD_CORR           RESS      RESS_CORR             SP           TEMP           TENS 
# ...
    1418.99640         8.5000         9.8163         2.4116      0.0312127        90.8253       111.8781       119.3723       0.312242       0.280451         3.0748         2.9027         2.9494         3.1320         3.2967        22.3853        48.1445       339.2717
    1419.14880         8.5000         9.8424         2.4124      0.0285785        92.3407       113.3501       121.0918       0.316159       0.283522         3.0431         2.8083         2.8525         3.0348         3.1962        22.1466        48.1445       340.1035
    1419.30120         8.5000         9.8681         2.4135      0.0259811        93.9104       114.8633       122.8533       0.320017       0.286545         3.0111         2.7088         2.7504         2.9325         3.0903        21.9064        48.1445       340.9499
    1419.45360         8.5000         9.8938         2.4146      0.0233837        95.4801       116.3766       124.6148       0.323874       0.289568         2.9790         2.6092         2.6482         2.8301         2.9844        21.6661        48.1445       341.7963
    1419.60600         8.5000         9.8899         2.4143      0.0223498        95.8921       116.3281       124.5404       0.313719       0.280447         2.9766         2.5657         2.6031         2.7839         2.9357        21.7783        48.1445       343.0811
    1419.75840         8.5000         9.8731         2.4134      0.0220004        95.7974       115.5960       123.6622       0.297430       0.266011         2.9872         2.5467         2.5829         2.7624         2.9120        22.0448        48.1445       344.5576
    1419.91080         8.5000         9.8562         2.4126      0.0216510        95.7028       114.8640       122.7841       0.281141       0.251575         2.9977         2.5277         2.5627         2.7408         2.8884        22.3112        48.1445       346.0342
    1420.06320         8.5000         9.8389         2.4131      0.0217212        95.4848       114.8018       122.6187       0.269102       0.240968         3.0167         2.5321         2.5667         2.7451         2.8918        22.4680        48.1445       346.0826
    1420.21560         8.5000         9.8209         2.4155      0.0223836        95.0929       115.6851       123.4593       0.263061       0.235766         3.0475         2.5694         2.6048         2.7857         2.9334        22.4699        48.1445       344.1152
    1420.36800         8.5000         9.8029         2.4179      0.0230461        94.7010       116.5684       124.3000       0.257020       0.230564         3.0784         2.6068         2.6429         2.8264         2.9750        22.4719        48.1445       342.1479
    1420.52040         8.5000         9.7879         2.4197      0.0235269        94.3437       117.2863       124.9812       0.253509       0.227614         3.1066         2.6390         2.6758         2.8613         3.0107        22.4553        48.1445       340.5154
    1420.67280         8.5000         9.7922         2.4178      0.0228319        94.2100       116.9333       124.6308       0.266370       0.239236         3.1177         2.6382         2.6750         2.8583         3.0079        22.3182        48.1445       341.0500
    1420.82520         8.5000         9.7965         2.4160      0.0221370        94.0763       116.5803       124.2804       0.279230       0.250857         3.1288         2.6374         2.6743         2.8554         3.0051        22.1811        48.1445       341.5845
    1420.97760         8.5000         9.8008         2.4141      0.0214421        93.9426       116.2272       123.9300       0.292091       0.262478         3.1400         2.6365         2.6735         2.8525         3.0022        22.0440        48.1445       342.1191
    1421.13000         8.5000         9.7540         2.4143      0.0216081        94.1460       114.7605       122.1105       0.294355       0.265352         3.1678         2.6149         2.6497         2.8297         2.9755        22.0809        48.1445       342.4565
    1421.28240         8.5000         9.6984         2.4150      0.0219225        94.4074       113.1019       120.0379       0.294793       0.266718         3.1986         2.5897         2.6219         2.8034         2.9447        22.1479        48.1445       342.7598
    1421.43480         8.5000         9.6429         2.4156      0.0222369        94.6688       111.4433       117.9653       0.295231       0.268084         3.2293         2.5646         2.5942         2.7771         2.9139        22.2148        48.1445       343.0632
    1421.58720         8.5000         9.6110         2.4147      0.0219902        94.9140       111.2516       117.5806       0.292803       0.266410         3.2208         2.5560         2.5843         2.7679         2.9024        22.2119        48.1445       342.5666
    1421.73960         8.5000         9.5969         2.4128      0.0213239        95.1471       112.1567       118.4580       0.288232       0.262461         3.1829         2.5598         2.5877         2.7715         2.9053        22.1566        48.1445       341.4718
    1421.89200         8.5000         9.5828         2.4108      0.0206577        95.3803       113.0618       119.3353       0.283660       0.258513         3.1450         2.5636         2.5912         2.7751         2.9083        22.1014        48.1445       340.3770
    1422.04440         8.5000         9.5754         2.4090      0.0203595        95.4757       113.4866       119.7429       0.284430       0.259348         3.1038         2.5709         2.5986         2.7826         2.9156        22.0172        48.1445       339.7972
    1422.19680         8.5000         9.5843         2.4078      0.0209569        95.2362       112.7429       119.0076       0.298191       0.271820         3.0546         2.5869         2.6153         2.7995         2.9336        21.8623        48.1445       340.4700
    1422.34920         8.5000         9.5932         2.4065      0.0215543        94.9967       111.9993       118.2723       0.311953       0.284292         3.0054         2.6029         2.6321         2.8163         2.9517        21.7073        48.1445       341.1427
    1422.50160         8.5000         9.6016         2.4053      0.0221807        94.7585       111.2544       117.5331       0.325398       0.296483         2.9565         2.6186         2.6486         2.8329         2.9695        21.5510        48.1445       341.7973
    1422.65400         8.5000         9.5653         2.4029      0.0255469        94.6467       110.3967       116.4310       0.309107       0.282144         2.9429         2.6128         2.6414         2.8292         2.9634        21.2609        48.1445       340.7374
    1422.80640         8.5000         9.5291         2.4005      0.0289132        94.5350       109.5391       115.3288       0.292815       0.267806         2.9293         2.6069         2.6341         2.8255         2.9573        20.9708        48.1445       339.6775
    1422.95880         8.5000         9.4928         2.3980      0.0322794        94.4232       108.6814       114.2267       0.276524       0.253467         2.9156         2.6011         2.6269         2.8217         2.9513        20.6807        48.1445       338.6175
    1423.11120         8.5000         9.5068         2.4015      0.0325933        94.3723       109.9618       115.6545       0.275454       0.252253         2.9160         2.6145         2.6412         2.8317         2.9625        20.9609        48.1445       338.7523
    1423.26360         8.5000         9.5395         2.4072      0.0317764        94.3439       112.0343       118.0197       0.280024       0.255901         2.9216         2.6351         2.6636         2.8467         2.9801        21.4523        48.1445       339.3297
    1423.41600         8.5000         9.5721         2.4129      0.0309594        94.3155       114.1069       120.3849       0.284593       0.259548         2.9272         2.6557         2.6859         2.8617         2.9976        21.9438        48.1445       339.9071
