~Version Information Block
VERS .                 2.00:  CWLS LOG ASCII STANDARD - VERSION 2.00
WRAP .                   NO:  One line per depth step
~Well Information Block
#MNEM.UNIT        Data Type   Information
#---------- ----------------  -----------
STRT .M           535.07640:  START DEPTH
STOP .M          2419.95960:  STOP DEPTH
STEP .M             0.15240:  STEP
NULL .              -999.25:  NULL VALUE
COMP .                     :  COMPANY
WELL .            Ngatoro-3:  WELL
FLD  .                     :  FIELD
LOC  .                     :  LOCATION
CTRY .                     :  COUNTRY
STAT .                     :  STATE
CNTY .                     :  COUNTY
SRVC .     New Zealand Petroleum Co Ltd:  SERVICE COMPANY
DATE .                     :  DATE
API  .                     :  API NUMBER
UWI  .         100000158215:  UNIQUE WELL ID
LATI .          -39.1846093:  LATITUDE
LONG .          174.1883769:  LONGITUDE
~Curve Information Block
#MNEM.UNIT         API CODE   Curve Description
#---------- ----------------  -----------------
DEPTH.M                    :  
BS   .IN                   :  Bit Size (Created in Geolog)
CALI .IN                   :  Caliper Log (CALI)
DENS .G/C3                 :  Compensated Formation Density Log (RHOB)
DRHO .G/C3                 :  Density Log Correction (DRHO)
DTC  .US/F                 :  Delta T (DT)
GR   .GAPI                 :  Gamma-Ray Log (GR)
GR_CORR.GAPI                 :  Gamma ray corrected
NEUT .V/V                  :  Neutron Log Porosity (NPHI)
NEUT_CORR.V/V                  :  Corrected NPHI (limestone units)
PEF  .B/E                  :  Photoelectric Factor (PEDF)
RESD .OHMM                 :  Laterolog Deep Resistivity (LLD)
RESD_CORR.OHMM                 :  Borehole corrected LLD
RESS .OHMM                 :  Shallow Laterolog (LLS)
RESS_CORR.OHMM                 :  Borehole corrected LLS
SP   .MV                   :  Spontaneous Potential Log (SP)
TEMP .DEGC                 :  Temperature (TEMP)
TENS .KGF                  :  Cable tension at surface (TENS)
~Parameter Information Block
#MNEM.UNIT            Value   Description
#---------- ----------------  -----------
CUR_INT_BOT.M                2420:  Current interpolated bottom
PROJECT.     New Zealand Log QC Project:  
SET  .     A0_FINAL_INTER_REF_D:  
ELEVATION_AMSL.M              267.94:  Elevation above mean sea level
ELEVATION_REF.                   KB:  Measurement reference
FORMATION_AT_TD.             Manganui:  Formation at TD
GL_ELEVATION_AMSL.M            263.2000:  Ground level elevation above mean sea level
LICENCE_NUMBER.             PPL38706:  Licence number
ONSHORE_OR_OFFSHORE.              Onshore:  Onshore/offshore
PR_NUMBER.               PR1863:  Petroleum report number
SPUD_DATE.           14/01/1993:  Spud date
STATUS_AT_COMPLETION.     Suspended as a potential oil producer:  Status at completion
TD_DATE.           08/02/1993:  Total depth date
TOTAL_DEPTH_DRILLED.M                2420:  Total depth drilled
~Other Information Block
# 
~A       DEPTH             BS           CALI           DENS           DRHO            DTC             GR        GR_CORR           NEUT      NEUT_CORR            PEF           RESD      RESD_CORR           RESS      RESS_CORR             SP           TEMP           TENS 
# ...
    2030.12040         8.5000         8.6985         2.5747      0.0057707        76.7871        92.7278        93.3641       0.185470       0.182262         3.9044         6.2928         6.3306         7.0457         7.1058        66.5957        66.4170      1391.9908
    2030.27280         8.5000         8.6988         2.5794      0.0067743        76.6778        92.8489        93.4873       0.183504       0.180349         3.9249         6.3362         6.3739         7.0620         7.1222        66.3163        66.4301      1391.1749
    2030.42520         8.5000         8.6990         2.5840      0.0077779        76.5685        92.9700        93.6105       0.181538       0.178435         3.9453         6.3796         6.4173         7.0783         7.1385        66.0368        66.4433      1390.3590
    2030.57760         8.5000         8.6990         2.5867      0.0087349        76.6372        93.3796        94.0228       0.182441       0.179314         3.9069         6.3360         6.3737         7.0103         7.0706        66.0157        66.4504      1391.5001
    2030.73000         8.5000         8.6988         2.5875      0.0096469        76.8777        94.0671        94.7138       0.186111       0.182883         3.8118         6.2085         6.2462         6.8610         6.9213        66.2437        66.4517      1394.5273
    2030.88240         8.5000         8.6985         2.5884      0.0105590        77.1181        94.7546        95.4048       0.189781       0.186453         3.7166         6.0809         6.1187         6.7117         6.7719        66.4716        66.4530      1397.5547
    2031.03480         8.5000         8.6983         2.5891      0.0113963        77.2429        95.5640        96.2188       0.192433       0.189033         3.6512         6.0164         6.0542         6.6328         6.6930        66.6346        66.4541      1400.2432
    2031.18720         8.5000         8.6983         2.5896      0.0119815        76.9769        96.7855        97.4487       0.191645       0.188269         3.6862         6.1648         6.2025         6.7919         6.8521        66.5782        66.4545      1401.7863
    2031.33960         8.5000         8.6983         2.5901      0.0125666        76.7109        98.0071        98.6786       0.190858       0.187504         3.7211         6.3132         6.3508         6.9510         7.0111        66.5218        66.4548      1403.3293
    2031.49200         8.5000         8.6983         2.5906      0.0131517        76.4449        99.2286        99.9085       0.190071       0.186740         3.7561         6.4616         6.4990         7.1102         7.1701        66.4654        66.4551      1404.8724
    2031.64440         8.5000         8.6983         2.5932      0.0123496        76.2278        99.7525       100.4361       0.185731       0.182524         3.7081         6.7038         6.7405         7.3678         7.4274        66.3785        66.4551      1402.2389
    2031.79680         8.5000         8.6983         2.5958      0.0114706        76.0133       100.2378       100.9247       0.181195       0.178117         3.6555         6.9512         6.9872         7.6309         7.6901        66.2900        66.4551      1399.3738
    2031.94920         8.5000         8.6983         2.5985      0.0105917        75.7988       100.7231       101.4133       0.176658       0.173710         3.6029         7.1986         7.2339         7.8939         7.9528        66.2014        66.4551      1396.5088
    2032.10160         8.5000         8.6984         2.5994      0.0100853        75.7656       101.3104       102.0049       0.176850       0.173896         3.6006         7.2622         7.2973         7.9620         8.0208        66.2474        66.4566      1396.6927
    2032.25400         8.5000         8.6985         2.5993      0.0097653        75.8230       101.9485       102.6480       0.179407       0.176379         3.6235         7.2339         7.2692         7.9325         7.9914        66.3608        66.4589      1398.4012
    2032.40640         8.5000         8.6986         2.5993      0.0094453        75.8804       102.5867       103.2912       0.181964       0.178862         3.6463         7.2056         7.2410         7.9030         7.9620        66.4741        66.4611      1400.1099
    2032.55880         8.5000         8.6986         2.5991      0.0095751        75.9767       103.3799       104.0900       0.183107       0.179972         3.6345         7.1738         7.2093         7.8758         7.9348        66.5449        66.4616      1400.7190
    2032.71120         8.5000         8.6985         2.5987      0.0104211        76.1350       104.4199       105.1366       0.181998       0.178897         3.5677         7.1363         7.1719         7.8520         7.9111        66.5480        66.4594      1399.5781
    2032.86360         8.5000         8.6985         2.5983      0.0112671        76.2934       105.4599       106.1833       0.180890       0.177822         3.5008         7.0989         7.1346         7.8283         7.8874        66.5511        66.4571      1398.4371
    2033.01600         8.5000         8.6984         2.5979      0.0120910        76.4171       106.3710       107.1003       0.179805       0.176769         3.4398         7.0695         7.1053         7.8136         7.8727        66.5888        66.4551      1397.3135
    2033.16840         8.5000         8.6986         2.5976      0.0127266        76.2459       106.1828       106.9118       0.178928       0.175915         3.4296         7.1088         7.1446         7.8764         7.9354        66.9218        66.4551      1396.3374
    2033.32080         8.5000         8.6987         2.5972      0.0133623        76.0746       105.9947       106.7234       0.178051       0.175061         3.4194         7.1482         7.1838         7.9391         7.9981        67.2548        66.4551      1395.3612
    2033.47320         8.5000         8.6989         2.5969      0.0139980        75.9034       105.8066       106.5349       0.177173       0.174207         3.4092         7.1876         7.2230         8.0019         8.0608        67.5878        66.4551      1394.3850
    2033.62560         8.5000         8.6988         2.5975      0.0138897        76.0794       105.2704       105.9943       0.179130       0.176110         3.4575         7.1506         7.1862         7.9812         8.0401        67.5305        66.4638      1395.6003
    2033.77800         8.5000         8.6986         2.5983      0.0136227        76.3296       104.6599       105.3785       0.181691       0.178602         3.5182         7.0973         7.1331         7.9427         8.0016        67.3900        66.4743      1397.2832
    2033.93040         8.5000         8.6984         2.5992      0.0133557        76.5797       104.0494       104.7628       0.184252       0.181093         3.5790         7.0441         7.0800         7.9042         7.9631        67.2495        66.4848      1398.9662
    2034.08280         8.5000         8.6983         2.5998      0.0135539        76.7564       103.5030       104.2123       0.188248       0.184978         3.5836         7.0025         7.0386         7.8647         7.9237        67.3096        66.4883      1399.7476
    2034.23520         8.5000         8.6983         2.6003      0.0141431        76.8712       103.0107       103.7165       0.193449       0.190033         3.5410         6.9708         7.0069         7.8244         7.8834        67.5383        66.4860      1399.7714
    2034.38760         8.5000         8.6983         2.6007      0.0147324        76.9860       102.5183       103.2208       0.198651       0.195088         3.4984         6.9391         6.9753         7.7841         7.8432        67.7670        66.4837      1399.7950
    2034.54000         8.5000         8.6983         2.6001      0.0144615        77.0013       102.5886       103.2915       0.200684       0.197065         3.4929         6.9215         6.9579         7.7613         7.8204        67.9478        66.4831      1399.3899
