~Version Information Block
VERS .                 2.00:  CWLS LOG ASCII STANDARD - VERSION 2.00
WRAP .                   NO:  One line per depth step
~Well Information Block
#MNEM.UNIT        Data Type   Information
#---------- ----------------  -----------
STRT .M           376.58040:  START DEPTH
STOP .M          2000.85960:  STOP DEPTH
STEP .M             0.15240:  STEP
NULL .              -999.25:  NULL VALUE
COMP .                     :  COMPANY
WELL .            Ngatoro-9:  WELL
FLD  .                     :  FIELD
LOC  .                     :  LOCATION
CTRY .                     :  COUNTRY
STAT .                     :  STATE
CNTY .                     :  COUNTY
SRVC .     New Zealand Petroleum Co Ltd:  SERVICE COMPANY
DATE .                     :  DATE
API  .                     :  API NUMBER
UWI  .         100000290639:  UNIQUE WELL ID
LATI .          -39.1948838:  LATITUDE
LONG .          174.1848348:  LONGITUDE
~Curve Information Block
#MNEM.UNIT         API CODE   Curve Description
#---------- ----------------  -----------------
DEPTH.M                    :  
BS   .IN                   :  Bit Size (Created in Geolog)
CALI .IN                   :  Caliper Log (CALI)
DENS .G/C3                 :  Compensated Formation Density Log (RHOB)
DRHO .G/C3                 :  Density Log Correction (DRHO)
DTC  .US/F                 :  3-5 Ft Compensated Sonic (BPB) (DTC1)
GR   .GAPI                 :  Gamma-Ray Log (GR)
GR_CORR.GAPI                 :  Gamma ray corrected
NEUT .V/V                  :  Neutron Log Porosity (NPHI)
NEUT_CORR.V/V                  :  Corrected NPHI (limestone units)
PEF  .B/E                  :  Photoelectric Factor (PEDF)
RESD .OHMM                 :  Laterolog Deep Resistivity (LLD)
RESD_CORR.OHMM                 :  Borehole corrected LLD
RESS .OHMM                 :  Shallow Laterolog (LLS)
RESS_CORR.OHMM                 :  Borehole corrected LLS
SP   .MV                   :  Spontaneous Potential Log (SP)
TEMP .DEGC                 :  Temperature (TEMP)
TENS .KGF                  :  Cable tension at surface (TENS)
~Parameter Information Block
#MNEM.UNIT            Value   Description
#---------- ----------------  -----------
CUR_INT_BOT.M              2001.5:  Current interpolated bottom
PROJECT.     New Zealand Log QC Project:  
SET  .     A0_FINAL_INTER_REF_D:  
ELEVATION_AMSL.M              291.65:  Elevation above mean sea level
ELEVATION_REF.                   KB:  Measurement reference
FORMATION_AT_TD.      Mount Messenger:  Formation at TD
GL_ELEVATION_AMSL.M            286.3000:  Ground level elevation above mean sea level
LICENCE_NUMBER.             PMP38148:  Licence number
ONSHORE_OR_OFFSHORE.              Onshore:  Onshore/offshore
PR_NUMBER.               PR2437:  Petroleum report number
SPUD_DATE.           06/06/1998:  Spud date
STATUS_AT_COMPLETION.     Cased and suspended as a potential oil producer:  Status at completion
TD_DATE.           20/06/1998:  Total depth date
TOTAL_DEPTH_DRILLED.M              2001.5:  Total depth drilled
~Other Information Block
# 
~A       DEPTH             BS           CALI           DENS           DRHO            DTC             GR        GR_CORR           NEUT      NEUT_CORR            PEF           RESD      RESD_CORR           RESS      RESS_CORR             SP           TEMP           TENS 
# ...
    1944.77640         8.5000         9.0075         2.4880      0.0225152        80.6063       118.7988       121.9330       0.236158       0.224892         3.0073         4.4643         4.5159         4.7279         4.8583        15.5418        56.3787       445.5786
    1944.92880         8.5000         9.0006         2.4858      0.0225054        80.7255       118.5674       121.6532       0.238906       0.227618         3.0014         4.4022         4.4522         4.6629         4.7911        15.8268        56.3920       446.8036
    1945.08120         8.5000         8.9918         2.4832      0.0222188        80.7574       119.4093       122.4612       0.241049       0.229803         3.0123         4.3643         4.4131         4.6223         4.7485        15.9646        56.3949       447.4003
    1945.23360         8.5000         8.9813         2.4803      0.0216892        80.7127       121.1921       124.2230       0.242663       0.231515         3.0379         4.3477         4.3955         4.6031         4.7275        15.9732        56.3888       447.4463
    1945.38600         8.5000         8.9708         2.4774      0.0211597        80.6679       122.9750       125.9848       0.244276       0.233226         3.0635         4.3311         4.3780         4.5838         4.7064        15.9818        56.3827       447.4922
    1945.53840         8.5000         8.9551         2.4742      0.0206890        80.6907       123.7437       126.6767       0.244990       0.234169         3.0844         4.3330         4.3788         4.5852         4.7055        16.0069        56.3804       447.0996
    1945.69080         8.5000         8.9241         2.4703      0.0203931        80.9135       121.5016       124.1923       0.243035       0.232831         3.0917         4.3899         4.4345         4.6475         4.7642        16.0806        56.3897       445.4050
    1945.84320         8.5000         8.8931         2.4664      0.0200973        81.1364       119.2596       121.7079       0.241079       0.231492         3.0989         4.4467         4.4901         4.7098         4.8230        16.1544        56.3990       443.7104
    1945.99560         8.5000         8.8620         2.4624      0.0198014        81.3593       117.0175       119.2235       0.239124       0.230153         3.1061         4.5035         4.5458         4.7721         4.8817        16.2282        56.4083       442.0158
    1946.14800         8.5000         8.8355         2.4516      0.0182868        82.1148       116.5819       118.6202       0.240322       0.231761         3.0720         4.5206         4.5612         4.7815         4.8872        16.2168        56.3970       443.0701
    1946.30040         8.5000         8.8091         2.4406      0.0167359        82.8861       116.2001       118.0728       0.241614       0.233456         3.0366         4.5364         4.5753         4.7893         4.8911        16.2029        56.3851       444.2061
    1946.45280         8.5000         8.7826         2.4296      0.0151850        83.6575       115.8182       117.5254       0.242906       0.235152         3.0012         4.5523         4.5895         4.7971         4.8950        16.1889        56.3732       445.3420
    1946.60520         8.5000         8.7510         2.4159      0.0158052        84.8322       113.7946       115.2903       0.240920       0.233777         2.9670         4.5600         4.5950         4.7970         4.8901        16.0412        56.3767       445.5307
    1946.75760         8.5000         8.7169         2.4012      0.0173994        86.1880       111.0344       112.2979       0.237463       0.231025         2.9332         4.5641         4.5967         4.7932         4.8812        15.8335        56.3871       445.2944
    1946.91000         8.5000         8.6829         2.3864      0.0189937        87.5438       108.2743       109.3055       0.234006       0.228273         2.8994         4.5682         4.5984         4.7895         4.8724        15.6257        56.3975       445.0580
    1947.06240         8.5000         8.6537         2.3777      0.0213486        88.7740       107.1938       108.0390       0.229585       0.224489         2.8886         4.5688         4.5969         4.7859         4.8645        15.5194        56.3986       445.1638
    1947.21480         8.5000         8.6314         2.3779      0.0248005        89.8231       108.5361       109.2619       0.223773       0.219218         2.9109         4.5645         4.5909         4.7827         4.8580        15.5593        56.3862       445.7632
    1947.36720         8.5000         8.6091         2.3781      0.0282523        90.8721       109.8784       110.4847       0.217961       0.213946         2.9332         4.5602         4.5849         4.7794         4.8514        15.5992        56.3739       446.3625
    1947.51960         8.5000         8.5968         2.3817      0.0312834        91.4179       111.1862       111.7325       0.213038       0.209373         2.9553         4.5650         4.5888         4.7860         4.8562        15.6323        56.3625       447.0568
    1947.67200         8.5000         8.6527         2.4085      0.0314629        88.5535       112.2608       113.1496       0.214134       0.209533         2.9762         4.6310         4.6598         4.8589         4.9380        15.6193        56.3579       448.3935
    1947.82440         8.5000         8.7086         2.4353      0.0316423        85.6890       113.3353       114.5667       0.215231       0.209693         2.9970         4.6971         4.7308         4.9319         5.0197        15.6063        56.3533       449.7303
    1947.97680         8.5000         8.7645         2.4621      0.0318218        82.8246       114.4099       115.9838       0.216327       0.209853         3.0179         4.7631         4.8018         5.0048         5.1015        15.5932        56.3487       451.0671
    1948.12920         8.5000         8.7614         2.4601      0.0298449        81.7722       113.4805       115.0237       0.221447       0.214849         3.0194         4.7582         4.7966         5.0080         5.1042        15.6656        56.3613       450.8183
    1948.28160         8.5000         8.7477         2.4529      0.0274807        81.0453       112.1913       113.6367       0.227290       0.220713         3.0174         4.7405         4.7776         4.9988         5.0928        15.7533        56.3771       450.2847
    1948.43400         8.5000         8.7340         2.4457      0.0251165        80.3183       110.9020       112.2497       0.233132       0.226578         3.0154         4.7228         4.7587         4.9895         5.0813        15.8409        56.3928       449.7512
    1948.58640         8.5000         8.7108         2.4327      0.0230262        81.1377       110.4969       111.7034       0.235688       0.229438         2.9937         4.6797         4.7134         4.9467         5.0348        15.8806        56.4060       450.4001
    1948.73880         8.5000         8.6805         2.4153      0.0211450        83.1384       110.7671       111.7993       0.235733       0.230004         2.9568         4.6173         4.6480         4.8782         4.9614        15.8836        56.4171       451.9523
    1948.89120         8.5000         8.6502         2.3978      0.0192637        85.1391       111.0372       111.8952       0.235778       0.230570         2.9199         4.5548         4.5826         4.8098         4.8881        15.8866        56.4282       453.5045
    1949.04360         8.5000         8.6315         2.3882      0.0184059        86.3865       110.9055       111.6531       0.234000       0.229169         2.9002         4.5264         4.5524         4.7760         4.8512        15.8700        56.4365       454.3419
    1949.19600         8.5000         8.6416         2.3984      0.0201020        85.7539       109.7707       110.5678       0.227672       0.222862         2.9232         4.5829         4.6102         4.8287         4.9056        15.8047        56.4378       453.3955
