~Version Information Block
VERS .                 2.00:  CWLS LOG ASCII STANDARD - VERSION 2.00
WRAP .                   NO:  One line per depth step
~Well Information Block
#MNEM.UNIT        Data Type   Information
#---------- ----------------  -----------
STRT .M           527.15160:  START DEPTH
STOP .M          2099.31000:  STOP DEPTH
STEP .M             0.15240:  STEP
NULL .              -999.25:  NULL VALUE
COMP .                     :  COMPANY
WELL .            Ngatoro-8:  WELL
FLD  .                     :  FIELD
LOC  .                     :  LOCATION
CTRY .                     :  COUNTRY
STAT .                     :  STATE
CNTY .                     :  COUNTY
SRVC .     New Zealand Petroleum Co Ltd:  SERVICE COMPANY
DATE .                     :  DATE
API  .                     :  API NUMBER
UWI  .         100000210422:  UNIQUE WELL ID
LATI .          -39.2038856:  LATITUDE
LONG .          174.1703227:  LONGITUDE
~Curve Information Block
#MNEM.UNIT         API CODE   Curve Description
#---------- ----------------  -----------------
DEPTH.M                    :  
BS   .IN                   :  Bit Size (Created in Geolog)
CALI .IN                   :  Caliper (HCAL)
DENS .G/C3                 :  Bulk Density (RHOZ) and HR Bulk Density (RHO8)
DTC  .US/F                 :  Delta Time (DT)
GR   .GAPI                 :  Gamma Ray (GR) and HR Gamma Ray (HGR)
NEUT .V/V                  :  Neutron Porosity (NPHI) and HR Neutron Porosity (HTNP)
NEUT_CORR.V/V                  :  Corrected NPHI (limestone units)
PEF  .B/E                  :  Photoelectric Factor (PEF) and (PEFZ)
RESD .OHMM                 :  HALS Deep Res. (HLLD) and HR HALS Deep Res. (HRLD)
RESS .OHMM                 :  HALS Shallow Res. (HLLS) and HR HALS Shallow Res. (HRLS)
SP   .MV                   :  Spontaneous Potential (SP)
~Parameter Information Block
#MNEM.UNIT            Value   Description
#---------- ----------------  -----------
CUR_INT_BOT.M                2100:  Current interpolated bottom
PROJECT.     New Zealand Log QC Project:  
SET  .     A0_FINAL_INTER_REF_D:  
ELEVATION_AMSL.M                 328:  Elevation above mean sea level
ELEVATION_REF.                   KB:  Measurement reference
FORMATION_AT_TD.             Manganui:  Formation at TD
GL_ELEVATION_AMSL.M            322.5000:  Ground level elevation above mean sea level
LICENCE_NUMBER.             PPL38706:  Licence number
ONSHORE_OR_OFFSHORE.              Onshore:  Onshore/offshore
PR_NUMBER.               PR2216:  Petroleum report number
SPUD_DATE.           22/04/1996:  Spud date
STATUS_AT_COMPLETION.     Suspended with 7" casing cemented to TD:  Status at completion
TD_DATE.           29/04/1996:  Total depth date
TOTAL_DEPTH_DRILLED.M                2100:  Total depth drilled
~Other Information Block
# 
~A       DEPTH             BS           CALI           DENS            DTC             GR           NEUT      NEUT_CORR            PEF           RESD           RESS             SP 
# ...
    1473.55560         8.5000         8.4405         2.4460        92.0889        98.9920       0.262941       0.257242         3.4610         3.1731         3.5712        59.8537
    1473.70800         8.5000         8.4319         2.4368        93.5285       101.3599       0.272703       0.267151         3.4814         3.1886         3.5842        59.8007
    1473.86040         8.5000         8.4234         2.4275        94.9680       103.7278       0.282466       0.277061         3.5018         3.2042         3.5972        59.7476
    1474.01280         8.5000         8.4157         2.4191        96.2996       105.8753       0.291517       0.286253         3.5183         3.2108         3.6004        59.7004
    1474.16520         8.5000         8.4179         2.4209        96.4543       105.6189       0.292813       0.287625         3.4909         3.1196         3.4965        59.7162
    1474.31760         8.5000         8.4201         2.4226        96.6091       105.3626       0.294110       0.288996         3.4635         3.0284         3.3926        59.7320
    1474.47000         8.5000         8.4223         2.4243        96.7638       105.1062       0.295406       0.290368         3.4360         2.9372         3.2887        59.7477
    1474.62240         8.5000         8.4211         2.4204        96.6239       105.2691       0.289249       0.284027         3.4191         2.9075         3.2533        59.8731
    1474.77480         8.5000         8.4191         2.4152        96.4118       105.5349       0.281264       0.275797         3.4046         2.8928         3.2347        60.0253
    1474.92720         8.5000         8.4170         2.4100        96.1996       105.8006       0.273280       0.267567         3.3902         2.8781         3.2162        60.1774
    1475.07960         8.5000         8.4162         2.4078        96.1388       105.7574       0.270999       0.265239         3.3881         2.8917         3.2171        60.3643
    1475.23200         8.5000         8.4165         2.4084        96.2163       105.4318       0.273934       0.268309         3.3973         2.9310         3.2358        60.5828
    1475.38440         8.5000         8.4167         2.4089        96.2939       105.1061       0.276869       0.271380         3.4065         2.9703         3.2546        60.8014
    1475.53680         8.5000         8.4165         2.4085        96.4226       104.6748       0.279984       0.274628         3.4118         2.9985         3.2649        60.9835
    1475.68920         8.5000         8.4146         2.4048        96.7123       103.9118       0.283660       0.278438         3.4051         2.9918         3.2489        61.0514
    1475.84160         8.5000         8.4128         2.4011        97.0020       103.1487       0.287337       0.282248         3.3983         2.9850         3.2330        61.1193
    1475.99400         8.5000         8.4109         2.3973        97.2916       102.3856       0.291014       0.286058         3.3915         2.9783         3.2170        61.1872
    1476.14640         8.5000         8.4117         2.3917        96.8525       104.6948       0.291390       0.286431         3.3708         2.9716         3.2084        61.1708
    1476.29880         8.5000         8.4125         2.3859        96.3835       107.1300       0.291631       0.286664         3.3496         2.9649         3.2001        61.1510
    1476.45120         8.5000         8.4134         2.3802        95.9145       109.5651       0.291872       0.286896         3.3283         2.9582         3.1919        61.1312
    1476.60360         8.5000         8.4189         2.3849        95.7608       109.3793       0.290459       0.285457         3.3425         2.9792         3.2090        61.0184
    1476.75600         8.5000         8.4266         2.3944        95.7557       107.9588       0.288268       0.283230         3.3735         3.0134         3.2381        60.8618
    1476.90840         8.5000         8.4343         2.4040        95.7506       106.5384       0.286076       0.281003         3.4044         3.0475         3.2672        60.7053
    1477.06080         8.5000         8.4402         2.4100        95.7262       105.5437       0.284075       0.278947         3.4239         3.0615         3.2825        60.5678
    1477.21320         8.5000         8.4433         2.4106        95.6728       105.1905       0.282360       0.277149         3.4261         3.0453         3.2770        60.4589
    1477.36560         8.5000         8.4464         2.4113        95.6194       104.8373       0.280646       0.275350         3.4283         3.0291         3.2716        60.3501
    1477.51800         8.5000         8.4499         2.4115        95.6373       104.6904       0.278845       0.273455         3.4288         3.0130         3.2658        60.2422
    1477.67040         8.5000         8.4565         2.4089        96.1881       106.0832       0.276403       0.270837         3.4169         2.9980         3.2572        60.1415
    1477.82280         8.5000         8.4631         2.4063        96.7389       107.4761       0.273961       0.268218         3.4049         2.9830         3.2486        60.0408
    1477.97520         8.5000         8.4696         2.4037        97.2897       108.8689       0.271519       0.265600         3.3930         2.9680         3.2401        59.9400
    1478.12760         8.5000         8.4667         2.4042        97.0773       107.9470       0.272895       0.267078         3.3928         2.9623         3.2418        60.0561
    1478.28000         8.5000         8.4620         2.4054        96.7165       106.5752       0.275013       0.269351         3.3948         2.9584         3.2456        60.2143
    1478.43240         8.5000         8.4573         2.4066        96.3558       105.2033       0.277132       0.271624         3.3969         2.9545         3.2493        60.3725
    1478.58480         8.5000         8.4590         2.4082        95.5105       105.4313       0.279336       0.273953         3.4010         2.9494         3.2448        60.5434
    1478.73720         8.5000         8.4659         2.4101        94.2789       106.9345       0.281607       0.276326         3.4068         2.9432         3.2339        60.7244
    1478.88960         8.5000         8.4728         2.4120        93.0473       108.4377       0.283879       0.278699         3.4126         2.9370         3.2229        60.9053
    1479.04200         8.5000         8.4761         2.4167        92.5103       109.1355       0.285100       0.279974         3.4276         2.9857         3.2624        61.0681
    1479.19440         8.5000         8.4701         2.4285        93.7993       107.7159       0.283558       0.278364         3.4668         3.1784         3.4343        61.1830
    1479.34680         8.5000         8.4640         2.4403        95.0883       106.2963       0.282016       0.276754         3.5059         3.3711         3.6063        61.2980
    1479.49920         8.5000         8.4580         2.4520        96.3774       104.8767       0.280474       0.275145         3.5450         3.5638         3.7782        61.4129
    1479.65160         8.5000         8.4497         2.4301        96.4079       104.2789       0.281558       0.276283         3.4839         3.3917         3.6378        61.3591
    1479.80400         8.5000         8.4414         2.4080        96.4318       103.6854       0.282656       0.277435         3.4222         3.2176         3.4957        61.3044
    1479.95640         8.5000         8.4331         2.3860        96.4557       103.0919       0.283755       0.278587         3.3605         3.0436         3.3536        61.2497
    1480.10880         8.5000         8.4376         2.3842        96.2269       104.5535       0.281847       0.276573         3.3589         2.9970         3.3074        61.1539
    1480.26120         8.5000         8.4473         2.3907        95.8967       106.8386       0.278735       0.273290         3.3813         3.0015         3.2997        61.0415
