~Version Information Block
VERS .                 2.00:  CWLS LOG ASCII STANDARD - VERSION 2.00
WRAP .                   NO:  One line per depth step
~Well Information Block
#MNEM.UNIT        Data Type   Information
#---------- ----------------  -----------
STRT .M           422.60520:  START DEPTH
STOP .M          2060.90520:  STOP DEPTH
STEP .M             0.15240:  STEP
NULL .              -999.25:  NULL VALUE
COMP .                     :  COMPANY
WELL .           Ngatoro-11:  WELL
FLD  .                     :  FIELD
LOC  .                     :  LOCATION
CTRY .                     :  COUNTRY
STAT .                     :  STATE
CNTY .                     :  COUNTY
SRVC .     New Zealand Petroleum Co Ltd:  SERVICE COMPANY
DATE .                     :  DATE
API  .                     :  API NUMBER
UWI  .         100000290650:  UNIQUE WELL ID
LATI .          -39.1949222:  LATITUDE
LONG .          174.1848583:  LONGITUDE
~Curve Information Block
#MNEM.UNIT         API CODE   Curve Description
#---------- ----------------  -----------------
DEPTH.M                    :  
BS   .IN                   :  Bit Size (Created in Geolog)
CALI .IN                   :  Caliper Log (CALI)
DENS .G/C3                 :  Compensated Formation Density Log (RHOB)
DRHO .G/C3                 :  Density Log Correction (DRHO)
DTC  .US/F                 :  8-10 Ft Compensated Sonic (BPB) (DTC3)
GR   .GAPI                 :  Gamma-Ray Log (GR)
GR_CORR.GAPI                 :  Gamma ray corrected
NEUT .V/V                  :  Neutron Log Porosity (NPHI)
NEUT_CORR.V/V                  :  Corrected NPHI (limestone units)
PEF  .B/E                  :  Photoelectric Factor (PEDF)
RESD .OHMM                 :  Laterolog Deep Resistivity (LLD)
RESD_CORR.OHMM                 :  Borehole corrected LLD
RESS .OHMM                 :  Shallow Laterolog (LLS)
RESS_CORR.OHMM                 :  Borehole corrected LLS
SP   .MV                   :  Spontaneous Potential Log (SP)
TENS .KGF                  :  Cable tension at surface (TENS)
~Parameter Information Block
#MNEM.UNIT            Value   Description
#---------- ----------------  -----------
CUR_INT_BOT.M                2063:  Current interpolated bottom
PROJECT.     New Zealand Log QC Project:  
SET  .     A0_FINAL_INTER_REF_D:  
ELEVATION_AMSL.M              291.65:  Elevation above mean sea level
ELEVATION_REF.                   KB:  Measurement reference
FORMATION_AT_TD.      Mount Messenger:  Formation at TD
GL_ELEVATION_AMSL.M            286.3000:  Ground level elevation above mean sea level
LICENCE_NUMBER.             PMP38148:  Licence number
ONSHORE_OR_OFFSHORE.              Onshore:  Onshore/offshore
PR_NUMBER.               PR2438:  Petroleum report number
SPUD_DATE.           28/06/1998:  Spud date
STATUS_AT_COMPLETION.     Cased and suspended as a future oil producer:  Status at completion
TD_DATE.           15/07/1998:  Total depth date
TOTAL_DEPTH_DRILLED.M                2063:  Total depth drilled
~Other Information Block
# 
~A       DEPTH             BS           CALI           DENS           DRHO            DTC             GR        GR_CORR           NEUT      NEUT_CORR            PEF           RESD      RESD_CORR           RESS      RESS_CORR             SP           TENS 
# ...
     954.17640         8.5000         8.8552         2.2242       0.019409       113.8403        97.8825        99.6951       0.311912       0.298123         2.5218         2.2491         2.2525         2.1681         2.2418       198.3453      1118.1727
     954.32880         8.5000         8.8673         2.2197       0.021130       114.0544        99.1288       101.0265       0.326846       0.312170         2.5081         2.2255         2.2288         2.1563         2.2304       198.2605      1117.3346
     954.48120         8.5000         8.8793         2.2153       0.022851       114.2685       100.3751       102.3580       0.341780       0.326216         2.4944         2.2018         2.2051         2.1445         2.2189       198.1757      1116.4966
     954.63360         8.5000         8.8824         2.2131       0.018143       113.2311       100.2748       102.2714       0.355347       0.339117         2.4884         2.1798         2.1827         2.1198         2.1940       197.5883      1117.3534
     954.78600         8.5000         8.8843         2.2113       0.012530       112.0176        99.9851       101.9853       0.368722       0.351857         2.4836         2.1580         2.1605         2.0933         2.1671       196.9303      1118.4486
     954.93840         8.5000         8.8861         2.2096       0.006918       110.8040        99.6954       101.6992       0.382096       0.364597         2.4787         2.1361         2.1383         2.0668         2.1403       196.2722      1119.5438
     955.09080         8.5000         8.8857         2.2322       0.005055       106.3663        99.7715       101.7743       0.370126       0.353160         2.5261         2.2601         2.2646         2.1602         2.2350       195.7458      1119.8774
     955.24320         8.5000         8.8836         2.2715       0.005735        99.7413       100.0958       102.0946       0.340961       0.325322         2.6090         2.4828         2.4917         2.3349         2.4123       195.3087      1119.6942
     955.39560         8.5000         8.8816         2.3108       0.006415        93.1163       100.4201       102.4148       0.311797       0.297484         2.6920         2.7056         2.7188         2.5097         2.5896       194.8716      1119.5110
     955.54800         8.5000         8.8849         2.3377       0.005892        89.9405       102.0410       104.0888       0.288689       0.275340         2.7732         2.9094         2.9268         2.6785         2.7612       194.4220      1119.0532
     955.70040         8.5000         8.8997         2.3375       0.002751        94.2667       106.4823       108.7070       0.278757       0.265582         2.8506         3.0718         3.0930         2.8345         2.9205       193.9451      1117.9984
     955.85280         8.5000         8.9145         2.3374      -0.000390        98.5930       110.9236       113.3253       0.268824       0.255823         2.9280         3.2343         3.2592         2.9904         3.0799       193.4683      1116.9436
     956.00520         8.5000         8.9293         2.3370      -0.003226       102.8498       115.2310       117.8078       0.259597       0.246735         2.9999         3.3882         3.4168         3.1387         3.2314       192.9930      1115.8667
     956.15760         8.5000         8.9476         2.3289       0.002574       105.1421       115.7501       118.4490       0.270347       0.256636         2.9180         3.3025         3.3303         3.0698         3.1627       192.5630      1114.1665
     956.31000         8.5000         8.9660         2.3209       0.008373       107.4345       116.2691       119.0902       0.281098       0.266537         2.8360         3.2167         3.2437         3.0008         3.0940       192.1331      1112.4663
     956.46240         8.5000         8.9843         2.3128       0.014173       109.7268       116.7882       119.7313       0.291849       0.276437         2.7540         3.1310         3.1572         2.9319         3.0253       191.7031      1110.7661
     956.61480         8.5000         8.9779         2.3093       0.015743       110.0500       119.4727       122.4392       0.322917       0.306166         2.7657         3.1179         3.1436         2.9348         3.0278       191.7370      1110.4961
     956.76720         8.5000         8.9634         2.3071       0.015928       109.7283       122.8666       125.8240       0.360639       0.342388         2.8080         3.1286         3.1538         2.9612         3.0537       191.9227      1110.6943
     956.91960         8.5000         8.9490         2.3050       0.016112       109.4066       126.2604       129.2088       0.398361       0.378610         2.8502         3.1393         3.1641         2.9877         3.0795       192.1085      1110.8927
     957.07200         8.5000         8.9412         2.3071       0.017103       108.7989       125.3930       128.2741       0.413743       0.393422         2.8690         3.1570         3.1818         3.0167         3.1084       192.0538      1112.3911
     957.22440         8.5000         8.9409         2.3140       0.018995       107.8717       119.7674       122.5159       0.404178       0.384324         2.8613         3.1827         3.2080         3.0485         3.1408       191.7306      1115.3412
     957.37680         8.5000         8.9405         2.3209       0.020887       106.9445       114.1417       116.7578       0.394612       0.375227         2.8537         3.2084         3.2341         3.0804         3.1731       191.4073      1118.2914
     957.52920         8.5000         8.9412         2.3262       0.022294       106.3248       110.0272       112.5520       0.382931       0.364089         2.8526         3.2245         3.2506         3.1031         3.1963       191.0525      1120.9291
     957.68160         8.5000         8.9463         2.3244       0.021658       107.0025       112.2888       114.8959       0.362319       0.344340         2.8789         3.2005         3.2264         3.0871         3.1804       190.5644      1122.2488
     957.83400         8.5000         8.9514         2.3227       0.021021       107.6802       114.5504       117.2399       0.341706       0.324591         2.9053         3.1765         3.2022         3.0711         3.1645       190.0762      1123.5685
     957.98640         8.5000         8.9564         2.3210       0.020385       108.3580       116.8119       119.5838       0.321094       0.304842         2.9316         3.1526         3.1780         3.0550         3.1486       189.5881      1124.8882
     958.13880         8.5000         8.9607         2.3191       0.018512       108.0228       116.5367       119.3276       0.330631       0.313822         2.9266         3.1415         3.1669         3.0515         3.1453       189.7700      1120.2184
     958.29120         8.5000         8.9648         2.3171       0.016518       107.5884       116.0129       118.8166       0.343122       0.325617         2.9186         3.1317         3.1572         3.0491         3.1432       190.0176      1114.9617
     958.44360         8.5000         8.9689         2.3151       0.014524       107.1540       115.4890       118.3056       0.355613       0.337413         2.9105         3.1219         3.1474         3.0468         3.1411       190.2652      1109.7050
     958.59600         8.5000         8.9643         2.3155       0.014859       106.7370       115.5339       118.3239       0.347480       0.329761         2.8813         3.1195         3.1447         3.0493         3.1433       190.2327      1110.4626
     958.74840         8.5000         8.9546         2.3172       0.016563       106.3303       115.9129       118.6532       0.327230       0.310684         2.8396         3.1213         3.1461         3.0546         3.1480       190.0358      1114.7538
     958.90080         8.5000         8.9449         2.3189       0.018267       105.9236       116.2919       118.9826       0.306981       0.291607         2.7979         3.1232         3.1475         3.0599         3.1526       189.8389      1119.0450
