~Version Information Block
VERS .                 2.00:  CWLS LOG ASCII STANDARD - VERSION 2.00
WRAP .                   NO:  One line per depth step
~Well Information Block
#MNEM.UNIT        Data Type   Information
#---------- ----------------  -----------
STRT .M            16.61160:  START DEPTH
STOP .M          1898.90400:  STOP DEPTH
STEP .M             0.15240:  STEP
NULL .              -999.25:  NULL VALUE
COMP .                     :  COMPANY
WELL .         Ngatoro-3ST1:  WELL
FLD  .                     :  FIELD
LOC  .                     :  LOCATION
CTRY .                     :  COUNTRY
STAT .                     :  STATE
CNTY .                     :  COUNTY
SRVC .     Greymouth Petroleum Ltd:  SERVICE COMPANY
DATE .                     :  DATE
API  .                     :  API NUMBER
UWI  .         100000787700:  UNIQUE WELL ID
LATI .          -39.1846084:  LATITUDE
LONG .          174.1883756:  LONGITUDE
~Curve Information Block
#MNEM.UNIT         API CODE   Curve Description
#---------- ----------------  -----------------
DEPTH.M                    :  
BS   .IN                   :  Bit Size (Created in Geolog)
CALI .IN                   :  HRCC Cal. Caliper (HCAL)
DENS .G/C3                 :  HRDD High Resolution Formation Density (RHO8)
DRHO .G/C3                 :  HRDD Density Correction (HDRA)
GR   .GAPI                 :  HiRes Gamma-Ray (EHGR)
NEUT .V/V                  :  HiRes Thermal Neutron Porosity (HTNP)
PEF  .B/E                  :  HRDD High Resolution Formation Photoelectric Factor (PEF8)
RESD .OHMM                 :  Array Induction Two Foot Resistivity A90 (AHT90)
RESM .OHMM                 :  Array Induction Two Foot Resistivity A30 (AHT30)
RESS .OHMM                 :  Array Induction Two Foot Resistivity A10 (AHT10)
SP   .MV                   :  SP Shifted (SP)
TEMP .DEGC                 :  HTC Temperature (HTEM)
TENS .KGF                  :  Cable Tension (TENS)
~Parameter Information Block
#MNEM.UNIT            Value   Description
#---------- ----------------  -----------
CUR_INT_BOT.M                1899:  Current interpolated bottom
PROJECT.     New Zealand Log QC Project:  
SET  .     A0_FINAL_INTER_REF_D:  
ELEVATION_AMSL.M              262.91:  Elevation above mean sea level
ELEVATION_REF.                   DF:  Measurement reference
FORMATION_AT_TD.             Manganui:  Formation at TD
GL_ELEVATION_AMSL.M            259.3000:  Ground level elevation above mean sea level
KICK_OFF_DATE.           26/09/2005:  Kick off date
KICK_OFF_DEPTH.M                 645:  Kick off depth
LICENCE_NUMBER.             PMP38148:  Licence number
ONSHORE_OR_OFFSHORE.              Onshore:  Onshore/offshore
PARENT_WELL.            Ngatoro-3:  Parent well
PR_NUMBER.               PR3237:  Petroleum report number
STATUS_AT_COMPLETION.     Completed ready for perforating:  Status at completion
TD_DATE.           05/10/2005:  Total depth date
TOTAL_DEPTH_DRILLED.M             1898.82:  Total depth drilled
~Other Information Block
# 
~A       DEPTH             BS           CALI           DENS           DRHO             GR           NEUT            PEF           RESD           RESM           RESS             SP           TEMP           TENS 
# ...
    1645.15800         6.0000         6.0644         2.3934      0.0054610        95.2096       0.292107         2.9596         2.6956         2.6704         2.6583       193.3042        54.8011      1282.5853
    1645.31040         6.0000         6.0830         2.3964      0.0044303        96.0194       0.294557         2.9658         2.6969         2.6760         2.6623       191.4751        54.8011      1275.1355
    1645.46280         6.0000         6.1015         2.3994      0.0033995        96.8293       0.297007         2.9720         2.6981         2.6816         2.6663       189.6460        54.8011      1267.6858
    1645.61520         6.0000         6.1075         2.4006      0.0049194        99.2349       0.296392         2.9830         2.6981         2.6847         2.6706       186.4775        54.8011      1265.2743
    1645.76760         6.0000         6.1095         2.4012      0.0072629       102.1559       0.294787         2.9954         2.6977         2.6870         2.6751       182.8765        54.8011      1264.4899
    1645.92000         6.0000         6.1114         2.4018      0.0096064       105.0768       0.293182         3.0079         2.6973         2.6893         2.6795       179.2755        54.8011      1263.7054
    1646.07240         6.0000         6.0944         2.4002      0.0105980       104.7305       0.291453         3.0109         2.6980         2.6894         2.6807       179.3103        54.8011      1276.1072
    1646.22480         6.0000         6.0565         2.3964      0.0100958       100.7739       0.289587         3.0035         2.6997         2.6872         2.6783       183.3626        54.8011      1303.0792
    1646.37720         6.0000         6.0185         2.3925      0.0095935        96.8173       0.287721         2.9962         2.7014         2.6850         2.6759       187.4150        54.8011      1330.0511
    1646.52960         6.0000         5.9942         2.3910      0.0097842        93.6550       0.286560         2.9989         2.7021         2.6825         2.6728       189.1451        54.8011      1350.7861
    1646.68200         6.0000         6.0264         2.3995      0.0128495        93.7879       0.288324         3.0437         2.6989         2.6787         2.6671       181.2412        54.8011      1345.6458
    1646.83440         6.0000         6.0585         2.4081      0.0159148        93.9209       0.290088         3.0885         2.6956         2.6750         2.6614       173.3372        54.8011      1340.5054
    1646.98680         6.0000         6.0907         2.4166      0.0189801        94.0538       0.291852         3.1332         2.6923         2.6713         2.6557       165.4333        54.8011      1335.3649
    1647.13920         6.0000         6.1160         2.4196      0.0237965        96.3242       0.289479         3.1261         2.6943         2.6736         2.6561       161.0525        54.8011      1315.7197
    1647.29160         6.0000         6.1406         2.4220      0.0287790        98.7973       0.286713         3.1140         2.6967         2.6764         2.6572       157.0059        54.8011      1294.6990
    1647.44400         6.0000         6.1652         2.4244      0.0337614       101.2703       0.283948         3.1019         2.6992         2.6793         2.6583       152.9593        54.8011      1273.6783
    1647.59640         6.0000         6.1630         2.4220      0.0328098       102.4873       0.285024         3.0996         2.7015         2.6824         2.6592       149.7148        54.8011      1264.7209
    1647.74880         6.0000         6.1453         2.4169      0.0284110       102.9746       0.288331         3.1031         2.7038         2.6855         2.6601       146.9364        54.8011      1262.7711
    1647.90120         6.0000         6.1276         2.4117      0.0240122       103.4619       0.291638         3.1066         2.7061         2.6886         2.6609       144.1579        54.8011      1260.8213
    1648.05360         6.0000         6.1090         2.4094      0.0227006       103.9191       0.292502         3.1128         2.7088         2.6916         2.6610       144.0340        54.8011      1258.5573
    1648.20600         6.0000         6.0887         2.4122      0.0270798       104.3208       0.288862         3.1239         2.7124         2.6941         2.6598       148.8033        54.8011      1255.7139
    1648.35840         6.0000         6.0684         2.4150      0.0314589       104.7225       0.285223         3.1351         2.7159         2.6967         2.6586       153.5725        54.8011      1252.8705
    1648.51080         6.0000         6.0488         2.4178      0.0354121       104.9757       0.281862         3.1425         2.7197         2.6993         2.6577       158.6427        54.8011      1250.9076
    1648.66320         6.0000         6.0374         2.4207      0.0337807       103.2816       0.282148         3.1006         2.7269         2.7026         2.6604       167.6574        54.8011      1260.4883
    1648.81560         6.0000         6.0261         2.4236      0.0321493       101.5875       0.282435         3.0587         2.7342         2.7060         2.6631       176.6722        54.8011      1270.0688
    1648.96800         6.0000         6.0147         2.4266      0.0305180        99.8934       0.282721         3.0168         2.7414         2.7093         2.6658       185.6870        54.8011      1279.6495
    1649.12040         6.0000         6.0170         2.4271      0.0316664       100.1210       0.283683         3.0431         2.7389         2.7058         2.6630       200.2041        54.8011      1290.1771
    1649.27280         6.0000         6.0229         2.4271      0.0335535       100.8592       0.284824         3.0877         2.7339         2.7004         2.6587       216.1838        54.8011      1300.9563
    1649.42520         6.0000         6.0287         2.4270      0.0354407       101.5975       0.285965         3.1322         2.7288         2.6951         2.6544       232.1634        54.8011      1311.7356
    1649.57760         6.0000         6.0266         2.4244      0.0337008       101.1464       0.289006         3.1333         2.7215         2.6900         2.6516       241.3267        54.8011      1309.6364
    1649.73000         6.0000         6.0169         2.4193      0.0284647        99.5489       0.293880         3.0925         2.7120         2.6851         2.6501       243.9195        54.8011      1295.1237
    1649.88240         6.0000         6.0071         2.4142      0.0232287        97.9514       0.298753         3.0517         2.7026         2.6802         2.6487       246.5123        54.8011      1280.6108
    1650.03480         6.0000         6.0059         2.4084      0.0180177        96.9418       0.302129         3.0213         2.6930         2.6753         2.6467       248.0374        54.8011      1272.0554
    1650.18720         6.0000         6.0342         2.4005      0.0128915        97.9190       0.300448         3.0261         2.6832         2.6704         2.6428       245.9544        54.8011      1283.6317
    1650.33960         6.0000         6.0624         2.3926      0.0077653        98.8963       0.298767         3.0309         2.6735         2.6655         2.6390       243.8715        54.8011      1295.2080
    1650.49200         6.0000         6.0906         2.3847      0.0026391        99.8735       0.297086         3.0357         2.6637         2.6606         2.6351       241.7885        54.8011      1306.7843
    1650.64440         6.0000         6.1309         2.3997      0.0062366       100.1354       0.297340         3.0795         2.6661         2.6627         2.6358       238.9470        54.8011      1298.2292
    1650.79680         6.0000         6.1718         2.4161      0.0103175       100.3577       0.297701         3.1256         2.6693         2.6652         2.6367       236.0634        54.8011      1288.5588
    1650.94920         6.0000         6.2128         2.4324      0.0143984       100.5800       0.298062         3.1716         2.6724         2.6676         2.6376       233.1798        54.8011      1278.8885
