~Version Information Block
VERS .                 2.00:  CWLS LOG ASCII STANDARD - VERSION 2.00
WRAP .                   NO:  One line per depth step
~Well Information Block
#MNEM.UNIT        Data Type   Information
#---------- ----------------  -----------
STRT .M           376.58040:  START DEPTH
STOP .M          2000.85960:  STOP DEPTH
STEP .M             0.15240:  STEP
NULL .              -999.25:  NULL VALUE
COMP .                     :  COMPANY
WELL .            Ngatoro-9:  WELL
FLD  .                     :  FIELD
LOC  .                     :  LOCATION
CTRY .                     :  COUNTRY
STAT .                     :  STATE
CNTY .                     :  COUNTY
SRVC .     New Zealand Petroleum Co Ltd:  SERVICE COMPANY
DATE .                     :  DATE
API  .                     :  API NUMBER
UWI  .         100000290639:  UNIQUE WELL ID
LATI .          -39.1948838:  LATITUDE
LONG .          174.1848348:  LONGITUDE
~Curve Information Block
#MNEM.UNIT         API CODE   Curve Description
#---------- ----------------  -----------------
DEPTH.M                    :  
BS   .IN                   :  Bit Size (Created in Geolog)
CALI .IN                   :  Caliper Log (CALI)
DENS .G/C3                 :  Compensated Formation Density Log (RHOB)
DRHO .G/C3                 :  Density Log Correction (DRHO)
DTC  .US/F                 :  3-5 Ft Compensated Sonic (BPB) (DTC1)
GR   .GAPI                 :  Gamma-Ray Log (GR)
GR_CORR.GAPI                 :  Gamma ray corrected
NEUT .V/V                  :  Neutron Log Porosity (NPHI)
NEUT_CORR.V/V                  :  Corrected NPHI (limestone units)
PEF  .B/E                  :  Photoelectric Factor (PEDF)
RESD .OHMM                 :  Laterolog Deep Resistivity (LLD)
RESD_CORR.OHMM                 :  Borehole corrected LLD
RESS .OHMM                 :  Shallow Laterolog (LLS)
RESS_CORR.OHMM                 :  Borehole corrected LLS
SP   .MV                   :  Spontaneous Potential Log (SP)
TEMP .DEGC                 :  Temperature (TEMP)
TENS .KGF                  :  Cable tension at surface (TENS)
~Parameter Information Block
#MNEM.UNIT            Value   Description
#---------- ----------------  -----------
CUR_INT_BOT.M              2001.5:  Current interpolated bottom
PROJECT.     New Zealand Log QC Project:  
SET  .     A0_FINAL_INTER_REF_D:  
ELEVATION_AMSL.M              291.65:  Elevation above mean sea level
ELEVATION_REF.                   KB:  Measurement reference
FORMATION_AT_TD.      Mount Messenger:  Formation at TD
GL_ELEVATION_AMSL.M            286.3000:  Ground level elevation above mean sea level
LICENCE_NUMBER.             PMP38148:  Licence number
ONSHORE_OR_OFFSHORE.              Onshore:  Onshore/offshore
PR_NUMBER.               PR2437:  Petroleum report number
SPUD_DATE.           06/06/1998:  Spud date
STATUS_AT_COMPLETION.     Cased and suspended as a potential oil producer:  Status at completion
TD_DATE.           20/06/1998:  Total depth date
TOTAL_DEPTH_DRILLED.M              2001.5:  Total depth drilled
~Other Information Block
# 
~A       DEPTH             BS           CALI           DENS           DRHO            DTC             GR        GR_CORR           NEUT      NEUT_CORR            PEF           RESD      RESD_CORR           RESS      RESS_CORR             SP           TEMP           TENS 
# ...
    1725.32040         8.5000         9.1950         2.3611      0.0178871        93.8734       104.7178       108.4655       0.237528       0.222711         2.8178         3.0378         3.0678         3.4325         3.5574        21.8464        53.5473       401.9249
    1725.47280         8.5000         9.2489         2.3541      0.0177609        94.1691       102.5576       106.5232       0.242379       0.226413         2.7875         3.0326         3.0647         3.4308         3.5603        22.0747        53.5591       401.7967
    1725.62520         8.5000         9.2046         2.3555      0.0209166        94.0717       102.6048       106.3383       0.245750       0.230336         2.7541         3.0507         3.0813         3.4500         3.5761        22.1928        53.5786       403.1774
    1725.77760         8.5000         9.1389         2.3588      0.0247854        93.8889       103.1315       106.5354       0.248801       0.234306         2.7200         3.0738         3.1022         3.4737         3.5946        22.2868        53.5998       404.8861
    1725.93000         8.5000         9.0732         2.3620      0.0286542        93.7062       103.6582       106.7324       0.251851       0.238275         2.6860         3.0970         3.1231         3.4974         3.6132        22.3809        53.6210       406.5947
    1726.08240         8.5000         9.0639         2.3640      0.0301697        92.9432       103.1005       106.1077       0.251164       0.237775         2.6584         3.1493         3.1763         3.5509         3.6672        22.6471        53.6250       407.3952
    1726.23480         8.5000         9.1024         2.3650      0.0296860        91.6874       101.6215       104.7849       0.247301       0.233477         2.6365         3.2264         3.2569         3.6296         3.7514        23.0595        53.6145       407.4242
    1726.38720         8.5000         9.1410         2.3659      0.0292023        90.4315       100.1426       103.4622       0.243439       0.229178         2.6145         3.3036         3.3375         3.7083         3.8355        23.4719        53.6039       407.4533
    1726.53960         8.5000         9.1574         2.3638      0.0273896        89.8207        98.4886       101.8479       0.240307       0.225936         2.6091         3.3619         3.3979         3.7578         3.8876        23.7744        53.5989       406.7793
    1726.69200         8.5000         9.1109         2.3528      0.0217913        91.0473        96.3362        99.4031       0.239257       0.225704         2.6511         3.3668         3.4007         3.7241         3.8485        23.7639        53.6098       404.1028
    1726.84440         8.5000         9.0644         2.3417      0.0161929        92.2738        94.1838        96.9584       0.238207       0.225471         2.6931         3.3717         3.4034         3.6903         3.8093        23.7535        53.6207       401.4263
    1726.99680         8.5000         9.0179         2.3307      0.0105946        93.5003        92.0314        94.5136       0.237157       0.225239         2.7352         3.3766         3.4061         3.6565         3.7702        23.7430        53.6315       398.7498
    1727.14920         8.5000         8.9754         2.3466      0.0108306        91.6124        92.8106        95.1047       0.231136       0.220184         2.7713         3.3901         3.4178         3.6698         3.7795        23.4018        53.6335       399.1717
    1727.30160         8.5000         8.9331         2.3631      0.0111917        89.6577        93.6526        95.7609       0.225009       0.215026         2.8073         3.4039         3.4296         3.6841         3.7898        23.0535        53.6353       399.6600
    1727.45400         8.5000         8.8907         2.3795      0.0115529        87.7030        94.4947        96.4171       0.218882       0.209868         2.8434         3.4176         3.4414         3.6984         3.8002        22.7053        53.6372       400.1483
    1727.60640         8.5000         8.9005         2.3753      0.0143615        88.6783        96.2906        98.3060       0.226774       0.217227         2.8052         3.2963         3.3181         3.5943         3.6952        22.6726        53.6377       400.0750
    1727.75880         8.5000         8.9327         2.3621      0.0182284        90.9204        98.4989       100.7279       0.240727       0.229999         2.7351         3.1165         3.1363         3.4390         3.5403        22.7764        53.6377       399.7588
    1727.91120         8.5000         8.9650         2.3490      0.0220952        93.1624       100.7072       103.1498       0.254681       0.242770         2.6649         2.9368         2.9545         3.2838         3.3855        22.8802        53.6377       399.4427
    1728.06360         8.5000         8.9609         2.3455      0.0249637        94.3549       101.8818       104.3257       0.262280       0.250119         2.6330         2.8021         2.8170         3.1637         3.2635        23.0675        53.6377       399.2061
    1728.21600         8.5000         8.9061         2.3554      0.0264382        94.0819       101.6129       103.7619       0.261008       0.249895         2.6546         2.7300         2.7413         3.0927         3.1874        23.3715        53.6377       399.0806
    1728.36840         8.5000         8.8513         2.3654      0.0279127        93.8090       101.3441       103.1981       0.259736       0.249672         2.6761         2.6580         2.6657         3.0217         3.1113        23.6755        53.6377       398.9551
    1728.52080         8.5000         8.8037         2.3756      0.0293407        93.3315       100.8019       102.3951       0.258060       0.248929         2.6974         2.6006         2.6052         2.9653         3.0505        23.9090        53.6384       398.8791
    1728.67320         8.5000         8.8022         2.3875      0.0304741        91.5604        98.5306       100.0791       0.253831       0.244897         2.7172         2.6355         2.6407         3.0009         3.0865        23.6971        53.6438       399.1166
    1728.82560         8.5000         8.8006         2.3994      0.0316074        89.7894        96.2593        97.7630       0.249601       0.240866         2.7370         2.6704         2.6763         3.0366         3.1225        23.4852        53.6492       399.3541
    1728.97800         8.5000         8.7990         2.4113      0.0327408        88.0183        93.9880        95.4469       0.245372       0.236834         2.7569         2.7054         2.7118         3.0723         3.1585        23.2732        53.6546       399.5916
    1729.13040         8.5000         8.8113         2.4346      0.0324965        84.4603        93.6355        95.1487       0.231214       0.223042         2.7981         3.0188         3.0314         3.3663         3.4569        23.0391        53.6550       402.6524
    1729.28280         8.5000         8.8259         2.4599      0.0320199        80.6008        93.6068        95.1910       0.215381       0.207604         2.8430         3.3792         3.3989         3.7038         3.7996        22.8013        53.6546       406.1896
    1729.43520         8.5000         8.8405         2.4851      0.0315432        76.7413        93.5780        95.2332       0.199548       0.192165         2.8879         3.7396         3.7664         4.0414         4.1422        22.5634        53.6541       409.7268
    1729.58760         8.5000         8.8585         2.4771      0.0311507        77.3703        95.0973        96.8748       0.204183       0.196274         2.8842         3.7245         3.7517         4.0310         4.1331        22.6711        53.6511       409.9811
    1729.74000         8.5000         8.8790         2.4443      0.0308205        81.3195        97.7617        99.6995       0.223959       0.214843         2.8445         3.4316         3.4544         3.7633         3.8637        23.0343        53.6461       407.8071
