~Version Information Block
VERS .                 2.00:  CWLS LOG ASCII STANDARD - VERSION 2.00
WRAP .                   NO:  One line per depth step
~Well Information Block
#MNEM.UNIT        Data Type   Information
#---------- ----------------  -----------
STRT .M           527.15160:  START DEPTH
STOP .M          2099.31000:  STOP DEPTH
STEP .M             0.15240:  STEP
NULL .              -999.25:  NULL VALUE
COMP .                     :  COMPANY
WELL .            Ngatoro-8:  WELL
FLD  .                     :  FIELD
LOC  .                     :  LOCATION
CTRY .                     :  COUNTRY
STAT .                     :  STATE
CNTY .                     :  COUNTY
SRVC .     New Zealand Petroleum Co Ltd:  SERVICE COMPANY
DATE .                     :  DATE
API  .                     :  API NUMBER
UWI  .         100000210422:  UNIQUE WELL ID
LATI .          -39.2038856:  LATITUDE
LONG .          174.1703227:  LONGITUDE
~Curve Information Block
#MNEM.UNIT         API CODE   Curve Description
#---------- ----------------  -----------------
DEPTH.M                    :  
BS   .IN                   :  Bit Size (Created in Geolog)
CALI .IN                   :  Caliper (HCAL)
DENS .G/C3                 :  Bulk Density (RHOZ) and HR Bulk Density (RHO8)
DTC  .US/F                 :  Delta Time (DT)
GR   .GAPI                 :  Gamma Ray (GR) and HR Gamma Ray (HGR)
NEUT .V/V                  :  Neutron Porosity (NPHI) and HR Neutron Porosity (HTNP)
NEUT_CORR.V/V                  :  Corrected NPHI (limestone units)
PEF  .B/E                  :  Photoelectric Factor (PEF) and (PEFZ)
RESD .OHMM                 :  HALS Deep Res. (HLLD) and HR HALS Deep Res. (HRLD)
RESS .OHMM                 :  HALS Shallow Res. (HLLS) and HR HALS Shallow Res. (HRLS)
SP   .MV                   :  Spontaneous Potential (SP)
~Parameter Information Block
#MNEM.UNIT            Value   Description
#---------- ----------------  -----------
CUR_INT_BOT.M                2100:  Current interpolated bottom
PROJECT.     New Zealand Log QC Project:  
SET  .     A0_FINAL_INTER_REF_D:  
ELEVATION_AMSL.M                 328:  Elevation above mean sea level
ELEVATION_REF.                   KB:  Measurement reference
FORMATION_AT_TD.             Manganui:  Formation at TD
GL_ELEVATION_AMSL.M            322.5000:  Ground level elevation above mean sea level
LICENCE_NUMBER.             PPL38706:  Licence number
ONSHORE_OR_OFFSHORE.              Onshore:  Onshore/offshore
PR_NUMBER.               PR2216:  Petroleum report number
SPUD_DATE.           22/04/1996:  Spud date
STATUS_AT_COMPLETION.     Suspended with 7" casing cemented to TD:  Status at completion
TD_DATE.           29/04/1996:  Total depth date
TOTAL_DEPTH_DRILLED.M                2100:  Total depth drilled
~Other Information Block
# 
~A       DEPTH             BS           CALI           DENS            DTC             GR           NEUT      NEUT_CORR            PEF           RESD           RESS             SP 
# ...
    1981.04760         8.5000         8.4459         2.5394        92.1838       101.7069       0.217123       0.211250         3.4978         4.0035         4.0574        85.6300
    1981.20000         8.5000         8.4475         2.5374        92.2518       101.3864       0.217725       0.211899         3.4462         4.1095         4.1496        85.1784
    1981.35240         8.5000         8.4490         2.5355        92.3199       101.0658       0.218327       0.212548         3.3945         4.2155         4.2418        84.7267
    1981.50480         8.5000         8.4508         2.5336        92.4209       100.8400       0.218952       0.213220         3.3453         4.3155         4.3278        84.3115
    1981.65720         8.5000         8.4588         2.5339        93.5360       103.5277       0.220265       0.214596         3.3720         4.2324         4.2242        85.0153
    1981.80960         8.5000         8.4667         2.5342        94.6511       106.2155       0.221578       0.215972         3.3986         4.1493         4.1206        85.7191
    1981.96200         8.5000         8.4747         2.5345        95.7663       108.9032       0.222892       0.217347         3.4253         4.0662         4.0170        86.4229
    1982.11440         8.5000         8.4738         2.5350        96.2132       108.2060       0.226862       0.221525         3.4516         3.9811         3.9232        86.3160
    1982.26680         8.5000         8.4698         2.5356        96.4383       106.3844       0.231714       0.226633         3.4777         3.8954         3.8328        85.9397
    1982.41920         8.5000         8.4659         2.5362        96.6633       104.5628       0.236567       0.231741         3.5038         3.8096         3.7423        85.5635
    1982.57160         8.5000         8.4613         2.5362        96.9277       103.7319       0.239310       0.234625         3.5229         3.7235         3.6685        85.2490
    1982.72400         8.5000         8.4558         2.5356        97.2364       104.0188       0.239672       0.235002         3.5342         3.6368         3.6132        85.0043
    1982.87640         8.5000         8.4504         2.5350        97.5451       104.3057       0.240034       0.235378         3.5454         3.5501         3.5580        84.7596
    1983.02880         8.5000         8.4466         2.5335        97.8002       104.7543       0.241230       0.236533         3.5558         3.4859         3.5166        84.4801
    1983.18120         8.5000         8.4501         2.5281        97.8250       105.8969       0.246003       0.241028         3.5625         3.5186         3.5343        84.0513
    1983.33360         8.5000         8.4536         2.5228        97.8497       107.0396       0.250776       0.245522         3.5691         3.5512         3.5520        83.6226
    1983.48600         8.5000         8.4571         2.5174        97.8745       108.1822       0.255548       0.250016         3.5757         3.5838         3.5697        83.1938
    1983.63840         8.5000         8.4593         2.5193        97.5566       108.2784       0.249278       0.243868         3.5633         3.5993         3.5865        83.2617
    1983.79080         8.5000         8.4613         2.5219        97.2040       108.2688       0.241891       0.236643         3.5490         3.6131         3.6033        83.3798
    1983.94320         8.5000         8.4633         2.5245        96.8514       108.2591       0.234504       0.229418         3.5346         3.6269         3.6200        83.4979
    1984.09560         8.5000         8.4648         2.5245        96.7425       107.6391       0.232333       0.227344         3.5182         3.6610         3.6482        83.6150
    1984.24800         8.5000         8.4659         2.5231        96.7783       106.6563       0.233262       0.228329         3.5004         3.7071         3.6832        83.7313
    1984.40040         8.5000         8.4671         2.5217        96.8140       105.6736       0.234191       0.229314         3.4827         3.7531         3.7182        83.8477
    1984.55280         8.5000         8.4692         2.5241        96.5901       104.8476       0.233435       0.228510         3.4807         3.7862         3.7413        83.9212
    1984.70520         8.5000         8.4732         2.5337        95.8763       104.3173       0.229499       0.224330         3.5085         3.7945         3.7421        83.9135
    1984.85760         8.5000         8.4772         2.5432        95.1624       103.7869       0.225564       0.220150         3.5362         3.8029         3.7429        83.9059
    1985.01000         8.5000         8.4814         2.5517        94.4673       103.2330       0.222011       0.216376         3.5606         3.8156         3.7488        83.8746
    1985.16240         8.5000         8.4879         2.5442        94.0378       102.3443       0.223910       0.218384         3.5360         3.8898         3.8261        83.5055
    1985.31480         8.5000         8.4944         2.5367        93.6084       101.4555       0.225808       0.220392         3.5115         3.9639         3.9035        83.1363
    1985.46720         8.5000         8.5009         2.5292        93.1789       100.5668       0.227707       0.222401         3.4869         4.0381         3.9809        82.7672
    1985.61960         8.5000         8.5066         2.5216        93.5678       100.6313       0.231217       0.226065         3.4839         4.0764         4.0101        82.8331
    1985.77200         8.5000         8.5121         2.5139        94.1812       100.9571       0.235169       0.230184         3.4868         4.1049         4.0262        83.0184
    1985.92440         8.5000         8.5175         2.5062        94.7946       101.2830       0.239121       0.234303         3.4897         4.1333         4.0423        83.2036
    1986.07680         8.5000         8.5132         2.5073        94.9499       102.0200       0.240336       0.235599         3.4921         4.0992         4.0123        83.1621
    1986.22920         8.5000         8.4991         2.5171        94.6544       103.1617       0.238859       0.234116         3.4941         4.0033         3.9369        82.8976
    1986.38160         8.5000         8.4851         2.5269        94.3588       104.3034       0.237381       0.232633         3.4962         3.9075         3.8615        82.6330
    1986.53400         8.5000         8.4747         2.5346        94.2184       105.2718       0.236607       0.231855         3.4979         3.8376         3.8110        82.4511
    1986.68640         8.5000         8.4770         2.5354        94.6183       105.6362       0.238280       0.233534         3.4990         3.8579         3.8468        82.5575
    1986.83880         8.5000         8.4793         2.5363        95.0181       106.0007       0.239954       0.235213         3.5000         3.8782         3.8826        82.6639
    1986.99120         8.5000         8.4816         2.5371        95.4180       106.3652       0.241627       0.236892         3.5010         3.8985         3.9184        82.7703
    1987.14360         8.5000         8.4859         2.5396        95.3493       105.1090       0.238979       0.234157         3.5326         3.8610         3.8972        83.2624
    1987.29600         8.5000         8.4905         2.5422        95.2518       103.7535       0.236066       0.231152         3.5659         3.8199         3.8725        83.7782
    1987.44840         8.5000         8.4950         2.5448        95.1544       102.3980       0.233153       0.228146         3.5993         3.7789         3.8478        84.2939
    1987.60080         8.5000         8.4959         2.5486        94.7229       103.3002       0.228540       0.223354         3.5986         3.8290         3.9237        84.2068
    1987.75320         8.5000         8.4950         2.5532        94.1203       105.3581       0.223056       0.217646         3.5804         3.9258         4.0510        83.8111
