~Version Information Block
VERS .                 2.00:  CWLS LOG ASCII STANDARD - VERSION 2.00
WRAP .                   NO:  One line per depth step
~Well Information Block
#MNEM.UNIT        Data Type   Information
#---------- ----------------  -----------
STRT .M           535.07640:  START DEPTH
STOP .M          2419.95960:  STOP DEPTH
STEP .M             0.15240:  STEP
NULL .              -999.25:  NULL VALUE
COMP .                     :  COMPANY
WELL .            Ngatoro-3:  WELL
FLD  .                     :  FIELD
LOC  .                     :  LOCATION
CTRY .                     :  COUNTRY
STAT .                     :  STATE
CNTY .                     :  COUNTY
SRVC .     New Zealand Petroleum Co Ltd:  SERVICE COMPANY
DATE .                     :  DATE
API  .                     :  API NUMBER
UWI  .         100000158215:  UNIQUE WELL ID
LATI .          -39.1846093:  LATITUDE
LONG .          174.1883769:  LONGITUDE
~Curve Information Block
#MNEM.UNIT         API CODE   Curve Description
#---------- ----------------  -----------------
DEPTH.M                    :  
BS   .IN                   :  Bit Size (Created in Geolog)
CALI .IN                   :  Caliper Log (CALI)
DENS .G/C3                 :  Compensated Formation Density Log (RHOB)
DRHO .G/C3                 :  Density Log Correction (DRHO)
DTC  .US/F                 :  Delta T (DT)
GR   .GAPI                 :  Gamma-Ray Log (GR)
GR_CORR.GAPI                 :  Gamma ray corrected
NEUT .V/V                  :  Neutron Log Porosity (NPHI)
NEUT_CORR.V/V                  :  Corrected NPHI (limestone units)
PEF  .B/E                  :  Photoelectric Factor (PEDF)
RESD .OHMM                 :  Laterolog Deep Resistivity (LLD)
RESD_CORR.OHMM                 :  Borehole corrected LLD
RESS .OHMM                 :  Shallow Laterolog (LLS)
RESS_CORR.OHMM                 :  Borehole corrected LLS
SP   .MV                   :  Spontaneous Potential Log (SP)
TEMP .DEGC                 :  Temperature (TEMP)
TENS .KGF                  :  Cable tension at surface (TENS)
~Parameter Information Block
#MNEM.UNIT            Value   Description
#---------- ----------------  -----------
CUR_INT_BOT.M                2420:  Current interpolated bottom
PROJECT.     New Zealand Log QC Project:  
SET  .     A0_FINAL_INTER_REF_D:  
ELEVATION_AMSL.M              267.94:  Elevation above mean sea level
ELEVATION_REF.                   KB:  Measurement reference
FORMATION_AT_TD.             Manganui:  Formation at TD
GL_ELEVATION_AMSL.M            263.2000:  Ground level elevation above mean sea level
LICENCE_NUMBER.             PPL38706:  Licence number
ONSHORE_OR_OFFSHORE.              Onshore:  Onshore/offshore
PR_NUMBER.               PR1863:  Petroleum report number
SPUD_DATE.           14/01/1993:  Spud date
STATUS_AT_COMPLETION.     Suspended as a potential oil producer:  Status at completion
TD_DATE.           08/02/1993:  Total depth date
TOTAL_DEPTH_DRILLED.M                2420:  Total depth drilled
~Other Information Block
# 
~A       DEPTH             BS           CALI           DENS           DRHO            DTC             GR        GR_CORR           NEUT      NEUT_CORR            PEF           RESD      RESD_CORR           RESS      RESS_CORR             SP           TEMP           TENS 
# ...
     923.69640         8.5000         8.5857         2.3291      0.0121382       103.3134       111.3266       111.4362       0.346965       0.336686         2.9709         2.4472         2.4461         2.5018         2.5630        57.6599        47.2683       931.6860
     923.84880         8.5000         8.5911         2.3294      0.0120961       103.5106       114.4696       114.6150       0.337168       0.327051         3.0023         2.4460         2.4451         2.5036         2.5651        57.5834        47.2792       932.0749
     924.00120         8.5000         8.5966         2.3298      0.0120534       103.7076       117.5807       117.7617       0.327373       0.317420         3.0339         2.4449         2.4441         2.5054         2.5672        57.5076        47.2900       932.4612
     924.15360         8.5000         8.6002         2.3289      0.0119324       103.8704       116.6801       116.8814       0.317881       0.308135         3.0981         2.4478         2.4473         2.5062         2.5682        57.5046        47.2900       932.5343
     924.30600         8.5000         8.6038         2.3279      0.0118113       104.0331       115.7795       116.0011       0.308389       0.298851         3.1623         2.4508         2.4504         2.5069         2.5691        57.5015        47.2900       932.6074
     924.45840         8.5000         8.6075         2.3270      0.0116903       104.1959       114.8790       115.1207       0.298897       0.289566         3.2264         2.4538         2.4536         2.5076         2.5701        57.4985        47.2900       932.6804
     924.61080         8.5000         8.6045         2.3242      0.0106690       103.9993       114.0984       114.3209       0.300052       0.290746         3.2042         2.4568         2.4565         2.5110         2.5733        57.4292        47.2900       932.2390
     924.76320         8.5000         8.5990         2.3207      0.0093098       103.6679       113.3629       113.5514       0.305204       0.295856         3.1496         2.4598         2.4594         2.5154         2.5774        57.3350        47.2900       931.6044
     924.91560         8.5000         8.5936         2.3172      0.0079506       103.3364       112.6274       112.7819       0.310356       0.300966         3.0949         2.4628         2.4622         2.5199         2.5815        57.2408        47.2900       930.9698
     925.06800         8.5000         8.5891         2.3157      0.0073774       103.0762       112.1451       112.2727       0.319768       0.310197         3.0676         2.4595         2.4587         2.5225         2.5839        57.2459        47.2900       931.0216
     925.22040         8.5000         8.5860         2.3169      0.0077798       102.9045       111.9772       112.0865       0.334468       0.324543         3.0743         2.4484         2.4473         2.5228         2.5840        57.3743        47.2900       931.9252
     925.37280         8.5000         8.5829         2.3181      0.0081821       102.7327       111.8092       111.9004       0.349167       0.338889         3.0809         2.4372         2.4358         2.5232         2.5842        57.5027        47.2900       932.8288
     925.52520         8.5000         8.5811         2.3194      0.0087875       102.6493       111.3974       111.4773       0.359099       0.348577         3.0806         2.4270         2.4254         2.5238         2.5847        57.6313        47.2900       933.9177
     925.67760         8.5000         8.5856         2.3215      0.0104177       103.0118       109.7543       109.8579       0.344966       0.334756         3.0452         2.4214         2.4198         2.5259         2.5871        57.7607        47.2900       935.9420
     925.83000         8.5000         8.5901         2.3236      0.0120479       103.3743       108.1112       108.2386       0.330834       0.320935         3.0097         2.4158         2.4143         2.5280         2.5895        57.8900        47.2900       937.9662
     925.98240         8.5000         8.5945         2.3257      0.0136780       103.7367       106.4681       106.6193       0.316701       0.307114         2.9742         2.4102         2.4088         2.5301         2.5919        58.0194        47.2900       939.9905
     926.13480         8.5000         8.6046         2.3264      0.0148373       103.9952       107.6444       107.8560       0.317917       0.308071         3.0193         2.4027         2.4017         2.5167         2.5789        58.0080        47.2900       942.5823
     926.28720         8.5000         8.6153         2.3268      0.0159350       104.2400       109.1888       109.4655       0.321137       0.310957         3.0748         2.3950         2.3942         2.5012         2.5640        57.9783        47.2900       945.2484
     926.43960         8.5000         8.6260         2.3273      0.0170327       104.4848       110.7332       111.0750       0.324356       0.313844         3.1304         2.3873         2.3868         2.4857         2.5490        57.9485        47.2900       947.9144
     926.59200         8.5000         8.6432         2.3259      0.0160048       104.6128       111.0547       111.4953       0.325929       0.314992         3.1189         2.3798         2.3798         2.4774         2.5416        58.0487        47.2900       947.7978
     926.74440         8.5000         8.6646         2.3233      0.0135813       104.6639       110.5733       111.1350       0.326421       0.314999         3.0634         2.3724         2.3731         2.4738         2.5393        58.2341        47.2900       945.8544
     926.89680         8.5000         8.6860         2.3207      0.0111578       104.7150       110.0918       110.7746       0.326913       0.315006         3.0079         2.3650         2.3663         2.4703         2.5369        58.4196        47.2900       943.9111
     927.04920         8.5000         8.6995         2.3218      0.0093259       103.9029       109.2351       109.9906       0.323685       0.311599         2.9757         2.4132         2.4158         2.5293         2.5971        58.3769        47.2900       941.4860
     927.20160         8.5000         8.6964         2.3306      0.0087350       101.2800       107.5910       108.3180       0.312658       0.301032         2.9923         2.5782         2.5834         2.7196         2.7885        57.8557        47.2900       938.0500
     927.35400         8.5000         8.6934         2.3394      0.0081441        98.6571       105.9470       106.6454       0.301630       0.290466         3.0089         2.7433         2.7510         2.9099         2.9799        57.3345        47.2900       934.6142
     927.50640         8.5000         8.6910         2.3480      0.0076799        96.1617       104.4612       105.1360       0.291310       0.280568         3.0238         2.9005         2.9108         3.0913         3.1625        56.8484        47.2900       931.4088
     927.65880         8.5000         8.7042         2.3505      0.0101093        96.5736       106.5830       107.3480       0.297145       0.285920         3.0006         2.8802         2.8907         3.0700         3.1421        57.1651        47.2900       933.4614
     927.81120         8.5000         8.7173         2.3531      0.0125387        96.9855       108.7049       109.5600       0.302979       0.291272         2.9774         2.8599         2.8706         3.0488         3.1217        57.4819        47.2900       935.5141
     927.96360         8.5000         8.7305         2.3556      0.0149680        97.3975       110.8268       111.7720       0.308814       0.296624         2.9542         2.8396         2.8505         3.0276         3.1013        57.7986        47.2900       937.5667
     928.11600         8.5000         8.7398         2.3537      0.0146545       100.1483       114.1638       115.1942       0.318437       0.305679         2.9284         2.7390         2.7486         2.9169         2.9903        58.0894        47.2916       937.1279
