~Version Information Block
VERS .                 2.00:  CWLS LOG ASCII STANDARD - VERSION 2.00
WRAP .                   NO:  One line per depth step
~Well Information Block
#MNEM.UNIT        Data Type   Information
#---------- ----------------  -----------
STRT .M           527.15160:  START DEPTH
STOP .M          2099.31000:  STOP DEPTH
STEP .M             0.15240:  STEP
NULL .              -999.25:  NULL VALUE
COMP .                     :  COMPANY
WELL .            Ngatoro-8:  WELL
FLD  .                     :  FIELD
LOC  .                     :  LOCATION
CTRY .                     :  COUNTRY
STAT .                     :  STATE
CNTY .                     :  COUNTY
SRVC .     New Zealand Petroleum Co Ltd:  SERVICE COMPANY
DATE .                     :  DATE
API  .                     :  API NUMBER
UWI  .         100000210422:  UNIQUE WELL ID
LATI .          -39.2038856:  LATITUDE
LONG .          174.1703227:  LONGITUDE
~Curve Information Block
#MNEM.UNIT         API CODE   Curve Description
#---------- ----------------  -----------------
DEPTH.M                    :  
BS   .IN                   :  Bit Size (Created in Geolog)
CALI .IN                   :  Caliper (HCAL)
DENS .G/C3                 :  Bulk Density (RHOZ) and HR Bulk Density (RHO8)
DTC  .US/F                 :  Delta Time (DT)
GR   .GAPI                 :  Gamma Ray (GR) and HR Gamma Ray (HGR)
NEUT .V/V                  :  Neutron Porosity (NPHI) and HR Neutron Porosity (HTNP)
NEUT_CORR.V/V                  :  Corrected NPHI (limestone units)
PEF  .B/E                  :  Photoelectric Factor (PEF) and (PEFZ)
RESD .OHMM                 :  HALS Deep Res. (HLLD) and HR HALS Deep Res. (HRLD)
RESS .OHMM                 :  HALS Shallow Res. (HLLS) and HR HALS Shallow Res. (HRLS)
SP   .MV                   :  Spontaneous Potential (SP)
~Parameter Information Block
#MNEM.UNIT            Value   Description
#---------- ----------------  -----------
CUR_INT_BOT.M                2100:  Current interpolated bottom
PROJECT.     New Zealand Log QC Project:  
SET  .     A0_FINAL_INTER_REF_D:  
ELEVATION_AMSL.M                 328:  Elevation above mean sea level
ELEVATION_REF.                   KB:  Measurement reference
FORMATION_AT_TD.             Manganui:  Formation at TD
GL_ELEVATION_AMSL.M            322.5000:  Ground level elevation above mean sea level
LICENCE_NUMBER.             PPL38706:  Licence number
ONSHORE_OR_OFFSHORE.              Onshore:  Onshore/offshore
PR_NUMBER.               PR2216:  Petroleum report number
SPUD_DATE.           22/04/1996:  Spud date
STATUS_AT_COMPLETION.     Suspended with 7" casing cemented to TD:  Status at completion
TD_DATE.           29/04/1996:  Total depth date
TOTAL_DEPTH_DRILLED.M                2100:  Total depth drilled
~Other Information Block
# 
~A       DEPTH             BS           CALI           DENS            DTC             GR           NEUT      NEUT_CORR            PEF           RESD           RESS             SP 
# ...
    1267.81560         8.5000         8.4181         2.3526        99.5439       109.4202       0.291747       0.286566         3.3561         2.3144         2.5265        57.8405
    1267.96800         8.5000         8.4086         2.3521        99.5201       107.6601       0.298065       0.292993         3.3694         2.3040         2.5176        57.8955
    1268.12040         8.5000         8.4065         2.3517        99.4964       107.6308       0.296508       0.291452         3.3707         2.2920         2.5064        57.5116
    1268.27280         8.5000         8.4065         2.3513        99.4726       108.0616       0.292858       0.287792         3.3687         2.2797         2.4946        57.0110
    1268.42520         8.5000         8.4064         2.3509        99.4489       108.4924       0.289208       0.284133         3.3667         2.2674         2.4828        56.5104
    1268.57760         8.5000         8.4062         2.3507        99.4251       108.3162       0.285394       0.280232         3.3606         2.2629         2.4777        56.1009
    1268.73000         8.5000         8.4057         2.3507        99.4014       107.5549       0.281421       0.276100         3.3504         2.2658         2.4789        55.7791
    1268.88240         8.5000         8.4052         2.3507        99.3776       106.7937       0.277448       0.271967         3.3403         2.2687         2.4802        55.4573
    1269.03480         8.5000         8.4072         2.3515        99.3538       105.7702       0.274229       0.268616         3.3315         2.2782         2.4877        55.2434
    1269.18720         8.5000         8.4176         2.3550        99.3301       103.8610       0.273556       0.267905         3.3272         2.3099         2.5167        55.3940
    1269.33960         8.5000         8.4280         2.3584        99.3063       101.9518       0.272883       0.267194         3.3230         2.3416         2.5457        55.5446
    1269.49200         8.5000         8.4384         2.3618        99.2826       100.0425       0.272210       0.266483         3.3188         2.3733         2.5746        55.6952
    1269.64440         8.5000         8.4349         2.3672        99.2588       100.3960       0.277107       0.271536         3.3376         2.4320         2.6309        55.9746
    1269.79680         8.5000         8.4306         2.3728        99.2351       100.8748       0.282313       0.276909         3.3576         2.4923         2.6886        56.2611
    1269.94920         8.5000         8.4262         2.3783        99.2113       101.3537       0.287519       0.282282         3.3777         2.5525         2.7464        56.5476
    1270.10160         8.5000         8.4235         2.3757        99.1875       102.3258       0.298873       0.293945         3.3641         2.5159         2.7063        56.7368
    1270.25400         8.5000         8.4217         2.3690        99.1638       103.5446       0.313302       0.308753         3.3336         2.4309         2.6173        56.8772
    1270.40640         8.5000         8.4198         2.3623        99.1400       104.7635       0.327732       0.323561         3.3030         2.3459         2.5283        57.0177
    1270.55880         8.5000         8.4176         2.3580        99.1163       105.3899       0.332774       0.328688         3.2808         2.2900         2.4688        57.1730
    1270.71120         8.5000         8.4149         2.3576        99.0925       105.0733       0.322874       0.318402         3.2718         2.2806         2.4563        57.3517
    1270.86360         8.5000         8.4122         2.3572        99.0688       104.7567       0.312974       0.308116         3.2628         2.2712         2.4438        57.5305
    1271.01600         8.5000         8.4099         2.3566        99.0450       104.5074       0.303722       0.298526         3.2572         2.2621         2.4311        57.6810
    1271.16840         8.5000         8.4110         2.3539        99.0212       104.8316       0.299996       0.294861         3.2801         2.2555         2.4162        57.5909
    1271.32080         8.5000         8.4121         2.3511        98.9975       105.1558       0.296270       0.291197         3.3031         2.2489         2.4013        57.5007
    1271.47320         8.5000         8.4132         2.3484        98.9737       105.4800       0.292545       0.287533         3.3261         2.2422         2.3865        57.4106
    1271.62560         8.5000         8.4253         2.3498        98.9500       106.2616       0.293137       0.288123         3.3301         2.2422         2.3833        57.0166
    1271.77800         8.5000         8.4398         2.3520        98.9262       107.1408       0.294650       0.289620         3.3300         2.2437         2.3825        56.5578
    1271.93040         8.5000         8.4543         2.3543        98.9025       108.0199       0.296164       0.291118         3.3298         2.2451         2.3818        56.0990
    1272.08280         8.5000         8.4556         2.3521        98.8787       107.8975       0.298785       0.293701         3.3227         2.2267         2.3643        55.7996
    1272.23520         8.5000         8.4458         2.3462        98.8549       106.9330       0.302338       0.297197         3.3098         2.1917         2.3326        55.6341
    1272.38760         8.5000         8.4359         2.3404        98.8312       105.9686       0.305890       0.300693         3.2968         2.1566         2.3009        55.4687
    1272.54000         8.5000         8.4277         2.3368        98.8074       105.4457       0.309128       0.303873         3.2913         2.1402         2.2896        55.3679
    1272.69240         8.5000         8.4240         2.3399        98.7837       106.1636       0.311484       0.306163         3.3068         2.1762         2.3356        55.4487
    1272.84480         8.5000         8.4204         2.3429        98.7599       106.8815       0.313841       0.308453         3.3222         2.2122         2.3817        55.5295
    1272.99720         8.5000         8.4167         2.3460        98.7362       107.5994       0.316197       0.310743         3.3376         2.2482         2.4277        55.6104
    1273.14960         8.5000         8.4144         2.3554        98.7124       108.3300       0.310580       0.305277         3.3323         2.2794         2.4582        55.8871
    1273.30200         8.5000         8.4122         2.3649        98.6887       109.0609       0.304813       0.299666         3.3267         2.3104         2.4884        56.1674
    1273.45440         8.5000         8.4100         2.3744        98.6649       109.7917       0.299047       0.294055         3.3210         2.3415         2.5185        56.4478
    1273.60680         8.5000         8.4085         2.3793        98.6412       109.9457       0.302088       0.297157         3.3307         2.3682         2.5382        56.6950
    1273.75920         8.5000         8.4073         2.3823        98.6174       109.8534       0.308890       0.303980         3.3470         2.3929         2.5533        56.9280
    1273.91160         8.5000         8.4061         2.3852        98.5936       109.7610       0.315691       0.310803         3.3633         2.4176         2.5685        57.1610
    1274.06400         8.5000         8.4060         2.3841        98.5699       108.8298       0.316265       0.311370         3.3671         2.4131         2.5602        57.3869
    1274.21640         8.5000         8.4076         2.3774        98.5461       106.7399       0.308237       0.303298         3.3535         2.3682         2.5195        57.6033
    1274.36880         8.5000         8.4092         2.3708        98.5224       104.6500       0.300210       0.295226         3.3400         2.3233         2.4788        57.8196
    1274.52120         8.5000         8.4101         2.3643        98.4986       102.6579       0.294209       0.289176         3.3291         2.2825         2.4415        57.9689
