~Version Information Block
VERS .                 2.00:  CWLS LOG ASCII STANDARD - VERSION 2.00
WRAP .                   NO:  One line per depth step
~Well Information Block
#MNEM.UNIT        Data Type   Information
#---------- ----------------  -----------
STRT .M           387.55320:  START DEPTH
STOP .M          1999.48800:  STOP DEPTH
STEP .M             0.15240:  STEP
NULL .              -999.25:  NULL VALUE
COMP .                     :  COMPANY
WELL .           Ngatoro-13:  WELL
FLD  .                     :  FIELD
LOC  .                     :  LOCATION
CTRY .                     :  COUNTRY
STAT .                     :  STATE
CNTY .                     :  COUNTY
SRVC .     Greymouth Petroleum Ltd:  SERVICE COMPANY
DATE .                     :  DATE
API  .                     :  API NUMBER
UWI  .         100000787699:  UNIQUE WELL ID
LATI .            -39.21139:  LATITUDE
LONG .            174.18349:  LONGITUDE
~Curve Information Block
#MNEM.UNIT         API CODE   Curve Description
#---------- ----------------  -----------------
DEPTH.M                    :  
BS   .IN                   :  Bit Size (Created in Geolog)
CALI .IN                   :  HRCC Cal. Caliper (HCAL)
DENS .G/C3                 :  HRDD Standard Resolution Formation Density (RHOZ) and (RHO8)
DRHO .G/C3                 :  HRDD Density Correction (HDRA)
DTC  .US/F                 :  Delta-T Compressional (DTCO)
DTS  .US/F                 :  Delta-T Shear (DTSM)
GR   .GAPI                 :  Gamma-Ray (GR) and HiRes Gamma-Ray (EHGR)
NEUT .V/V                  :  Enhanced Thermal Neutron Porosity(NPOR) and (HNPO)
PEF  .B/E                  :  HRDD Std Resolution Formation Photoelectric Factor (PEFZ) and (PEF8)
RESD .OHMM                 :  HALS Laterolog Deep R (HLLD) and HALS HiRes Deep Res (HRLD)
RESS .OHMM                 :  HALS Shallow Res. (HLLS) and HR HALS Shallow Res. (HRLS)
SP   .MV                   :  SP Shifted (SP)
TENS .KGF                  :  Cable Tension (TENS)
~Parameter Information Block
#MNEM.UNIT            Value   Description
#---------- ----------------  -----------
CUR_INT_BOT.M                2032:  Current interpolated bottom
PROJECT.     New Zealand Log QC Project:  
SET  .     A0_FINAL_INTER_REF_D:  
ELEVATION_AMSL.M              323.75:  Elevation above mean sea level
ELEVATION_REF.                   DF:  Measurement reference
FORMATION_AT_TD.                 Moki:  Formation at TD
GL_ELEVATION_AMSL.M            323.3000:  Ground level elevation above mean sea level
LICENCE_NUMBER.             PMP38148:  Licence number
ONSHORE_OR_OFFSHORE.              Onshore:  Onshore/offshore
PR_NUMBER.               PR3545:  Petroleum report number
SPUD_DATE.           28/10/2006:  Spud date
STATUS_AT_COMPLETION.     Completed ready for perforating:  Status at completion
TD_DATE.           10/11/2006:  Total depth date
TOTAL_DEPTH_DRILLED.M                2032:  Total depth drilled
~Other Information Block
# 
~A       DEPTH             BS           CALI           DENS           DRHO            DTC            DTS             GR           NEUT            PEF           RESD           RESS             SP           TENS 
# ...
     839.26680         8.5000         8.5195         2.2312        -0.0041       114.0078       247.5345        75.0898       0.340177         2.5872         7.7943         6.0234       226.1575      1009.2605
     839.41920         8.5000         8.5356         2.2339        -0.0031       113.8740       246.7981        76.6082       0.343526         2.5826         7.6143         5.8549       226.3708      1012.1039
     839.57160         8.5000         8.5464         2.2335        -0.0022       113.9483       246.1997        76.5984       0.344289         2.5868         7.4984         5.7578       226.4309      1012.4407
     839.72400         8.5000         8.5510         2.2297        -0.0016       114.2574       245.7569        74.8643       0.342133         2.6010         7.4548         5.7411       226.3183      1009.9487
     839.87640         8.5000         8.5556         2.2258        -0.0009       114.5665       245.3140        73.1301       0.339978         2.6152         7.4111         5.7245       226.2057      1007.4567
     840.02880         8.5000         8.5435         2.2222        -0.0003       114.8416       245.2580        72.1310       0.338242         2.6262         7.3301         5.6756       226.0699      1006.0154
     840.18120         8.5000         8.4600         2.2194         0.0005       114.9707       246.8618        74.2862       0.338308         2.6240         7.0883         5.4882       225.8344      1009.0841
     840.33360         8.5000         8.3766         2.2166         0.0012       115.0998       248.4656        76.4415       0.338374         2.6219         6.8465         5.3008       225.5990      1012.1527
     840.48600         8.5000         8.2931         2.2139         0.0019       115.2289       250.0694        78.5967       0.338440         2.6197         6.6048         5.1133       225.3635      1015.2213
     840.63840         8.5000         8.3269         2.2100        -0.0001       115.3190       250.2343        77.2227       0.339441         2.6330         6.7769         5.2641       225.7324      1015.0579
     840.79080         8.5000         8.3725         2.2061        -0.0024       115.4051       250.2535        75.4918       0.340536         2.6478         6.9909         5.4491       226.1624      1014.5675
     840.94320         8.5000         8.4182         2.2021        -0.0047       115.4912       250.2728        73.7608       0.341631         2.6627         7.2049         5.6341       226.5925      1014.0771
     841.09560         8.5000         8.4423         2.2046        -0.0053       115.0834       249.6336        72.8553       0.338179         2.6512         7.3871         5.7828       226.9276      1013.0734
     841.24800         8.5000         8.4535         2.2109        -0.0049       114.3821       248.6032        72.4404       0.332026         2.6239         7.5503         5.9100       227.2064      1011.7647
     841.40040         8.5000         8.4648         2.2173        -0.0045       113.6808       247.5728        72.0254       0.325872         2.5967         7.7135         6.0372       227.4852      1010.4560
     841.55280         8.5000         8.4790         2.2241        -0.0037       113.0663       246.9545        72.3699       0.326420         2.5842         7.7717         6.0776       227.7246      1007.3459
     841.70520         8.5000         8.4988         2.2318        -0.0024       112.6154       247.1137        74.1469       0.339608         2.5997         7.6320         5.9542       227.8898      1000.8380
     841.85760         8.5000         8.5186         2.2395        -0.0011       112.1646       247.2728        75.9239       0.352797         2.6152         7.4922         5.8307       228.0550       994.3300
     842.01000         8.5000         8.5385         2.2466         0.0001       111.7727       247.4613        77.5054       0.363939         2.6296         7.3845         5.7341       228.2084       988.4576
     842.16240         8.5000         8.5602         2.2437         0.0005       112.2197       248.0676        76.3031       0.345937         2.6289         7.7345         6.0195       228.1953       991.6347
     842.31480         8.5000         8.5819         2.2408         0.0008       112.6667       248.6739        75.1007       0.327934         2.6282         8.0845         6.3050       228.1822       994.8118
     842.46720         8.5000         8.6037         2.2379         0.0012       113.1137       249.2802        73.8984       0.309932         2.6274         8.4345         6.5904       228.1691       997.9890
     842.61960         8.5000         8.5946         2.2351         0.0025       113.1981       249.4546        73.2514       0.316058         2.6300         8.4850         6.6523       227.7445       999.8792
     842.77200         8.5000         8.5770         2.2322         0.0041       113.1832       249.5105        72.7568       0.328802         2.6334         8.4534         6.6529       227.2071      1001.4164
     842.92440         8.5000         8.5594         2.2293         0.0057       113.1682       249.5664        72.2622       0.341546         2.6369         8.4219         6.6536       226.6697      1002.9536
     843.07680         8.5000         8.5964         2.2282         0.0058       113.1511       248.4245        71.5776       0.347083         2.6387         8.2994         6.6034       226.3197      1001.7915
     843.22920         8.5000         8.6871         2.2288         0.0042       113.1319       246.1035        70.7060       0.345527         2.6391         8.0876         6.5033       226.1542       997.9722
     843.38160         8.5000         8.7777         2.2295         0.0027       113.1126       243.7825        69.8345       0.343971         2.6394         7.8757         6.4031       225.9887       994.1528
     843.53400         8.5000         8.8631         2.2319         0.0011       112.9914       241.8452        70.0474       0.341636         2.6461         7.6880         6.3125       225.8636       994.5464
     843.68640         8.5000         8.9302         2.2406        -0.0006       112.5148       241.2441        74.0372       0.336590         2.6753         7.5842         6.2549       225.8790      1009.6107
     843.83880         8.5000         8.9974         2.2492        -0.0024       112.0382       240.6430        78.0269       0.331544         2.7045         7.4804         6.1974       225.8945      1024.6749
     843.99120         8.5000         9.0645         2.2579        -0.0041       111.5616       240.0419        82.0166       0.326498         2.7337         7.3766         6.1398       225.9100      1039.7393
     844.14360         8.5000         9.1505         2.2602        -0.0036       112.0209       240.2100        85.6869       0.332970         2.7652         7.5503         6.2673       226.1137      1034.7834
     844.29600         8.5000         9.2376         2.2621        -0.0030       112.5375       240.4253        89.3377       0.340148         2.7968         7.7409         6.4061       226.3289      1028.6007
     844.44840         8.5000         9.3248         2.2640        -0.0024       113.0541       240.6405        92.9884       0.347326         2.8284         7.9315         6.5448       226.5442      1022.4180
     844.60080         8.5000         9.2621         2.2718         0.0008       113.5542       240.3807        94.5536       0.351212         2.8426         8.1652         6.7378       226.4656      1015.9142
     844.75320         8.5000         9.1228         2.2825         0.0053       114.0459       239.8776        95.0512       0.353412         2.8479         8.4210         6.9585       226.2367      1009.2461
     844.90560         8.5000         8.9835         2.2933         0.0099       114.5375       239.3746        95.5488       0.355612         2.8531         8.6767         7.1792       226.0078      1002.5779
     845.05800         8.5000         8.8527         2.2931         0.0111       114.4445       238.8412        95.6125       0.362138         2.8443         8.9149         7.3847       225.6939       999.0858
