~Version Information Block
VERS .                 2.00:  CWLS LOG ASCII STANDARD - VERSION 2.00
WRAP .                   NO:  One line per depth step
~Well Information Block
#MNEM.UNIT        Data Type   Information
#---------- ----------------  -----------
STRT .M           376.58040:  START DEPTH
STOP .M          2000.85960:  STOP DEPTH
STEP .M             0.15240:  STEP
NULL .              -999.25:  NULL VALUE
COMP .                     :  COMPANY
WELL .            Ngatoro-9:  WELL
FLD  .                     :  FIELD
LOC  .                     :  LOCATION
CTRY .                     :  COUNTRY
STAT .                     :  STATE
CNTY .                     :  COUNTY
SRVC .     New Zealand Petroleum Co Ltd:  SERVICE COMPANY
DATE .                     :  DATE
API  .                     :  API NUMBER
UWI  .         100000290639:  UNIQUE WELL ID
LATI .          -39.1948838:  LATITUDE
LONG .          174.1848348:  LONGITUDE
~Curve Information Block
#MNEM.UNIT         API CODE   Curve Description
#---------- ----------------  -----------------
DEPTH.M                    :  
BS   .IN                   :  Bit Size (Created in Geolog)
CALI .IN                   :  Caliper Log (CALI)
DENS .G/C3                 :  Compensated Formation Density Log (RHOB)
DRHO .G/C3                 :  Density Log Correction (DRHO)
DTC  .US/F                 :  3-5 Ft Compensated Sonic (BPB) (DTC1)
GR   .GAPI                 :  Gamma-Ray Log (GR)
GR_CORR.GAPI                 :  Gamma ray corrected
NEUT .V/V                  :  Neutron Log Porosity (NPHI)
NEUT_CORR.V/V                  :  Corrected NPHI (limestone units)
PEF  .B/E                  :  Photoelectric Factor (PEDF)
RESD .OHMM                 :  Laterolog Deep Resistivity (LLD)
RESD_CORR.OHMM                 :  Borehole corrected LLD
RESS .OHMM                 :  Shallow Laterolog (LLS)
RESS_CORR.OHMM                 :  Borehole corrected LLS
SP   .MV                   :  Spontaneous Potential Log (SP)
TEMP .DEGC                 :  Temperature (TEMP)
TENS .KGF                  :  Cable tension at surface (TENS)
~Parameter Information Block
#MNEM.UNIT            Value   Description
#---------- ----------------  -----------
CUR_INT_BOT.M              2001.5:  Current interpolated bottom
PROJECT.     New Zealand Log QC Project:  
SET  .     A0_FINAL_INTER_REF_D:  
ELEVATION_AMSL.M              291.65:  Elevation above mean sea level
ELEVATION_REF.                   KB:  Measurement reference
FORMATION_AT_TD.      Mount Messenger:  Formation at TD
GL_ELEVATION_AMSL.M            286.3000:  Ground level elevation above mean sea level
LICENCE_NUMBER.             PMP38148:  Licence number
ONSHORE_OR_OFFSHORE.              Onshore:  Onshore/offshore
PR_NUMBER.               PR2437:  Petroleum report number
SPUD_DATE.           06/06/1998:  Spud date
STATUS_AT_COMPLETION.     Cased and suspended as a potential oil producer:  Status at completion
TD_DATE.           20/06/1998:  Total depth date
TOTAL_DEPTH_DRILLED.M              2001.5:  Total depth drilled
~Other Information Block
# 
~A       DEPTH             BS           CALI           DENS           DRHO            DTC             GR        GR_CORR           NEUT      NEUT_CORR            PEF           RESD      RESD_CORR           RESS      RESS_CORR             SP           TEMP           TENS 
# ...
    1990.49640         8.5000         8.8368         2.4942      0.0333430      -999.2500       145.9216       148.4786       0.216659       0.209108         3.1549         4.0020         4.0351         4.2752         4.3750      -999.2500        56.0795       462.7230
    1990.64880         8.5000         8.8297         2.4882      0.0295200      -999.2500       146.5818       149.0955       0.215554       0.208158         3.1434         3.9542         3.9861         4.2183         4.3167      -999.2500        56.0787       465.5745
    1990.80120         8.5000         8.8226         2.4820      0.0255123      -999.2500       147.2183       149.6873       0.214433       0.207196         3.1314         3.9068         3.9375         4.1618         4.2586      -999.2500        56.0784       468.5439
    1990.95360         8.5000         8.8154         2.4759      0.0215046      -999.2500       147.8548       150.2791       0.213312       0.206233         3.1194         3.8594         3.8889         4.1052         4.2005      -999.2500        56.0780       471.5132
    1991.10600         8.5000         8.8291         2.4775      0.0212621      -999.2500      -999.2500      -999.2500       0.214232       0.206899         3.1125         3.8402         3.8702         4.0806         4.1773      -999.2500        56.0638       474.7020
    1991.25840         8.5000         8.8519         2.4826      0.0226677      -999.2500      -999.2500      -999.2500       0.216045       0.208278         3.1078         3.8334         3.8647         4.0700         4.1693      -999.2500        56.0436       477.9867
    1991.41080         8.5000         8.8747         2.4876      0.0240733      -999.2500      -999.2500      -999.2500       0.217858       0.209658         3.1031         3.8266         3.8591         4.0595         4.1613      -999.2500        56.0234       481.2715
    1991.56320         8.5000      -999.2500         2.4899      0.0245632      -999.2500      -999.2500      -999.2500       0.218150    -999.250000         3.1223         3.8239      -999.2500         4.0555      -999.2500      -999.2500        56.0046       482.5492
    1991.71560         8.5000      -999.2500         2.4883      0.0237605      -999.2500      -999.2500      -999.2500       0.216296    -999.250000         3.1753         3.8272      -999.2500         4.0607      -999.2500      -999.2500        55.9880       480.9944
    1991.86800         8.5000      -999.2500         2.4867      0.0229579      -999.2500      -999.2500      -999.2500       0.214442    -999.250000         3.2283         3.8304      -999.2500         4.0659      -999.2500      -999.2500        55.9714       479.4397
    1992.02040         8.5000      -999.2500         2.4852      0.0222305      -999.2500      -999.2500      -999.2500       0.212689    -999.250000         3.2655         3.8354      -999.2500         4.0726      -999.2500      -999.2500        55.9570       478.0883
    1992.17280         8.5000      -999.2500         2.4848      0.0219902      -999.2500      -999.2500      -999.2500       0.211596    -999.250000         3.2003         3.8520      -999.2500         4.0882      -999.2500      -999.2500        55.9570       478.0527
    1992.32520         8.5000      -999.2500         2.4844      0.0217499      -999.2500      -999.2500      -999.2500       0.210504    -999.250000         3.1352         3.8687      -999.2500         4.1038      -999.2500      -999.2500        55.9570       478.0171
    1992.47760         8.5000      -999.2500         2.4840      0.0215096      -999.2500      -999.2500      -999.2500       0.209411    -999.250000         3.0700         3.8853      -999.2500         4.1194      -999.2500      -999.2500        55.9570       477.9815
    1992.63000         8.5000      -999.2500         2.4828      0.0221165      -999.2500      -999.2500      -999.2500       0.212247    -999.250000         3.0806         3.8950      -999.2500         4.1331      -999.2500      -999.2500        55.9570       479.7723
    1992.78240         8.5000      -999.2500         2.4815      0.0228693      -999.2500      -999.2500      -999.2500       0.215761    -999.250000         3.1043         3.9034      -999.2500         4.1466      -999.2500      -999.2500        55.9570       481.8778
    1992.93480         8.5000      -999.2500         2.4802      0.0236222      -999.2500      -999.2500      -999.2500       0.219274    -999.250000         3.1280         3.9119      -999.2500         4.1600      -999.2500      -999.2500        55.9570       483.9833
    1993.08720         8.5000      -999.2500         2.4789      0.0241829      -999.2500      -999.2500      -999.2500       0.219854    -999.250000         3.1433         3.9560      -999.2500         4.2043      -999.2500      -999.2500        55.9570       485.7780
    1993.23960         8.5000      -999.2500         2.4776      0.0245999      -999.2500      -999.2500      -999.2500       0.218240    -999.250000         3.1521         4.0268      -999.2500         4.2718      -999.2500      -999.2500        55.9570       487.3401
    1993.39200         8.5000      -999.2500         2.4763      0.0250169      -999.2500      -999.2500      -999.2500       0.216626    -999.250000         3.1610         4.0977      -999.2500         4.3392      -999.2500      -999.2500        55.9570       488.9022
    1993.54440         8.5000      -999.2500         2.4747      0.0248838      -999.2500      -999.2500      -999.2500    -999.250000    -999.250000         3.1633         4.1729      -999.2500         4.4120      -999.2500      -999.2500        55.9570      -999.2500
    1993.69680         8.5000      -999.2500         2.4724      0.0234124      -999.2500      -999.2500      -999.2500    -999.250000    -999.250000         3.1497         4.2586      -999.2500         4.4978      -999.2500      -999.2500        55.9570      -999.2500
    1993.84920         8.5000      -999.2500         2.4701      0.0219411      -999.2500      -999.2500      -999.2500    -999.250000    -999.250000         3.1361         4.3444      -999.2500         4.5837      -999.2500      -999.2500        55.9570      -999.2500
    1994.00160         8.5000      -999.2500         2.4679      0.0204965      -999.2500      -999.2500      -999.2500    -999.250000    -999.250000         3.1233         4.4281      -999.2500         4.6674      -999.2500      -999.2500        55.9570      -999.2500
    1994.15400         8.5000      -999.2500         2.4708      0.0215824      -999.2500      -999.2500      -999.2500    -999.250000    -999.250000         3.1877         4.3116      -999.2500         4.5547      -999.2500      -999.2500        55.9570      -999.2500
    1994.30640         8.5000      -999.2500         2.4737      0.0226683      -999.2500      -999.2500      -999.2500    -999.250000    -999.250000         3.2521         4.1950      -999.2500         4.4419      -999.2500      -999.2500        55.9570      -999.2500
    1994.45880         8.5000      -999.2500         2.4766      0.0237542      -999.2500      -999.2500      -999.2500    -999.250000    -999.250000         3.3165         4.0785      -999.2500         4.3292      -999.2500      -999.2500        55.9570      -999.2500
    1994.61120         8.5000      -999.2500         2.4762      0.0239423      -999.2500      -999.2500      -999.2500    -999.250000    -999.250000         3.3128         4.0408      -999.2500         4.2920      -999.2500      -999.2500        55.9570      -999.2500
    1994.76360         8.5000      -999.2500         2.4746      0.0237977      -999.2500      -999.2500      -999.2500    -999.250000    -999.250000         3.2839         4.0323      -999.2500         4.2829      -999.2500      -999.2500        55.9570      -999.2500
    1994.91600         8.5000      -999.2500         2.4730      0.0236531      -999.2500      -999.2500      -999.2500    -999.250000    -999.250000         3.2551         4.0238      -999.2500         4.2737      -999.2500      -999.2500        55.9570      -999.2500
