~Version Information Block
VERS .                 2.00:  CWLS LOG ASCII STANDARD - VERSION 2.00
WRAP .                   NO:  One line per depth step
~Well Information Block
#MNEM.UNIT        Data Type   Information
#---------- ----------------  -----------
STRT .M           530.50440:  START DEPTH
STOP .M          1878.48240:  STOP DEPTH
STEP .M             0.15240:  STEP
NULL .              -999.25:  NULL VALUE
COMP .                     :  COMPANY
WELL .            Ngatoro-7:  WELL
FLD  .                     :  FIELD
LOC  .                     :  LOCATION
CTRY .                     :  COUNTRY
STAT .                     :  STATE
CNTY .                     :  COUNTY
SRVC .     New Zealand Petroleum Co Ltd:  SERVICE COMPANY
DATE .                     :  DATE
API  .                     :  API NUMBER
UWI  .         100000210191:  UNIQUE WELL ID
LATI .          -39.2039075:  LATITUDE
LONG .          174.1707218:  LONGITUDE
~Curve Information Block
#MNEM.UNIT         API CODE   Curve Description
#---------- ----------------  -----------------
DEPTH.M                    :  
BS   .IN                   :  Bit Size (Created in Geolog)
CALI .IN                   :  Caliper (HCAL)
DENS .G/C3                 :  Bulk Density (RHOZ) and HR Bulk Density (RHO8)
DTC  .US/F                 :  Delta Time (DTC)
GR   .GAPI                 :  Gamma Ray (GR) and HR Gamma Ray (HGR)
NEUT .V/V                  :  Neutron Porosity (NPHI) and HR Neutron Porosity (HTNP)
NEUT_CORR.V/V                  :  Corrected NPHI (limestone units)
PEF  .B/E                  :  HRDD Std Resolution Formation Photoelectric Factor (PEFZ) and (PEF8)
RESD .OHMM                 :  HALS Deep Res. (HLLD) and HR HALS Deep Res. (HRLD)
RESS .OHMM                 :  HALS Shallow Res. (HLLS) and HR HALS Shallow Res. (HRLS)
SP   .MV                   :  Spontaneous Potential (SP)
~Parameter Information Block
#MNEM.UNIT            Value   Description
#---------- ----------------  -----------
CUR_INT_BOT.M                1879:  Current interpolated bottom
PROJECT.     New Zealand Log QC Project:  
SET  .     A0_FINAL_INTER_REF_D:  
ELEVATION_AMSL.M                 327:  Elevation above mean sea level
ELEVATION_REF.                   KB:  Measurement reference
FORMATION_AT_TD.      Mount Messenger:  Formation at TD
GL_ELEVATION_AMSL.M            321.4000:  Ground level elevation above mean sea level
LICENCE_NUMBER.             PPL38706:  Licence number
ONSHORE_OR_OFFSHORE.              Onshore:  Onshore/offshore
PR_NUMBER.               PR2215:  Petroleum report number
SPUD_DATE.           09/04/1996:  Spud date
STATUS_AT_COMPLETION.     Suspended with 7" casing cemented in place:  Status at completion
TD_DATE.           18/04/1996:  Total depth date
TOTAL_DEPTH_DRILLED.M                1879:  Total depth drilled
~Other Information Block
# 
~A       DEPTH             BS           CALI           DENS            DTC             GR           NEUT      NEUT_CORR            PEF           RESD           RESS             SP 
# ...
    1689.50640         8.5000         8.9671         2.4327        93.3588        95.0396       0.295249       0.297580         3.3417         3.5554         3.9557       147.8802
    1689.65880         8.5000         8.9543         2.4305        92.9056        95.7756       0.289970       0.291516         3.3547         3.5742         3.9729       149.0557
    1689.81120         8.5000         8.9415         2.4283        92.4524        96.5116       0.284692       0.285451         3.3677         3.5930         3.9902       150.2312
    1689.96360         8.5000         8.9287         2.4261        91.9992        97.2476       0.279413       0.279387         3.3808         3.6118         4.0075       151.4067
    1690.11600         8.5000         8.9300         2.4298        90.8421        96.7073       0.274206       0.273714         3.3758         3.6189         4.0304       151.9424
    1690.26840         8.5000         8.9357         2.4354        89.4641        95.7665       0.269021       0.268165         3.3651         3.6223         4.0551       152.2775
    1690.42080         8.5000         8.9415         2.4411        88.0861        94.8257       0.263837       0.262615         3.3545         3.6257         4.0797       152.6125
    1690.57320         8.5000         8.9383         2.4472        88.0090        94.3393       0.258662       0.257468         3.3626         4.0039         4.4705       152.9528
    1690.72560         8.5000         8.9254         2.4538        89.3395        94.3446       0.253499       0.252755         3.3912         4.7878         5.2572       153.2990
    1690.87800         8.5000         8.9126         2.4605        90.6700        94.3500       0.248335       0.248043         3.4198         5.5716         6.0440       153.6451
    1691.03040         8.5000         8.9090         2.4633        91.6760        94.5974       0.244706       0.244691         3.4380         6.0485         6.5175       153.9078
    1691.18280         8.5000         8.9428         2.4510        91.3803        95.8162       0.247235       0.246802         3.4147         5.2935         5.7333       153.8357
    1691.33520         8.5000         8.9766         2.4387        91.0845        97.0351       0.249763       0.248913         3.3913         4.5386         4.9492       153.7637
    1691.48760         8.5000         9.0103         2.4263        90.7887        98.2539       0.252292       0.251024         3.3680         3.7836         4.1651       153.6916
    1691.64000         8.5000         8.9981         2.4327        90.9608        97.5887       0.254400       0.252960         3.3759         3.7134         4.0981       153.8888
    1691.79240         8.5000         8.9818         2.4407        91.1742        96.7567       0.256472       0.254881         3.3865         3.7038         4.0946       154.1098
    1691.94480         8.5000         8.9654         2.4487        91.3877        95.9246       0.258543       0.256802         3.3972         3.6942         4.0911       154.3308
    1692.09720         8.5000         8.9628         2.4442        91.5878        95.8957       0.262328       0.260688         3.3920         3.6686         4.0612       154.9547
    1692.24960         8.5000         8.9680         2.4325        91.7803        96.3230       0.267087       0.265690         3.3779         3.6340         4.0162       155.8075
    1692.40200         8.5000         8.9731         2.4209        91.9728        96.7504       0.271845       0.270692         3.3637         3.5994         3.9712       156.6602
    1692.55440         8.5000         8.9786         2.4165        92.1688        96.8038       0.274604       0.273551         3.3550         3.5776         3.9384       157.0291
    1692.70680         8.5000         8.9847         2.4252        92.3710        96.1836       0.273762       0.272550         3.3559         3.5788         3.9275       156.5264
    1692.85920         8.5000         8.9908         2.4338        92.5732        95.5634       0.272920       0.271548         3.3568         3.5799         3.9166       156.0237
    1693.01160         8.5000         8.9968         2.4419        92.7648        95.1352       0.272374       0.270900         3.3592         3.5814         3.9070       155.5982
    1693.16400         8.5000         9.0015         2.4433        92.8264        97.0371       0.275412       0.274535         3.3794         3.5875         3.9117       156.1106
    1693.31640         8.5000         9.0062         2.4447        92.8880        98.9390       0.278451       0.278171         3.3997         3.5936         3.9164       156.6231
    1693.46880         8.5000         9.0109         2.4461        92.9496       100.8409       0.281489       0.281806         3.4199         3.5997         3.9211       157.1355
    1693.62120         8.5000         9.0085         2.4432        92.6835        99.9596       0.281589       0.281907         3.4171         3.6286         3.9540       158.9947
    1693.77360         8.5000         9.0043         2.4391        92.3330        98.3619       0.280932       0.281098         3.4082         3.6633         3.9942       161.2006
    1693.92600         8.5000         9.0001         2.4350        91.9826        96.7641       0.280274       0.280288         3.3994         3.6980         4.0344       163.4065
    1694.07840         8.5000         9.0007         2.4379        91.7034        95.9374       0.280668       0.280752         3.3951         3.7015         4.0445       164.3895
    1694.23080         8.5000         9.0059         2.4474        91.4915        95.8383       0.282054       0.282417         3.3950         3.6754         4.0262       164.2182
    1694.38320         8.5000         9.0111         2.4569        91.2796        95.7393       0.283440       0.284082         3.3950         3.6494         4.0079       164.0469
    1694.53560         8.5000         9.0160         2.4620        91.2914        95.8752       0.282316       0.282992         3.3938         3.6383         4.0041       164.0414
    1694.68800         8.5000         9.0199         2.4525        92.0373        96.7821       0.272957       0.272868         3.3891         3.6766         4.0475       164.5794
    1694.84040         8.5000         9.0238         2.4431        92.7831        97.6889       0.263598       0.262743         3.3844         3.7150         4.0910       165.1175
    1694.99280         8.5000         9.0277         2.4336        93.5290        98.5958       0.254239       0.252619         3.3796         3.7533         4.1345       165.6556
    1695.14520         8.5000         9.0416         2.4343        93.3556        98.6834       0.258563       0.256783         3.3606         3.6946         4.0723       165.6548
    1695.29760         8.5000         9.0559         2.4354        93.1366        98.7303       0.263565       0.261655         3.3410         3.6311         4.0048       165.6272
    1695.45000         8.5000         9.0703         2.4366        92.9175        98.7773       0.268567       0.266528         3.3213         3.5676         3.9374       165.5997
    1695.60240         8.5000         9.0736         2.4377        92.8161        98.6141       0.269295       0.267195         3.3232         3.5652         3.9327       163.9043
    1695.75480         8.5000         9.0716         2.4389        92.7722        98.3482       0.267935       0.265808         3.3358         3.5925         3.9588       161.3946
    1695.90720         8.5000         9.0696         2.4401        92.7282        98.0823       0.266576       0.264422         3.3483         3.6198         3.9849       158.8848
    1696.05960         8.5000         9.0699         2.4384        92.6666        98.1538       0.267668       0.265771         3.3660         3.6384         3.9993       158.1277
    1696.21200         8.5000         9.0735         2.4322        92.5777        98.7508       0.272575       0.271380         3.3917         3.6436         3.9953       160.0996
