~Version Information Block
VERS .                 2.00:  CWLS LOG ASCII STANDARD - VERSION 2.00
WRAP .                   NO:  One line per depth step
~Well Information Block
#MNEM.UNIT        Data Type   Information
#---------- ----------------  -----------
STRT .M            16.61160:  START DEPTH
STOP .M          1898.90400:  STOP DEPTH
STEP .M             0.15240:  STEP
NULL .              -999.25:  NULL VALUE
COMP .                     :  COMPANY
WELL .         Ngatoro-3ST1:  WELL
FLD  .                     :  FIELD
LOC  .                     :  LOCATION
CTRY .                     :  COUNTRY
STAT .                     :  STATE
CNTY .                     :  COUNTY
SRVC .     Greymouth Petroleum Ltd:  SERVICE COMPANY
DATE .                     :  DATE
API  .                     :  API NUMBER
UWI  .         100000787700:  UNIQUE WELL ID
LATI .          -39.1846084:  LATITUDE
LONG .          174.1883756:  LONGITUDE
~Curve Information Block
#MNEM.UNIT         API CODE   Curve Description
#---------- ----------------  -----------------
DEPTH.M                    :  
BS   .IN                   :  Bit Size (Created in Geolog)
CALI .IN                   :  HRCC Cal. Caliper (HCAL)
DENS .G/C3                 :  HRDD High Resolution Formation Density (RHO8)
DRHO .G/C3                 :  HRDD Density Correction (HDRA)
GR   .GAPI                 :  HiRes Gamma-Ray (EHGR)
NEUT .V/V                  :  HiRes Thermal Neutron Porosity (HTNP)
PEF  .B/E                  :  HRDD High Resolution Formation Photoelectric Factor (PEF8)
RESD .OHMM                 :  Array Induction Two Foot Resistivity A90 (AHT90)
RESM .OHMM                 :  Array Induction Two Foot Resistivity A30 (AHT30)
RESS .OHMM                 :  Array Induction Two Foot Resistivity A10 (AHT10)
SP   .MV                   :  SP Shifted (SP)
TEMP .DEGC                 :  HTC Temperature (HTEM)
TENS .KGF                  :  Cable Tension (TENS)
~Parameter Information Block
#MNEM.UNIT            Value   Description
#---------- ----------------  -----------
CUR_INT_BOT.M                1899:  Current interpolated bottom
PROJECT.     New Zealand Log QC Project:  
SET  .     A0_FINAL_INTER_REF_D:  
ELEVATION_AMSL.M              262.91:  Elevation above mean sea level
ELEVATION_REF.                   DF:  Measurement reference
FORMATION_AT_TD.             Manganui:  Formation at TD
GL_ELEVATION_AMSL.M            259.3000:  Ground level elevation above mean sea level
KICK_OFF_DATE.           26/09/2005:  Kick off date
KICK_OFF_DEPTH.M                 645:  Kick off depth
LICENCE_NUMBER.             PMP38148:  Licence number
ONSHORE_OR_OFFSHORE.              Onshore:  Onshore/offshore
PARENT_WELL.            Ngatoro-3:  Parent well
PR_NUMBER.               PR3237:  Petroleum report number
STATUS_AT_COMPLETION.     Completed ready for perforating:  Status at completion
TD_DATE.           05/10/2005:  Total depth date
TOTAL_DEPTH_DRILLED.M             1898.82:  Total depth drilled
~Other Information Block
# 
~A       DEPTH             BS           CALI           DENS           DRHO             GR           NEUT            PEF           RESD           RESM           RESS             SP           TEMP           TENS 
# ...
    1561.94760         6.0000         6.0629         2.3092      0.0089146        92.2512       0.329542         3.0097         2.3312         2.3115         2.5203       258.4318        54.0026      1201.2584
    1562.10000         6.0000         6.0655         2.3045      0.0109030        91.1405       0.329333         3.0352         2.3222         2.3068         2.5140       264.3065        54.0026      1197.5204
    1562.25240         6.0000         6.0652         2.3050      0.0160930        90.0650       0.330424         3.0959         2.3047         2.2953         2.4992       267.2480        54.0026      1195.5775
    1562.40480         6.0000         6.0650         2.3056      0.0212829        88.9894       0.331514         3.1567         2.2872         2.2839         2.4844       270.1894        54.0026      1193.6348
    1562.55720         6.0000         6.0495         2.3100      0.0258485        90.1918       0.330406         3.1949         2.2769         2.2778         2.4759       268.2716        54.0026      1192.5460
    1562.70960         6.0000         6.0088         2.3207      0.0293751        95.1853       0.325636         3.1957         2.2785         2.2807         2.4778       258.2664        54.0026      1192.8788
    1562.86200         6.0000         5.9682         2.3314      0.0329016       100.1788       0.320866         3.1965         2.2802         2.2837         2.4797       248.2612        54.0026      1193.2115
    1563.01440         6.0000         5.9291         2.3409      0.0365254       104.6165       0.316490         3.1961         2.2836         2.2881         2.4834       242.0305        54.0026      1192.9170
    1563.16680         6.0000         5.9053         2.3389      0.0410814       103.7285       0.315889         3.1848         2.3036         2.3068         2.5039       271.9717        54.0026      1186.6105
    1563.31920         6.0000         5.8816         2.3369      0.0456373       102.8405       0.315288         3.1736         2.3236         2.3255         2.5245       301.9129        54.0026      1180.3040
    1563.47160         6.0000         5.8578         2.3349      0.0501932       101.9525       0.314686         3.1623         2.3435         2.3442         2.5450       331.8541        54.0026      1173.9974
    1563.62400         6.0000         5.8545         2.3399      0.0470477        98.6696       0.318222         3.1344         2.3492         2.3486         2.5495       342.9487        54.0026      1202.1163
    1563.77640         6.0000         5.8558         2.3466      0.0421382        94.8381       0.322706         3.1027         2.3517         2.3497         2.5504       349.7268        54.0026      1238.1196
    1563.92880         6.0000         5.8572         2.3533      0.0372288        91.0066       0.327190         3.0710         2.3541         2.3508         2.5513       356.5050        54.0026      1274.1230
    1564.08120         6.0000         5.8661         2.3497      0.0321110        90.1906       0.332413         3.0635         2.3513         2.3489         2.5464       358.9832        54.0026      1273.9755
    1564.23360         6.0000         5.8817         2.3371      0.0268105        92.0188       0.338283         3.0772         2.3440         2.3444         2.5365       357.6911        54.0026      1242.1289
    1564.38600         6.0000         5.8973         2.3245      0.0215099        93.8470       0.344153         3.0908         2.3367         2.3399         2.5265       356.3990        54.0026      1210.2825
    1564.53840         6.0000         5.9181         2.3168      0.0184136        95.1165       0.346128         3.1040         2.3295         2.3363         2.5184       354.6538        54.0026      1187.6200
    1564.69080         6.0000         5.9544         2.3241      0.0218611        94.7276       0.336537         3.1158         2.3225         2.3355         2.5156       351.5638        54.0026      1192.2222
    1564.84320         6.0000         5.9906         2.3313      0.0253087        94.3387       0.326947         3.1276         2.3155         2.3347         2.5128       348.4738        54.0026      1196.8245
    1564.99560         6.0000         6.0269         2.3385      0.0287562        93.9498       0.317356         3.1394         2.3084         2.3339         2.5100       345.3838        54.0026      1201.4268
    1565.14800         6.0000         6.1255         2.3409      0.0201501        95.6790       0.315655         3.0977         2.2944         2.3182         2.4890       345.1284        54.0026      1198.9918
    1565.30040         6.0000         6.2260         2.3432      0.0111858        97.4712       0.314189         3.0545         2.2801         2.3021         2.4675       344.9571        54.0026      1196.3477
    1565.45280         6.0000         6.3265         2.3455      0.0022214        99.2634       0.312723         3.0112         2.2659         2.2859         2.4459       344.7859        54.0026      1193.7036
    1565.60520         6.0000         6.4202         2.3442      0.0014789        99.0703       0.310830         3.0586         2.2663         2.2819         2.4360       342.6106        54.0026      1195.3391
    1565.75760         6.0000         6.5109         2.3412      0.0044254        97.9866       0.308745         3.1466         2.2734         2.2833         2.4312       339.5361        54.0026      1198.8948
    1565.91000         6.0000         6.6015         2.3383      0.0073718        96.9029       0.306660         3.2346         2.2804         2.2848         2.4265       336.4615        54.0026      1202.4504
    1566.06240         6.0000         6.6394         2.3388      0.0080902        96.4346       0.304119         3.2581         2.2913         2.2904         2.4285       330.5110        54.0026      1201.1598
    1566.21480         6.0000         6.6013         2.3441      0.0055948        96.8541       0.300921         3.1885         2.3077         2.3022         2.4402       320.4122        54.0026      1192.8790
    1566.36720         6.0000         6.5632         2.3495      0.0030995        97.2736       0.297723         3.1190         2.3241         2.3140         2.4520       310.3134        54.0026      1184.5983
    1566.51960         6.0000         6.5149         2.3535      0.0007560        97.4014       0.295400         3.0543         2.3392         2.3256         2.4639       300.7524        54.0026      1179.3301
    1566.67200         6.0000         6.3975         2.3485     -0.0005586        95.5527       0.299006         3.0228         2.3457         2.3363         2.4774       294.8355        54.0026      1194.4728
    1566.82440         6.0000         6.2801         2.3435     -0.0018731        93.7040       0.302612         2.9913         2.3522         2.3469         2.4908       288.9185        54.0026      1209.6155
    1566.97680         6.0000         6.1627         2.3385     -0.0031877        91.8554       0.306218         2.9598         2.3588         2.3576         2.5043       283.0015        54.0026      1224.7582
    1567.12920         6.0000         6.1178         2.3322     -0.0040002        91.9953       0.307225         2.9939         2.3433         2.3522         2.4937       272.6701        54.0026      1216.0311
    1567.28160         6.0000         6.0859         2.3257     -0.0047227        92.4924       0.307765         3.0397         2.3239         2.3439         2.4788       261.5460        54.0026      1203.0179
    1567.43400         6.0000         6.0540         2.3192     -0.0054452        92.9894       0.308305         3.0856         2.3044         2.3356         2.4639       250.4218        54.0026      1190.0048
    1567.58640         6.0000         6.0452         2.3173     -0.0049182        91.7991       0.315130         3.1039         2.3055         2.3504         2.4663       248.0176        54.0026      1183.7889
    1567.73880         6.0000         6.0539         2.3188     -0.0034367        89.3197       0.326755         3.1011         2.3222         2.3828         2.4819       252.2742        54.0026      1182.7655
