~Version Information Block
VERS .                 2.00:  CWLS LOG ASCII STANDARD - VERSION 2.00
WRAP .                   NO:  One line per depth step
~Well Information Block
#MNEM.UNIT        Data Type   Information
#---------- ----------------  -----------
STRT .M             9.14400:  START DEPTH
STOP .M          1999.48800:  STOP DEPTH
STEP .M             0.15240:  STEP
NULL .              -999.25:  NULL VALUE
COMP .                     :  COMPANY
WELL .            Ngatoro-2:  WELL
FLD  .                     :  FIELD
LOC  .                     :  LOCATION
CTRY .                     :  COUNTRY
STAT .                     :  STATE
CNTY .                     :  COUNTY
SRVC .     New Zealand Petroleum Co Ltd:  SERVICE COMPANY
DATE .                     :  DATE
API  .                     :  API NUMBER
UWI  .         100000127958:  UNIQUE WELL ID
LATI .          -39.1949429:  LATITUDE
LONG .          174.1849215:  LONGITUDE
~Curve Information Block
#MNEM.UNIT         API CODE   Curve Description
#---------- ----------------  -----------------
DEPTH.M                    :  
BS   .IN                   :  Bit Size (Created in Geolog)
CALI .IN                   :  Caliper Log (CALI)
DENS .G/C3                 :  Compensated Formation Density Log (RHOB)
DRHO .G/C3                 :  Density Log Correction (DRHO)
DTC  .US/F                 :  Delta T (DT)
DTS  .US/F                 :  Delta T Shear Lower Dipole (DT1)
GR   .GAPI                 :  Gamma-Ray Raw (Reeves PSD) (GRCF)
GR_CORR.GAPI                 :  Gamma ray corrected
NEUT .V/V                  :  Neutron Log Porosity (NPHI)
NEUT_CORR.V/V                  :  Corrected NPHI (limestone units)
PEF  .B/E                  :  Photoelectric Factor (PEDF)
RESD .OHMM                 :  Laterolog Deep Resistivity (LLD)
RESD_CORR.OHMM                 :  Borehole corrected LLD
RESS .OHMM                 :  Shallow Laterolog (LLS)
RESS_CORR.OHMM                 :  Borehole corrected LLS
SP   .MV                   :  Spontaneous Potential Log (SP)
TEMP .DEGC                 :  Temperature (TEMP)
TENS .KGF                  :  Cable tension at surface (TENS)
~Parameter Information Block
#MNEM.UNIT            Value   Description
#---------- ----------------  -----------
CUR_INT_BOT.M                2000:  Current interpolated bottom
PROJECT.     New Zealand Log QC Project:  
SET  .     A0_FINAL_INTER_REF_D:  
ELEVATION_AMSL.M              294.94:  Elevation above mean sea level
ELEVATION_REF.                   KB:  Measurement reference
FORMATION_AT_TD.             Manganui:  Formation at TD
GL_ELEVATION_AMSL.M            286.3000:  Ground level elevation above mean sea level
LICENCE_NUMBER.             PPL38706:  Licence number
ONSHORE_OR_OFFSHORE.              Onshore:  Onshore/offshore
PR_NUMBER.               PR1920:  Petroleum report number
SPUD_DATE.           12/10/1991:  Spud date
STATUS_AT_COMPLETION.     Completed as an oil producer:  Status at completion
TD_DATE.           26/10/1991:  Total depth date
TOTAL_DEPTH_DRILLED.M                2000:  Total depth drilled
~Other Information Block
# 
~A       DEPTH             BS           CALI           DENS           DRHO            DTC            DTS             GR        GR_CORR           NEUT      NEUT_CORR            PEF           RESD      RESD_CORR           RESS      RESS_CORR             SP           TEMP           TENS 
# ...
     725.11920         8.5000         8.6575      -999.2500   -999.2500000        86.7451        57.6202        80.0314        80.2773    -999.250000    -999.250000      -999.2500        12.6795        12.7194         9.4217         9.4915       148.9220        38.2335       434.8993
     725.27160         8.5000         8.6778      -999.2500   -999.2500000        88.1584        57.9220        81.8852        82.2242    -999.250000    -999.250000      -999.2500        12.5475        12.5823         9.4522         9.5302       148.9530        38.2393       432.3565
     725.42400         8.5000         8.6982      -999.2500   -999.2500000        89.5716        58.2239        83.7391        84.1711    -999.250000    -999.250000      -999.2500        12.4155        12.4452         9.4827         9.5689       148.9839        38.2451       429.8138
     725.57640         8.5000         8.7159      -999.2500   -999.2500000        93.1402        58.4417        82.7487        83.2468    -999.250000    -999.250000      -999.2500        12.2612        12.2918         9.3747         9.4676       148.8619        38.2459       429.6584
     725.72880         8.5000         8.7311      -999.2500   -999.2500000        98.8528        58.5759        78.9291        79.4665    -999.250000    -999.250000      -999.2500        12.0847        12.1223         9.1291         9.2271       148.5875        38.2419       431.8776
     725.88120         8.5000         8.7462      -999.2500   -999.2500000       104.5654        58.7101        75.1094        75.6862    -999.250000    -999.250000      -999.2500        11.9082        11.9529         8.8834         8.9866       148.3132        38.2379       434.0968
     726.03360         8.5000         8.7544      -999.2500   -999.2500000       109.0939        58.7234        72.5449        73.1403    -999.250000    -999.250000      -999.2500        11.7225        11.7729         8.6505         8.7562       148.0927        38.2339       435.2785
     726.18600         8.5000         8.7381      -999.2500   -999.2500000       109.4361        58.3092        74.4184        74.9590    -999.250000    -999.250000      -999.2500        11.5043        11.5558         8.4627         8.5616       148.0621        38.2300       432.7920
     726.33840         8.5000         8.7218      -999.2500   -999.2500000       109.7782        57.8950        76.2919        76.7776    -999.250000    -999.250000      -999.2500        11.2861        11.3386         8.2749         8.3671       148.0316        38.2261       430.3055
     726.49080         8.5000         8.7054      -999.2500   -999.2500000       110.1203        57.4808        78.1653        78.5963    -999.250000    -999.250000      -999.2500        11.0678        11.1215         8.0871         8.1725       148.0011        38.2222       427.8190
     726.64320         8.5000         8.6684      -999.2500   -999.2500000       109.2357        57.4395        79.6637        79.9434    -999.250000    -999.250000      -999.2500        11.0086        11.0543         8.0804         8.1549       148.3927        38.2367       427.9888
     726.79560         8.5000         8.6300      -999.2500   -999.2500000       108.2723        57.4221        81.1379        81.2602    -999.250000    -999.250000      -999.2500        10.9596        10.9967         8.0853         8.1487       148.8115        38.2524       428.3292
     726.94800         8.5000         8.5917      -999.2500   -999.2500000       107.3090        57.4048        82.6122        82.5769    -999.250000    -999.250000      -999.2500        10.9107        10.9391         8.0902         8.1425       149.2303        38.2682       428.6696
     727.10040         8.5000         8.5762      -999.2500   -999.2500000       107.1509        57.4291        80.6325        80.5371    -999.250000    -999.250000      -999.2500        10.9627        10.9851         8.1631         8.2103       149.5693        38.2687       429.9023
     727.25280         8.5000         8.5725      -999.2500   -999.2500000       107.4099        57.4750        76.8640        76.7588    -999.250000    -999.250000      -999.2500        11.0670        11.0848         8.2711         8.3163       149.8669        38.2613       431.5972
     727.40520         8.5000         8.5688      -999.2500   -999.2500000       107.6689        57.5209        73.0954        72.9806    -999.250000    -999.250000      -999.2500        11.1713        11.1844         8.3791         8.4224       150.1645        38.2540       433.2921
     727.55760         8.5000         8.5665      -999.2500   -999.2500000       107.6223        57.5591        72.0502        71.9266    -999.250000    -999.250000      -999.2500        11.1506        11.1652         8.4154         8.4576       150.2385        38.2507       433.7697
     727.71000         8.5000         8.5662      -999.2500   -999.2500000       107.0726        57.5845        75.4870        75.3564    -999.250000    -999.250000      -999.2500        10.9240        10.9502         8.3335         8.3760       149.9443        38.2540       432.2438
     727.86240         8.5000         8.5660      -999.2500   -999.2500000       106.5229        57.6100        78.9239        78.7863    -999.250000    -999.250000      -999.2500        10.6975        10.7352         8.2516         8.2945       149.6500        38.2573       430.7179
     728.01480         8.5000         8.5658      -999.2500   -999.2500000       105.9287        57.6367        81.9735        81.8297    -999.250000    -999.250000      -999.2500        10.5285        10.5747         8.2250         8.2679       149.3387        38.2603       429.5089
     728.16720         8.5000         8.5658      -999.2500   -999.2500000       104.9217        57.6758        81.4227        81.2802    -999.250000    -999.250000      -999.2500        10.8942        10.9203         8.7123         8.7524       148.8680        38.2614       431.2466
     728.31960         8.5000         8.5659      -999.2500   -999.2500000       103.9146        57.7149        80.8718        80.7307    -999.250000    -999.250000      -999.2500        11.2600        11.2658         9.1997         9.2369       148.3974        38.2624       432.9842
     728.47200         8.5000         8.5660      -999.2500   -999.2500000       102.9076        57.7540        80.3210        80.1812    -999.250000    -999.250000      -999.2500        11.6257        11.6114         9.6870         9.7213       147.9267        38.2634       434.7219
     728.62440         8.5000         8.5688      -999.2500   -999.2500000       101.5319        57.7394        78.1872        78.0615    -999.250000    -999.250000      -999.2500        11.9290        11.9471         9.7158         9.7510       147.5001        38.2650       434.1611
     728.77680         8.5000         8.5722      -999.2500   -999.2500000       100.0733        57.7127        75.6971        75.5884    -999.250000    -999.250000      -999.2500        12.2181        12.2806         9.6414         9.6784       147.0835        38.2667       433.0830
     728.92920         8.5000         8.5755      -999.2500   -999.2500000        98.6147        57.6860        73.2070        73.1154    -999.250000    -999.250000      -999.2500        12.5073        12.6141         9.5670         9.6057       146.6669        38.2685       432.0049
     729.08160         8.5000         8.5877      -999.2500   -999.2500000        94.2604        57.7248        68.6193        68.5679    -999.250000    -999.250000      -999.2500        16.1411        16.1552        12.5499        12.5707       146.2227        38.2692       432.6245
     729.23400         8.5000         8.6076      -999.2500   -999.2500000        87.3938        57.8204        62.2116        62.2206    -999.250000    -999.250000      -999.2500        22.6769        22.4794        18.1854        18.1714       145.7545        38.2689       434.7172
     729.38640         8.5000         8.6275      -999.2500   -999.2500000        80.5271        57.9159        55.8040        55.8732    -999.250000    -999.250000      -999.2500        29.2128        28.8036        23.8208        23.7721       145.2864        38.2686       436.8098
