~Version Information Block
VERS .                 2.00:  CWLS LOG ASCII STANDARD - VERSION 2.00
WRAP .                   NO:  One line per depth step
~Well Information Block
#MNEM.UNIT        Data Type   Information
#---------- ----------------  -----------
STRT .M           376.58040:  START DEPTH
STOP .M          2000.85960:  STOP DEPTH
STEP .M             0.15240:  STEP
NULL .              -999.25:  NULL VALUE
COMP .                     :  COMPANY
WELL .            Ngatoro-9:  WELL
FLD  .                     :  FIELD
LOC  .                     :  LOCATION
CTRY .                     :  COUNTRY
STAT .                     :  STATE
CNTY .                     :  COUNTY
SRVC .     New Zealand Petroleum Co Ltd:  SERVICE COMPANY
DATE .                     :  DATE
API  .                     :  API NUMBER
UWI  .         100000290639:  UNIQUE WELL ID
LATI .          -39.1948838:  LATITUDE
LONG .          174.1848348:  LONGITUDE
~Curve Information Block
#MNEM.UNIT         API CODE   Curve Description
#---------- ----------------  -----------------
DEPTH.M                    :  
BS   .IN                   :  Bit Size (Created in Geolog)
CALI .IN                   :  Caliper Log (CALI)
DENS .G/C3                 :  Compensated Formation Density Log (RHOB)
DRHO .G/C3                 :  Density Log Correction (DRHO)
DTC  .US/F                 :  3-5 Ft Compensated Sonic (BPB) (DTC1)
GR   .GAPI                 :  Gamma-Ray Log (GR)
GR_CORR.GAPI                 :  Gamma ray corrected
NEUT .V/V                  :  Neutron Log Porosity (NPHI)
NEUT_CORR.V/V                  :  Corrected NPHI (limestone units)
PEF  .B/E                  :  Photoelectric Factor (PEDF)
RESD .OHMM                 :  Laterolog Deep Resistivity (LLD)
RESD_CORR.OHMM                 :  Borehole corrected LLD
RESS .OHMM                 :  Shallow Laterolog (LLS)
RESS_CORR.OHMM                 :  Borehole corrected LLS
SP   .MV                   :  Spontaneous Potential Log (SP)
TEMP .DEGC                 :  Temperature (TEMP)
TENS .KGF                  :  Cable tension at surface (TENS)
~Parameter Information Block
#MNEM.UNIT            Value   Description
#---------- ----------------  -----------
CUR_INT_BOT.M              2001.5:  Current interpolated bottom
PROJECT.     New Zealand Log QC Project:  
SET  .     A0_FINAL_INTER_REF_D:  
ELEVATION_AMSL.M              291.65:  Elevation above mean sea level
ELEVATION_REF.                   KB:  Measurement reference
FORMATION_AT_TD.      Mount Messenger:  Formation at TD
GL_ELEVATION_AMSL.M            286.3000:  Ground level elevation above mean sea level
LICENCE_NUMBER.             PMP38148:  Licence number
ONSHORE_OR_OFFSHORE.              Onshore:  Onshore/offshore
PR_NUMBER.               PR2437:  Petroleum report number
SPUD_DATE.           06/06/1998:  Spud date
STATUS_AT_COMPLETION.     Cased and suspended as a potential oil producer:  Status at completion
TD_DATE.           20/06/1998:  Total depth date
TOTAL_DEPTH_DRILLED.M              2001.5:  Total depth drilled
~Other Information Block
# 
~A       DEPTH             BS           CALI           DENS           DRHO            DTC             GR        GR_CORR           NEUT      NEUT_CORR            PEF           RESD      RESD_CORR           RESS      RESS_CORR             SP           TEMP           TENS 
# ...
    1638.45240         8.5000         9.1196         2.4534      0.0187712        89.3442       118.3070       122.1120       0.273682       0.257871         3.1144         2.8947         2.9172         3.3352         3.4519        21.2796        51.9287       387.2713
    1638.60480         8.5000         9.0958         2.4440      0.0182886        88.9132       118.3762       122.0340       0.273709       0.258343         3.1050         2.9429         2.9654         3.3800         3.4956        21.3538        51.9287       387.4829
    1638.75720         8.5000         9.0684         2.4284      0.0184724        88.0767       119.3878       122.9071       0.275727       0.260760         3.0909         3.0225         3.0456         3.4581         3.5730        21.4333        51.9287       388.6509
    1638.90960         8.5000         9.0411         2.4129      0.0186562        87.2402       120.3993       123.7802       0.277744       0.263176         3.0768         3.1021         3.1258         3.5363         3.6504        21.5128        51.9287       389.8190
    1639.06200         8.5000         9.0188         2.3924      0.0162601        87.4393       120.8975       124.1559       0.278151       0.263972         3.0392         3.1306         3.1540         3.5609         3.6737        21.4927        51.9287       389.2152
    1639.21440         8.5000         9.0038         2.3645      0.0101023        89.1483       120.6471       123.8063       0.276210       0.262405         2.9673         3.0845         3.1062         3.5075         3.6179        21.3272        51.9287       386.0277
    1639.36680         8.5000         8.9888         2.3367      0.0039445        90.8573       120.3968       123.4568       0.274269       0.260838         2.8955         3.0384         3.0585         3.4541         3.5622        21.1618        51.9287       382.8403
    1639.51920         8.5000         8.9768         2.3220      0.0003882        92.2429       119.7395       122.7083       0.271283       0.258221         2.8526         2.9908         3.0094         3.3990         3.5050        21.0173        51.9288       380.3629
    1639.67160         8.5000         8.9857         2.3989      0.0148799        91.3847       116.2591       119.1918       0.261048       0.248322         3.0101         2.9330         2.9507         3.3323         3.4377        21.0182        51.9292       382.8111
    1639.82400         8.5000         8.9945         2.4759      0.0293716        90.5265       112.7787       115.6753       0.250813       0.238422         3.1676         2.8752         2.8920         3.2656         3.3704        21.0192        51.9297       385.2594
    1639.97640         8.5000         9.0034         2.5528      0.0438634        89.6683       109.2983       112.1588       0.240577       0.228522         3.3251         2.8174         2.8333         3.1988         3.3031        21.0201        51.9302       387.7076
    1640.12880         8.5000         8.9897         2.5323      0.0408128        84.1074       111.7119       114.5513       0.220578       0.209700         3.2677         3.1999         3.2226         3.6121         3.7222        20.9643        51.9305       389.3392
    1640.28120         8.5000         8.9719         2.4940      0.0345481        77.6849       115.2054       118.0264       0.198790       0.189244         3.1710         3.6631         3.6941         4.1134         4.2304        20.8980        51.9308       390.8212
    1640.43360         8.5000         8.9541         2.4557      0.0282833        71.2624       118.6989       121.5016       0.177001       0.168787         3.0743         4.1263         4.1655         4.6147         4.7386        20.8317        51.9311       392.3033
    1640.58600         8.5000         8.9504         2.4375      0.0244243        71.4732       119.7643       122.5723       0.182386       0.173986         3.0359         4.2065         4.2473         4.6946         4.8197        20.7850        51.9341       391.8661
    1640.73840         8.5000         8.9575         2.4349      0.0224229        76.8056       118.9548       121.7864       0.208751       0.198993         3.0425         3.9910         4.0281         4.4491         4.5710        20.7533        51.9393       389.9471
    1640.89080         8.5000         8.9646         2.4324      0.0204214        82.1380       118.1453       121.0006       0.235116       0.224000         3.0491         3.7755         3.8090         4.2036         4.3223        20.7216        51.9445       388.0281
    1641.04320         8.5000         8.9637         2.4297      0.0200414        86.0375       117.6006       120.4375       0.255959       0.243888         3.0573         3.5581         3.5875         3.9545         4.0692        20.6985        51.9489       386.5306
    1641.19560         8.5000         8.9428         2.4268      0.0237601        86.3148       117.7251       120.4375       0.262843       0.250835         3.0695         3.3357         3.3598         3.6965         3.8050        20.6967        51.9516       386.0986
    1641.34800         8.5000         8.9219         2.4239      0.0274789        86.5922       117.8496       120.4375       0.269726       0.257781         3.0816         3.1134         3.1321         3.4384         3.5408        20.6950        51.9542       385.6665
    1641.50040         8.5000         8.9010         2.4210      0.0311884        86.8753       117.9689       120.4324       0.276605       0.264721         3.0934         2.8915         2.9048         3.1809         3.2771        20.6943        51.9568       385.2334
    1641.65280         8.5000         8.8998         2.3936      0.0313675        89.3578       116.0859       118.5025       0.281345       0.269274         2.9814         2.8235         2.8353         3.1178         3.2130        21.0973        51.9561       384.3975
    1641.80520         8.5000         8.8985         2.3663      0.0315465        91.8403       114.2030       116.5725       0.286086       0.273827         2.8693         2.7555         2.7659         3.0546         3.1488        21.5004        51.9554       383.5616
    1641.95760         8.5000         8.8972         2.3390      0.0317256        94.3228       112.3201       114.6426       0.290827       0.278379         2.7572         2.6875         2.6965         2.9915         3.0847        21.9035        51.9547       382.7257
    1642.11000         8.5000         8.8823         2.3450      0.0316625        94.6774       112.1112       114.3412       0.289457       0.277358         2.7661         2.6586         2.6665         2.9560         3.0476        22.0270        51.9611       383.3285
    1642.26240         8.5000         8.8620         2.3639      0.0315061        94.2117       112.5476       114.6676       0.285731       0.274188         2.8216         2.6449         2.6516         2.9312         3.0211        22.0429        51.9703       384.4858
    1642.41480         8.5000         8.8418         2.3828      0.0313496        93.7460       112.9839       114.9939       0.282005       0.271018         2.8771         2.6311         2.6368         2.9064         2.9945        22.0588        51.9795       385.6431
    1642.56720         8.5000         8.8420         2.3897      0.0303208        93.2292       111.8337       113.8196       0.278101       0.267288         2.9027         2.6124         2.6177         2.8793         2.9671        22.0577        51.9861       386.5713
    1642.71960         8.5000         8.8681         2.3814      0.0281858        92.6475       108.6720       110.7424       0.273971       0.262846         2.8904         2.5874         2.5932         2.8496         2.9385        22.0351        51.9894       387.2091
    1642.87200         8.5000         8.8942         2.3731      0.0260509        92.0657       105.5102       107.6653       0.269841       0.258404         2.8782         2.5624         2.5687         2.8198         2.9099        22.0124        51.9927       387.8469
