~Version Information Block
VERS .                 2.00:  CWLS LOG ASCII STANDARD - VERSION 2.00
WRAP .                   NO:  One line per depth step
~Well Information Block
#MNEM.UNIT        Data Type   Information
#---------- ----------------  -----------
STRT .M           376.58040:  START DEPTH
STOP .M          2000.85960:  STOP DEPTH
STEP .M             0.15240:  STEP
NULL .              -999.25:  NULL VALUE
COMP .                     :  COMPANY
WELL .            Ngatoro-9:  WELL
FLD  .                     :  FIELD
LOC  .                     :  LOCATION
CTRY .                     :  COUNTRY
STAT .                     :  STATE
CNTY .                     :  COUNTY
SRVC .     New Zealand Petroleum Co Ltd:  SERVICE COMPANY
DATE .                     :  DATE
API  .                     :  API NUMBER
UWI  .         100000290639:  UNIQUE WELL ID
LATI .          -39.1948838:  LATITUDE
LONG .          174.1848348:  LONGITUDE
~Curve Information Block
#MNEM.UNIT         API CODE   Curve Description
#---------- ----------------  -----------------
DEPTH.M                    :  
BS   .IN                   :  Bit Size (Created in Geolog)
CALI .IN                   :  Caliper Log (CALI)
DENS .G/C3                 :  Compensated Formation Density Log (RHOB)
DRHO .G/C3                 :  Density Log Correction (DRHO)
DTC  .US/F                 :  3-5 Ft Compensated Sonic (BPB) (DTC1)
GR   .GAPI                 :  Gamma-Ray Log (GR)
GR_CORR.GAPI                 :  Gamma ray corrected
NEUT .V/V                  :  Neutron Log Porosity (NPHI)
NEUT_CORR.V/V                  :  Corrected NPHI (limestone units)
PEF  .B/E                  :  Photoelectric Factor (PEDF)
RESD .OHMM                 :  Laterolog Deep Resistivity (LLD)
RESD_CORR.OHMM                 :  Borehole corrected LLD
RESS .OHMM                 :  Shallow Laterolog (LLS)
RESS_CORR.OHMM                 :  Borehole corrected LLS
SP   .MV                   :  Spontaneous Potential Log (SP)
TEMP .DEGC                 :  Temperature (TEMP)
TENS .KGF                  :  Cable tension at surface (TENS)
~Parameter Information Block
#MNEM.UNIT            Value   Description
#---------- ----------------  -----------
CUR_INT_BOT.M              2001.5:  Current interpolated bottom
PROJECT.     New Zealand Log QC Project:  
SET  .     A0_FINAL_INTER_REF_D:  
ELEVATION_AMSL.M              291.65:  Elevation above mean sea level
ELEVATION_REF.                   KB:  Measurement reference
FORMATION_AT_TD.      Mount Messenger:  Formation at TD
GL_ELEVATION_AMSL.M            286.3000:  Ground level elevation above mean sea level
LICENCE_NUMBER.             PMP38148:  Licence number
ONSHORE_OR_OFFSHORE.              Onshore:  Onshore/offshore
PR_NUMBER.               PR2437:  Petroleum report number
SPUD_DATE.           06/06/1998:  Spud date
STATUS_AT_COMPLETION.     Cased and suspended as a potential oil producer:  Status at completion
TD_DATE.           20/06/1998:  Total depth date
TOTAL_DEPTH_DRILLED.M              2001.5:  Total depth drilled
~Other Information Block
# 
~A       DEPTH             BS           CALI           DENS           DRHO            DTC             GR        GR_CORR           NEUT      NEUT_CORR            PEF           RESD      RESD_CORR           RESS      RESS_CORR             SP           TEMP           TENS 
# ...
    1597.30440         8.5000         8.7503         2.3140      0.0178137        96.3839       102.3429       103.6691       0.281061       0.271828         2.8095         1.6446         1.6284         1.9352         2.0070        24.5727        51.1963       369.3362
    1597.45680         8.5000         8.7630         2.3120      0.0188167        96.8865       100.0669       101.4331       0.278618       0.269222         2.7874         1.5300         1.5121         1.8191         1.8898        24.7786        51.1963       369.5795
    1597.60920         8.5000         8.7725         2.3289      0.0203746        95.4818       102.0678       103.5166       0.276681       0.267173         2.8166         1.5942         1.5777         1.8957         1.9678        24.6553        51.1963       369.5902
    1597.76160         8.5000         8.7808         2.3533      0.0221521        93.3225       105.7607       107.3089       0.274946       0.265343         2.8662         1.7291         1.7153         2.0486         2.1231        24.4017        51.1963       369.5089
    1597.91400         8.5000         8.7890         2.3777      0.0239296        91.1632       109.4535       111.1012       0.273211       0.263514         2.9157         1.8640         1.8529         2.2015         2.2783        24.1481        51.1963       369.4276
    1598.06640         8.5000         8.8034         2.4066      0.0239072        89.0556       111.3134       113.0693       0.266281       0.256603         2.9739         2.0430         2.0357         2.4109         2.4912        23.8323        51.1972       369.4119
    1598.21880         8.5000         8.8259         2.4415      0.0215536        87.0149       110.7991       112.6749       0.252625       0.243108         3.0435         2.2791         2.2771         2.6933         2.7787        23.4358        51.1993       369.4812
    1598.37120         8.5000         8.8483         2.4763      0.0192001        84.9743       110.2849       112.2804       0.238969       0.229613         3.1130         2.5151         2.5185         2.9757         3.0662        23.0394        51.2014       369.5505
    1598.52360         8.5000         8.8640         2.4996      0.0171667        83.0694       109.6142       111.6884       0.231093       0.221786         3.1635         2.7256         2.7336         3.2183         3.3129        22.6824        51.2030       369.7328
    1598.67600         8.5000         8.8426         2.4597      0.0168810        81.9054       108.0897       110.0185       0.254766       0.244893         3.1100         2.7966         2.8050         3.2436         3.3368        22.5410        51.2017       370.5318
    1598.82840         8.5000         8.8212         2.4198      0.0165953        80.7414       106.5651       108.3486       0.278438       0.268000         3.0565         2.8677         2.8765         3.2689         3.3606        22.3996        51.2005       371.3307
    1598.98080         8.5000         8.7998         2.3800      0.0163096        79.5774       105.0406       106.6787       0.302110       0.291107         3.0030         2.9387         2.9480         3.2941         3.3845        22.2581        51.1992       372.1297
    1599.13320         8.5000         8.8169         2.3638      0.0154049        83.7019       105.0501       106.7824       0.297501       0.286350         2.9640         2.6605         2.6649         2.9991         3.0865        22.3194        51.1988       371.5099
    1599.28560         8.5000         8.8395         2.3510      0.0144109        88.5887       105.2808       107.1418       0.288816       0.277575         2.9271         2.3319         2.3307         2.6579         2.7421        22.4099        51.1984       370.6857
    1599.43800         8.5000         8.8621         2.3382      0.0134169        93.4755       105.5114       107.5011       0.280131       0.268801         2.8902         2.0033         1.9966         2.3167         2.3977        22.5003        51.1981       369.8615
    1599.59040         8.5000         8.8644         2.3383      0.0157144        95.4005       106.6881       108.7105       0.281691       0.270246         2.8765         1.8980         1.8894         2.2124         2.2923        22.7006        51.2049       369.5977
    1599.74280         8.5000         8.8527         2.3473      0.0202692        95.2941       108.5136       110.5029       0.290277       0.278700         2.8788         1.9458         1.9378         2.2705         2.3508        22.9762        51.2166       369.7185
    1599.89520         8.5000         8.8410         2.3562      0.0248240        95.1878       110.3391       112.2953       0.298864       0.287153         2.8810         1.9936         1.9862         2.3286         2.4093        23.2518        51.2283       369.8392
    1600.04760         8.5000         8.8344         2.3602      0.0273380        95.1115       111.2129       113.1472       0.303450       0.291673         2.8731         2.0081         2.0009         2.3478         2.4285        23.4209        51.2408       369.8435
    1600.20000         8.5000         8.8387         2.3533      0.0253585        95.1015       109.9914       111.9287       0.299227       0.287532         2.8428         1.9494         1.9411         2.2814         2.3613        23.3555        51.2552       369.5913
    1600.35240         8.5000         8.8431         2.3463      0.0233790        95.0915       108.7699       110.7102       0.295004       0.283392         2.8125         1.8907         1.8814         2.2149         2.2941        23.2901        51.2696       369.3391
    1600.50480         8.5000         8.8474         2.3396      0.0214704        95.0853       107.5751       109.5188       0.290942       0.279405         2.7842         1.8331         1.8228         2.1493         2.2277        23.2245        51.2837       369.0979
    1600.65720         8.5000         8.8518         2.3386      0.0217404        95.1954       107.2008       109.1609       0.291838       0.280170         2.8192         1.8104         1.7998         2.1099         2.1879        23.1501        51.2892       369.1966
    1600.80960         8.5000         8.8563         2.3376      0.0220104        95.3055       106.8266       108.8030       0.292734       0.280934         2.8541         1.7877         1.7768         2.0705         2.1480        23.0758        51.2947       369.2953
    1600.96200         8.5000         8.8607         2.3367      0.0222804        95.4156       106.4523       108.4451       0.293630       0.281699         2.8891         1.7650         1.7537         2.0310         2.1081        23.0015        51.3002       369.3940
    1601.11440         8.5000         8.8422         2.3453      0.0235139        95.1370       107.5463       109.4523       0.287538       0.276210         2.9267         1.8231         1.8124         2.0828         2.1598        22.8393        51.3038       369.2421
    1601.26680         8.5000         8.8161         2.3572      0.0250673        94.7294       109.1280       110.9129       0.279124       0.268644         2.9652         1.9079         1.8982         2.1648         2.2420        22.6479        51.3069       369.0070
    1601.41920         8.5000         8.7899         2.3691      0.0266208        94.3217       110.7097       112.3736       0.270709       0.261078         3.0038         1.9927         1.9840         2.2469         2.3242        22.4566        51.3099       368.7720
    1601.57160         8.5000         8.7907         2.3730      0.0268753        94.1245       110.0560       111.7113       0.271146       0.261479         3.0141         2.0494         2.0418         2.3000         2.3782        22.2721        51.3125       368.7011
    1601.72400         8.5000         8.8218         2.3680      0.0256640        94.1647       106.8795       108.6535       0.281570       0.270870         2.9927         2.0743         2.0681         2.3205         2.4004        22.0954        51.3146       368.8157
