~Version Information Block
VERS .                 2.00:  CWLS LOG ASCII STANDARD - VERSION 2.00
WRAP .                   NO:  One line per depth step
~Well Information Block
#MNEM.UNIT        Data Type   Information
#---------- ----------------  -----------
STRT .M             5.63880:  START DEPTH
STOP .M          2149.90680:  STOP DEPTH
STEP .M             0.15240:  STEP
NULL .              -999.25:  NULL VALUE
COMP .                     :  COMPANY
WELL .            Ngatoro-4:  WELL
FLD  .                     :  FIELD
LOC  .                     :  LOCATION
CTRY .                     :  COUNTRY
STAT .                     :  STATE
CNTY .                     :  COUNTY
SRVC .     New Zealand Petroleum Co Ltd:  SERVICE COMPANY
DATE .                     :  DATE
API  .                     :  API NUMBER
UWI  .         100000159749:  UNIQUE WELL ID
LATI .           -39.193014:  LATITUDE
LONG .          174.1756345:  LONGITUDE
~Curve Information Block
#MNEM.UNIT         API CODE   Curve Description
#---------- ----------------  -----------------
DEPTH.M                    :  
BS   .IN                   :  Bit Size (Created in Geolog)
CALI .IN                   :  Caliper Log (CALI)
DRHO .G/C3                 :  Density Log Correction (DRHO)
DTC  .US/F                 :  Delta T (DT)
DTS  .US/F                 :  Delta T Shear Lower Dipole (DT1)
GR   .GAPI                 :  Gamma-Ray Log (GR)
GR_CORR.GAPI                 :  Gamma ray corrected
NEUT .V/V                  :  Neutron Log Porosity (NPHI)
NEUT_CORR.V/V                  :  Corrected NPHI (limestone units)
PEF  .B/E                  :  Photoelectric Factor (PEDF)
RESD .OHMM                 :  Laterolog Deep Resistivity (LLD)
RESD_CORR.OHMM                 :  Borehole corrected LLD
RESS .OHMM                 :  Shallow Laterolog (LLS)
RESS_CORR.OHMM                 :  Borehole corrected LLS
SP   .MV                   :  Spontaneous Potential Log (SP)
TEMP .DEGC                 :  Temperature (TEMP)
TENS .KGF                  :  Cable tension at surface (TENS)
~Parameter Information Block
#MNEM.UNIT            Value   Description
#---------- ----------------  -----------
CUR_INT_BOT.M                2150:  Current interpolated bottom
PROJECT.     New Zealand Log QC Project:  
SET  .     A0_FINAL_INTER_REF_D:  
ELEVATION_AMSL.M               297.7:  Elevation above mean sea level
ELEVATION_REF.                   KB:  Measurement reference
FORMATION_AT_TD.                 Moki:  Formation at TD
GL_ELEVATION_AMSL.M            292.8000:  Ground level elevation above mean sea level
LICENCE_NUMBER.             PPL38706:  Licence number
ONSHORE_OR_OFFSHORE.              Onshore:  Onshore/offshore
PR_NUMBER.               PR1914:  Petroleum report number
SPUD_DATE.           07/03/1993:  Spud date
STATUS_AT_COMPLETION.     Suspended as a potential oil producer:  Status at completion
TD_DATE.           21/03/1993:  Total depth date
TOTAL_DEPTH_DRILLED.M                2150:  Total depth drilled
~Other Information Block
# 
~A       DEPTH             BS           CALI           DRHO            DTC            DTS             GR        GR_CORR           NEUT      NEUT_CORR            PEF           RESD      RESD_CORR           RESS      RESS_CORR             SP           TEMP           TENS 
# ...
    1372.66680         8.5000         8.7247      0.0018227      -999.2500      -999.2500       118.3297       119.3240       0.250313       0.242125         3.2729         2.7499         2.7601         3.0431         3.1150      -999.2500      -999.2500       457.1911
    1372.81920         8.5000         8.7252      0.0013603      -999.2500      -999.2500       117.9799       119.2019       0.251364       0.243145         3.2776         2.7452         2.7554         3.0409         3.1129      -999.2500      -999.2500       457.2058
    1372.97160         8.5000         8.7258      0.0008979      -999.2500      -999.2500       117.6301       119.0797       0.252415       0.244165         3.2822         2.7406         2.7507         3.0387         3.1107      -999.2500      -999.2500       457.2205
    1373.12400         8.5000         8.7243      0.0014445      -999.2500      -999.2500       119.2607       120.4661       0.254182       0.245880         3.2639         2.7495         2.7597         3.0541         3.1261      -999.2500      -999.2500       457.1109
    1373.27640         8.5000         8.7225      0.0022221      -999.2500      -999.2500       121.3449       122.1979       0.256112       0.247753         3.2404         2.7615         2.7718         3.0735         3.1455      -999.2500      -999.2500       456.9730
    1373.42880         8.5000         8.7207      0.0029997      -999.2500      -999.2500       123.4291       123.9298       0.258042       0.249627         3.2169         2.7735         2.7839         3.0929         3.1649      -999.2500      -999.2500       456.8350
    1373.58120         8.5000         8.7228      0.0036055      -999.2500      -999.2500       123.7322       124.2299       0.256916       0.248503         3.2002         2.7707         2.7812         3.0940         3.1662      -999.2500      -999.2500       456.6432
    1373.73360         8.5000         8.7283      0.0040607      -999.2500      -999.2500       122.4736       123.2745       0.253112       0.244751         3.1893         2.7549         2.7654         3.0791         3.1516      -999.2500      -999.2500       456.4043
    1373.88600         8.5000         8.7339      0.0045159      -999.2500      -999.2500       121.2149       122.3192       0.249307       0.241000         3.1784         2.7391         2.7496         3.0642         3.1371      -999.2500      -999.2500       456.1654
    1374.03840         8.5000         8.7388      0.0050011      -999.2500      -999.2500       120.2254       121.5330       0.246496       0.238214         3.1765         2.7266         2.7371         3.0536         3.1268      -999.2500      -999.2500       456.1215
    1374.19080         8.5000         8.7419      0.0055753      -999.2500      -999.2500       120.0349       121.2491       0.246636       0.238294         3.2013         2.7239         2.7344         3.0558         3.1292      -999.2500      -999.2500       456.6567
    1374.34320         8.5000         8.7450      0.0061496      -999.2500      -999.2500       119.8443       120.9651       0.246776       0.238374         3.2260         2.7211         2.7318         3.0580         3.1317      -999.2500      -999.2500       457.1918
    1374.49560         8.5000         8.7481      0.0067238      -999.2500      -999.2500       119.6537       120.6812       0.246915       0.238455         3.2508         2.7184         2.7291         3.0602         3.1341      -999.2500      -999.2500       457.7270
    1374.64800         8.5000         8.7424      0.0057026      -999.2500      -999.2500       119.3785       120.4418       0.247875       0.239471         3.2671         2.7015         2.7117         3.0421         3.1154      -999.2500      -999.2500       457.7987
    1374.80040         8.5000         8.7365      0.0046340      -999.2500      -999.2500       119.1007       120.2038       0.248859       0.240516         3.2831         2.6842         2.6939         3.0234         3.0962      -999.2500      -999.2500       457.8567
    1374.95280         8.5000         8.7306      0.0035654      -999.2500      -999.2500       118.8230       119.9657       0.249843       0.241560         3.2991         2.6669         2.6760         3.0048         3.0769      -999.2500      -999.2500       457.9146
    1375.10520         8.5000         8.7286      0.0033362      -999.2500      -999.2500       118.4671       119.5378       0.250801       0.242517         3.3130         2.6719         2.6811         3.0099         3.0819      -999.2500      -999.2500       457.7399
    1375.25760         8.5000         8.7284      0.0034837      -999.2500      -999.2500       118.0762       119.0247       0.251747       0.243435         3.3260         2.6870         2.6964         3.0258         3.0979      -999.2500      -999.2500       457.4608
    1375.41000         8.5000         8.7282      0.0036311      -999.2500      -999.2500       117.6854       118.5116       0.252693       0.244353         3.3390         2.7021         2.7117         3.0417         3.1139      -999.2500      -999.2500       457.1818
    1375.56240         8.5000         8.7289      0.0036902      -999.2500      -999.2500       117.1852       118.0030       0.254763       0.246335         3.3397         2.6983         2.7079         3.0373         3.1095      -999.2500      -999.2500       457.0804
    1375.71480         8.5000         8.7308      0.0036217      -999.2500      -999.2500       116.5276       117.5009       0.258454       0.249854         3.3226         2.6672         2.6764         3.0035         3.0756      -999.2500      -999.2500       457.2354
    1375.86720         8.5000         8.7328      0.0035532      -999.2500      -999.2500       115.8699       116.9989       0.262145       0.253372         3.3055         2.6361         2.6448         2.9697         3.0416      -999.2500      -999.2500       457.3905
    1376.01960         8.5000         8.7323      0.0034492      -999.2500      -999.2500       115.3252       116.5810       0.265339       0.256460         3.2936         2.6057         2.6139         2.9370         3.0087      -999.2500      -999.2500       457.5284
    1376.17200         8.5000         8.7161      0.0031039      -999.2500      -999.2500       115.5454       116.7337       0.265166       0.256633         3.3171         2.5800         2.5872         2.9123         2.9826      -999.2500      -999.2500       457.5508
    1376.32440         8.5000         8.6999      0.0027586      -999.2500      -999.2500       115.7656       116.8865       0.264992       0.256805         3.3406         2.5543         2.5604         2.8875         2.9565      -999.2500      -999.2500       457.5732
    1376.47680         8.5000         8.6837      0.0024133      -999.2500      -999.2500       115.9858       117.0392       0.264819       0.256978         3.3641         2.5286         2.5337         2.8628         2.9303      -999.2500      -999.2500       457.5956
    1376.62920         8.5000         8.6578      0.0029203      -999.2500      -999.2500       117.8764       118.4613       0.266205       0.258781         3.3235         2.5428         2.5470         2.8779         2.9437      -999.2500      -999.2500       457.6991
    1376.78160         8.5000         8.6303      0.0035805      -999.2500      -999.2500       120.0668       120.1113       0.267871       0.260877         3.2715         2.5641         2.5675         2.9003         2.9640      -999.2500      -999.2500       457.8171
    1376.93400         8.5000         8.6027      0.0042406      -999.2500      -999.2500       122.2573       121.7613       0.269537       0.262973         3.2194         2.5854         2.5880         2.9226         2.9844      -999.2500      -999.2500       457.9351
    1377.08640         8.5000         8.5925      0.0047119      -999.2500      -999.2500       121.9160       121.4656       0.267720       0.261392         3.1887         2.5971         2.5995         2.9349         2.9960      -999.2500      -999.2500       458.0287
