~Version Information Block
VERS .                 2.00:  CWLS LOG ASCII STANDARD - VERSION 2.00
WRAP .                   NO:  One line per depth step
~Well Information Block
#MNEM.UNIT        Data Type   Information
#---------- ----------------  -----------
STRT .M           527.15160:  START DEPTH
STOP .M          2099.31000:  STOP DEPTH
STEP .M             0.15240:  STEP
NULL .              -999.25:  NULL VALUE
COMP .                     :  COMPANY
WELL .            Ngatoro-8:  WELL
FLD  .                     :  FIELD
LOC  .                     :  LOCATION
CTRY .                     :  COUNTRY
STAT .                     :  STATE
CNTY .                     :  COUNTY
SRVC .     New Zealand Petroleum Co Ltd:  SERVICE COMPANY
DATE .                     :  DATE
API  .                     :  API NUMBER
UWI  .         100000210422:  UNIQUE WELL ID
LATI .          -39.2038856:  LATITUDE
LONG .          174.1703227:  LONGITUDE
~Curve Information Block
#MNEM.UNIT         API CODE   Curve Description
#---------- ----------------  -----------------
DEPTH.M                    :  
BS   .IN                   :  Bit Size (Created in Geolog)
CALI .IN                   :  Caliper (HCAL)
DENS .G/C3                 :  Bulk Density (RHOZ) and HR Bulk Density (RHO8)
DTC  .US/F                 :  Delta Time (DT)
GR   .GAPI                 :  Gamma Ray (GR) and HR Gamma Ray (HGR)
NEUT .V/V                  :  Neutron Porosity (NPHI) and HR Neutron Porosity (HTNP)
NEUT_CORR.V/V                  :  Corrected NPHI (limestone units)
PEF  .B/E                  :  Photoelectric Factor (PEF) and (PEFZ)
RESD .OHMM                 :  HALS Deep Res. (HLLD) and HR HALS Deep Res. (HRLD)
RESS .OHMM                 :  HALS Shallow Res. (HLLS) and HR HALS Shallow Res. (HRLS)
SP   .MV                   :  Spontaneous Potential (SP)
~Parameter Information Block
#MNEM.UNIT            Value   Description
#---------- ----------------  -----------
CUR_INT_BOT.M                2100:  Current interpolated bottom
PROJECT.     New Zealand Log QC Project:  
SET  .     A0_FINAL_INTER_REF_D:  
ELEVATION_AMSL.M                 328:  Elevation above mean sea level
ELEVATION_REF.                   KB:  Measurement reference
FORMATION_AT_TD.             Manganui:  Formation at TD
GL_ELEVATION_AMSL.M            322.5000:  Ground level elevation above mean sea level
LICENCE_NUMBER.             PPL38706:  Licence number
ONSHORE_OR_OFFSHORE.              Onshore:  Onshore/offshore
PR_NUMBER.               PR2216:  Petroleum report number
SPUD_DATE.           22/04/1996:  Spud date
STATUS_AT_COMPLETION.     Suspended with 7" casing cemented to TD:  Status at completion
TD_DATE.           29/04/1996:  Total depth date
TOTAL_DEPTH_DRILLED.M                2100:  Total depth drilled
~Other Information Block
# 
~A       DEPTH             BS           CALI           DENS            DTC             GR           NEUT      NEUT_CORR            PEF           RESD           RESS             SP 
# ...
     554.58360         8.5000         8.4039         2.2056        91.7330        86.2428       0.319404       0.314718         2.9189        13.7799        10.6922      -999.2500
     554.73600         8.5000         8.4043         2.2219        91.7533        88.6362       0.315605       0.310714         2.9350        13.5419        10.4042      -999.2500
     554.88840         8.5000         8.4048         2.2382        91.7736        91.0296       0.311806       0.306711         2.9512        13.3040        10.1163      -999.2500
     555.04080         8.5000         8.4041         2.2504        91.7939        92.8436       0.312021       0.306801         2.9668        13.2454         9.9635      -999.2500
     555.19320         8.5000         8.3999         2.2514        91.8142        93.0725       0.323219       0.318088         2.9809        13.6775        10.1803      -999.2500
     555.34560         8.5000         8.3957         2.2524        91.8345        93.3015       0.334417       0.329374         2.9950        14.1096        10.3970      -999.2500
     555.49800         8.5000         8.3915         2.2534        91.8548        93.5305       0.345615       0.340660         3.0091        14.5417        10.6137      -999.2500
     555.65040         8.5000         8.4115         2.2432        91.8751        91.5679       0.345958       0.340883         2.9808        14.1761        10.4186      -999.2500
     555.80280         8.5000         8.4318         2.2329        91.8954        89.5761       0.346157       0.340959         2.9520        13.7999        10.2180      -999.2500
     555.95520         8.5000         8.4521         2.2226        91.9157        87.5844       0.346356       0.341035         2.9231        13.4237        10.0174      -999.2500
     556.10760         8.5000         8.4488         2.2159        91.9360        87.8216       0.344477       0.339353         2.9301        13.3510         9.9711        66.1032
     556.26000         8.5000         8.4357         2.2107        91.9563        88.9869       0.341734       0.336938         2.9519        13.4046         9.9891        65.6011
     556.41240         8.5000         8.4225         2.2054        91.9766        90.1523       0.338991       0.334523         2.9738        13.4582        10.0071        65.0990
     556.56480         8.5000         8.4204         2.2070        91.9968        91.2347       0.331509       0.327131         2.9884        13.5936        10.0666        64.6615
     556.71720         8.5000         8.4333         2.2178        92.0172        92.2051       0.317621       0.313009         2.9932        13.8395        10.1823        64.3112
     556.86960         8.5000         8.4461         2.2286        92.0374        93.1755       0.303733       0.298888         2.9979        14.0854        10.2979        63.9608
     557.02200         8.5000         8.4559         2.2371        92.0577        93.9666       0.292733       0.287667         3.0033        14.3135        10.4103        63.6278
     557.17440         8.5000         8.4470         2.2317        92.0780        93.6953       0.298848       0.293640         3.0126        14.4364        10.5031        63.3973
     557.32680         8.5000         8.4382         2.2264        92.0983        93.4241       0.304964       0.299613         3.0218        14.5593        10.5959        63.1668
     557.47920         8.5000         8.4293         2.2210        92.1186        93.1528       0.311079       0.305586         3.0311        14.6822        10.6887        62.9363
     557.63160         8.5000         8.4275         2.2152        92.1389        92.2961       0.315091       0.309969         3.0182        14.5137        10.5676        62.8057
     557.78400         8.5000         8.4268         2.2092        92.1592        91.3469       0.318770       0.314100         3.0019        14.2991        10.4127        62.6908
     557.93640         8.5000         8.4261         2.2033        92.1795        90.3976       0.322449       0.318231         2.9856        14.0845        10.2578        62.5760
     558.08880         8.5000         8.4274         2.2032        92.1998        89.0200       0.321403       0.317147         2.9736        14.0273        10.2387        62.5451
     558.24120         8.5000         8.4303         2.2072        92.2201        87.3354       0.316972       0.312328         2.9646        14.0827        10.3168        62.5743
     558.39360         8.5000         8.4332         2.2112        92.2404        85.6509       0.312541       0.307509         2.9557        14.1381        10.3949        62.6035
     558.54600         8.5000         8.4322         2.2154        92.2607        85.2500       0.310906       0.305757         2.9578        14.1370        10.4205        62.5929
     558.69840         8.5000         8.4222         2.2198        92.2810        87.8183       0.315738       0.311100         2.9854        14.0053        10.3246        62.4903
     558.85080         8.5000         8.4122         2.2242        92.3013        90.3867       0.320570       0.316443         3.0130        13.8735        10.2287        62.3877
     559.00320         8.5000         8.4025         2.2285        92.3216        92.8817       0.325262       0.321629         3.0398        13.7452        10.1348        62.2755
     559.15560         8.5000         8.4064         2.2285        92.3419        91.9575       0.323425       0.319478         3.0292        13.7818        10.1386        61.7142
     559.30800         8.5000         8.4104         2.2285        92.3622        91.0334       0.321588       0.317327         3.0186        13.8184        10.1424        61.1529
     559.46040         8.5000         8.4143         2.2285        92.3825        90.1092       0.319751       0.315176         3.0080        13.8550        10.1462        60.5915
     559.61280         8.5000         8.4152         2.2303        92.4028        89.4071       0.315110       0.310323         2.9973        13.7137        10.0593        60.1037
     559.76520         8.5000         8.4151         2.2327        92.4231        88.7830       0.309484       0.304522         2.9865        13.5100         9.9405        59.6417
     559.91760         8.5000         8.4150         2.2351        92.4434        88.1588       0.303859       0.298720         2.9757        13.3063         9.8218        59.1797
     560.07000         8.5000         8.4156         2.2415        92.4637        87.9518       0.298551       0.293326         2.9926        13.3363         9.8611        58.8439
     560.22240         8.5000         8.4172         2.2526        92.4840        88.2358       0.293617       0.288412         3.0421        13.6413        10.0867        58.6567
     560.37480         8.5000         8.4188         2.2638        92.5043        88.5199       0.288682       0.283497         3.0917        13.9464        10.3122        58.4696
     560.52720         8.5000         8.4161         2.2732        92.5246        89.0405       0.284820       0.279661         3.1286        14.1508        10.4658        58.2525
     560.67960         8.5000         8.3936         2.2747        92.5449        90.6503       0.285892       0.280789         3.1071        13.8918        10.2882        57.8973
     560.83200         8.5000         8.3711         2.2761        92.5652        92.2601       0.286965       0.281917         3.0856        13.6328        10.1106        57.5421
     560.98440         8.5000         8.3487         2.2776        92.5855        93.8699       0.288037       0.283044         3.0641        13.3738         9.9331        57.1870
     561.13680         8.5000         8.3685         2.2789        92.6058        92.4621       0.293583       0.288547         3.0378        13.5295         9.9738        57.2753
     561.28920         8.5000         8.3932         2.2803        92.6261        90.7101       0.299640       0.294548         3.0109        13.7325        10.0395        57.4142
