~Version Information Block
VERS .                 2.00:  CWLS LOG ASCII STANDARD - VERSION 2.00
WRAP .                   NO:  One line per depth step
~Well Information Block
#MNEM.UNIT        Data Type   Information
#---------- ----------------  -----------
STRT .M           530.50440:  START DEPTH
STOP .M          1878.48240:  STOP DEPTH
STEP .M             0.15240:  STEP
NULL .              -999.25:  NULL VALUE
COMP .                     :  COMPANY
WELL .            Ngatoro-7:  WELL
FLD  .                     :  FIELD
LOC  .                     :  LOCATION
CTRY .                     :  COUNTRY
STAT .                     :  STATE
CNTY .                     :  COUNTY
SRVC .     New Zealand Petroleum Co Ltd:  SERVICE COMPANY
DATE .                     :  DATE
API  .                     :  API NUMBER
UWI  .         100000210191:  UNIQUE WELL ID
LATI .          -39.2039075:  LATITUDE
LONG .          174.1707218:  LONGITUDE
~Curve Information Block
#MNEM.UNIT         API CODE   Curve Description
#---------- ----------------  -----------------
DEPTH.M                    :  
BS   .IN                   :  Bit Size (Created in Geolog)
CALI .IN                   :  Caliper (HCAL)
DENS .G/C3                 :  Bulk Density (RHOZ) and HR Bulk Density (RHO8)
DTC  .US/F                 :  Delta Time (DTC)
GR   .GAPI                 :  Gamma Ray (GR) and HR Gamma Ray (HGR)
NEUT .V/V                  :  Neutron Porosity (NPHI) and HR Neutron Porosity (HTNP)
NEUT_CORR.V/V                  :  Corrected NPHI (limestone units)
PEF  .B/E                  :  HRDD Std Resolution Formation Photoelectric Factor (PEFZ) and (PEF8)
RESD .OHMM                 :  HALS Deep Res. (HLLD) and HR HALS Deep Res. (HRLD)
RESS .OHMM                 :  HALS Shallow Res. (HLLS) and HR HALS Shallow Res. (HRLS)
SP   .MV                   :  Spontaneous Potential (SP)
~Parameter Information Block
#MNEM.UNIT            Value   Description
#---------- ----------------  -----------
CUR_INT_BOT.M                1879:  Current interpolated bottom
PROJECT.     New Zealand Log QC Project:  
SET  .     A0_FINAL_INTER_REF_D:  
ELEVATION_AMSL.M                 327:  Elevation above mean sea level
ELEVATION_REF.                   KB:  Measurement reference
FORMATION_AT_TD.      Mount Messenger:  Formation at TD
GL_ELEVATION_AMSL.M            321.4000:  Ground level elevation above mean sea level
LICENCE_NUMBER.             PPL38706:  Licence number
ONSHORE_OR_OFFSHORE.              Onshore:  Onshore/offshore
PR_NUMBER.               PR2215:  Petroleum report number
SPUD_DATE.           09/04/1996:  Spud date
STATUS_AT_COMPLETION.     Suspended with 7" casing cemented in place:  Status at completion
TD_DATE.           18/04/1996:  Total depth date
TOTAL_DEPTH_DRILLED.M                1879:  Total depth drilled
~Other Information Block
# 
~A       DEPTH             BS           CALI           DENS            DTC             GR           NEUT      NEUT_CORR            PEF           RESD           RESS             SP 
# ...
     557.93640         8.5000         8.7744         2.2007      -999.2500        81.7896       0.360093       0.356051         2.9082        13.2671      -999.2500      -999.2500
     558.08880         8.5000         8.7521         2.2001      -999.2500        83.3435       0.358689       0.354811         2.9302        13.0981      -999.2500      -999.2500
     558.24120         8.5000         8.6966         2.2040      -999.2500        84.5778       0.352219       0.348516         2.9609        12.9542      -999.2500      -999.2500
     558.39360         8.5000         8.6411         2.2078      -999.2500        85.8120       0.345749       0.342221         2.9916        12.8104      -999.2500      -999.2500
     558.54600         8.5000         8.6028         2.2104      -999.2500        86.6395       0.340836       0.337413         3.0102        12.6592        10.8527       140.9753
     558.69840         8.5000         8.6045         2.2098      -999.2500        86.5264       0.339523       0.336046         3.0008        12.4909        10.7660       141.0969
     558.85080         8.5000         8.6061         2.2093      -999.2500        86.4133       0.338211       0.334679         2.9915        12.3225        10.6793       141.2185
     559.00320         8.5000         8.6101         2.2088      -999.2500        86.2982       0.336741       0.333138         2.9820        12.1606        10.5960       141.3354
     559.15560         8.5000         8.7240         2.2097      -999.2500        86.0875       0.327917       0.323489         2.9699        12.2966        10.6674       141.2325
     559.30800         8.5000         8.8379         2.2105      -999.2500        85.8768       0.319094       0.313841         2.9577        12.4327        10.7388       141.1296
     559.46040         8.5000         8.9517         2.2113      -999.2500        85.6661       0.310271       0.304193         2.9455        12.5688        10.8103       141.0267
     559.61280         8.5000         8.9648         2.2185      -999.2500        86.0859       0.305124       0.298771         2.9611        12.7174        10.9485       140.9126
     559.76520         8.5000         8.9425         2.2279      -999.2500        86.7271       0.301268       0.294832         2.9865        12.8703        11.1101       140.7944
     559.91760         8.5000         8.9201         2.2373      -999.2500        87.3683       0.297412       0.290894         3.0119        13.0232        11.2718       140.6763
     560.07000         8.5000         8.8660         2.2514      -999.2500        86.4499       0.294523       0.288098         3.0565        13.3357        11.5630       140.3781
     560.22240         8.5000         8.7745         2.2709      -999.2500        83.6955       0.292772       0.286648         3.1236        13.8361        12.0068       139.8678
     560.37480         8.5000         8.6829         2.2904      -999.2500        80.9411       0.291020       0.285198         3.1908        14.3365        12.4506       139.3575
     560.52720         8.5000         8.6219         2.3026      -999.2500        78.8148       0.291752       0.286237         3.2374        14.6110        12.6881       138.8039
     560.67960         8.5000         8.7014         2.2813      -999.2500        79.5798       0.303916       0.298737         3.1894        13.8457        11.9762       138.0509
     560.83200         8.5000         8.7809         2.2600      -999.2500        80.3448       0.316080       0.311237         3.1414        13.0805        11.2643       137.2979
     560.98440         8.5000         8.8603         2.2387      -999.2500        81.1097       0.328244       0.323737         3.0934        12.3152        10.5525       136.5448
     561.13680         8.5000         8.8567         2.2377      -999.2500        82.1010       0.332538       0.328246         3.0613        12.2748        10.5768       136.1587
     561.28920         8.5000         8.8437         2.2391      -999.2500        83.1180       0.335934       0.331844         3.0310        12.3172        10.6851       135.8144
     561.44160         8.5000         8.8306         2.2404      -999.2500        84.1350       0.339330       0.335443         3.0007        12.3595        10.7934       135.4701
     561.59400         8.5000         8.7935         2.2477      -999.2500        86.0338       0.337718       0.333781         3.0196        12.5060        10.9403       135.2253
     561.74640         8.5000         8.7413         2.2588      -999.2500        88.4804       0.332995       0.328851         3.0691        12.7172        11.1111       135.0424
     561.89880         8.5000         8.6891         2.2698      -999.2500        90.9270       0.328272       0.323922         3.1186        12.9285        11.2820       134.8595
     562.05120         8.5000         8.6842         2.2765      -999.2500        92.1331       0.322468       0.317837         3.1463        12.9674        11.2682       134.6420
     562.20360         8.5000         8.7727         2.2746      -999.2500        90.8872       0.314525       0.309470         3.1308        12.6658        10.8896       134.3564
     562.35600         8.5000         8.8611         2.2727      -999.2500        89.6413       0.306583       0.301102         3.1153        12.3641        10.5109       134.0708
     562.50840         8.5000         8.9442         2.2712      -999.2500        88.4827       0.298566       0.292636         3.1012        12.1197        10.1869       133.7886
     562.66080         8.5000         8.9345         2.2776      -999.2500        88.8202       0.289260       0.282463         3.1105        12.8558        10.7989       133.5655
     562.81320         8.5000         8.9247         2.2839      -999.2500        89.1577       0.279953       0.272291         3.1198        13.5919        11.4110       133.3424
     562.96560         8.5000         8.9150         2.2903      -999.2500        89.4952       0.270647       0.262118         3.1291        14.3280        12.0230       133.1193
     563.11800         8.5000         8.8891         2.2992      -999.2500        89.3959       0.281193       0.273388         3.1552        14.1906        11.9209       132.9230
     563.27040         8.5000         8.8586         2.3089      -999.2500        89.1693       0.297525       0.290908         3.1862        13.7985        11.6105       132.7345
     563.42280         8.5000         8.8280         2.3186      -999.2500        88.9426       0.313858       0.308429         3.2171        13.4065        11.3002       132.5461
     563.57520         8.5000         8.8426         2.3110      -999.2500        88.1113       0.327676       0.322640         3.1979        12.9392        10.9065       132.2484
     563.72760         8.5000         8.9036         2.2858      -999.2500        86.6592       0.338914       0.333455         3.1272        12.3949        10.4274       131.8387
     563.88000         8.5000         8.9646         2.2606      -999.2500        85.2070       0.350153       0.344270         3.0565        11.8505         9.9482       131.4290
     564.03240         8.5000         9.0116         2.2410      -999.2500        84.6244       0.357646       0.351596         3.0028        11.5157         9.6549       130.9803
     564.18480         8.5000         9.0066         2.2422      -999.2500        87.2623       0.351269       0.346003         3.0122        11.9574        10.0502       130.3872
     564.33720         8.5000         9.0017         2.2434      -999.2500        89.9001       0.344893       0.340411         3.0216        12.3990        10.4454       129.7940
     564.48960         8.5000         8.9968         2.2446      -999.2500        92.5380       0.338517       0.334818         3.0309        12.8407        10.8406       129.2009
     564.64200         8.5000         9.0020         2.2480      -999.2500        90.2721       0.328996       0.324588         3.0500        12.5657        10.6097       129.1047
