~Version Information Block
VERS .                 2.00:  CWLS LOG ASCII STANDARD - VERSION 2.00
WRAP .                   NO:  One line per depth step
~Well Information Block
#MNEM.UNIT        Data Type   Information
#---------- ----------------  -----------
STRT .M           527.15160:  START DEPTH
STOP .M          2099.31000:  STOP DEPTH
STEP .M             0.15240:  STEP
NULL .              -999.25:  NULL VALUE
COMP .                     :  COMPANY
WELL .            Ngatoro-8:  WELL
FLD  .                     :  FIELD
LOC  .                     :  LOCATION
CTRY .                     :  COUNTRY
STAT .                     :  STATE
CNTY .                     :  COUNTY
SRVC .     New Zealand Petroleum Co Ltd:  SERVICE COMPANY
DATE .                     :  DATE
API  .                     :  API NUMBER
UWI  .         100000210422:  UNIQUE WELL ID
LATI .          -39.2038856:  LATITUDE
LONG .          174.1703227:  LONGITUDE
~Curve Information Block
#MNEM.UNIT         API CODE   Curve Description
#---------- ----------------  -----------------
DEPTH.M                    :  
BS   .IN                   :  Bit Size (Created in Geolog)
CALI .IN                   :  Caliper (HCAL)
DENS .G/C3                 :  Bulk Density (RHOZ) and HR Bulk Density (RHO8)
DTC  .US/F                 :  Delta Time (DT)
GR   .GAPI                 :  Gamma Ray (GR) and HR Gamma Ray (HGR)
NEUT .V/V                  :  Neutron Porosity (NPHI) and HR Neutron Porosity (HTNP)
NEUT_CORR.V/V                  :  Corrected NPHI (limestone units)
PEF  .B/E                  :  Photoelectric Factor (PEF) and (PEFZ)
RESD .OHMM                 :  HALS Deep Res. (HLLD) and HR HALS Deep Res. (HRLD)
RESS .OHMM                 :  HALS Shallow Res. (HLLS) and HR HALS Shallow Res. (HRLS)
SP   .MV                   :  Spontaneous Potential (SP)
~Parameter Information Block
#MNEM.UNIT            Value   Description
#---------- ----------------  -----------
CUR_INT_BOT.M                2100:  Current interpolated bottom
PROJECT.     New Zealand Log QC Project:  
SET  .     A0_FINAL_INTER_REF_D:  
ELEVATION_AMSL.M                 328:  Elevation above mean sea level
ELEVATION_REF.                   KB:  Measurement reference
FORMATION_AT_TD.             Manganui:  Formation at TD
GL_ELEVATION_AMSL.M            322.5000:  Ground level elevation above mean sea level
LICENCE_NUMBER.             PPL38706:  Licence number
ONSHORE_OR_OFFSHORE.              Onshore:  Onshore/offshore
PR_NUMBER.               PR2216:  Petroleum report number
SPUD_DATE.           22/04/1996:  Spud date
STATUS_AT_COMPLETION.     Suspended with 7" casing cemented to TD:  Status at completion
TD_DATE.           29/04/1996:  Total depth date
TOTAL_DEPTH_DRILLED.M                2100:  Total depth drilled
~Other Information Block
# 
~A       DEPTH             BS           CALI           DENS            DTC             GR           NEUT      NEUT_CORR            PEF           RESD           RESS             SP 
# ...
     959.20560         8.5000         8.3576         2.3130        97.9551       104.0070       0.309125       0.304554         3.2719         4.0089         3.7816        59.2843
     959.35800         8.5000         8.3578         2.3150        97.9651       105.6471       0.323261       0.319157         3.2681         4.0068         3.7820        59.6011
     959.51040         8.5000         8.3580         2.3170        97.9752       107.1468       0.336187       0.332517         3.2639         4.0056         3.7831        59.9151
     959.66280         8.5000         8.3582         2.3181        97.9852       106.7295       0.332587       0.328909         3.2535         4.0163         3.7954        60.1924
     959.81520         8.5000         8.3585         2.3192        97.9953       106.3123       0.328986       0.325302         3.2430         4.0270         3.8077        60.4697
     959.96760         8.5000         8.3588         2.3203        98.0053       105.8950       0.325386       0.321695         3.2326         4.0376         3.8200        60.7470
     960.12000         8.5000         8.3607         2.3174        98.0154       105.6285       0.327730       0.323992         3.2547         4.0111         3.7972        60.9300
     960.27240         8.5000         8.3630         2.3136        98.0255       105.4026       0.331680       0.327882         3.2854         3.9745         3.7650        61.0874
     960.42480         8.5000         8.3654         2.3097        98.0355       105.1767       0.335629       0.331772         3.3162         3.9379         3.7327        61.2449
     960.57720         8.5000         8.3700         2.3101        98.0456       105.1130       0.334903       0.330891         3.3178         3.9339         3.7301        61.2455
     960.72960         8.5000         8.3768         2.3146        98.0556       105.2073       0.329622       0.325364         3.2910         3.9615         3.7564        61.0933
     960.88200         8.5000         8.3835         2.3192        98.0657       105.3016       0.324341       0.319836         3.2642         3.9892         3.7827        60.9410
     961.03440         8.5000         8.3910         2.3227        98.0757       105.0702       0.322319       0.317526         3.2369         4.0063         3.8006        60.7484
     961.18680         8.5000         8.4007         2.3225        98.0858       103.7213       0.331480       0.326252         3.2075         3.9874         3.7898        60.4172
     961.33920         8.5000         8.4105         2.3223        98.0958       102.3724       0.340640       0.334979         3.1782         3.9685         3.7789        60.0861
     961.49160         8.5000         8.4202         2.3220        98.1059       101.0235       0.349801       0.343706         3.1489         3.9496         3.7680        59.7549
     961.64400         8.5000         8.4223         2.3249        98.1160       101.6015       0.333922       0.328076         3.1387         3.9729         3.7924        59.3831
     961.79640         8.5000         8.4239         2.3279        98.1260       102.2919       0.316584       0.311026         3.1296         3.9987         3.8189        59.0088
     961.94880         8.5000         8.4255         2.3309        98.1361       102.9823       0.299245       0.293976         3.1205         4.0245         3.8453        58.6346
     962.10120         8.5000         8.4309         2.3325        98.1461       105.4127       0.297811       0.292613         3.1414         4.0477         3.8672        58.5951
     962.25360         8.5000         8.4383         2.3334        98.1562       108.7236       0.304424       0.299187         3.1775         4.0695         3.8867        58.7251
     962.40600         8.5000         8.4457         2.3344        98.1662       112.0345       0.311037       0.305760         3.2136         4.0913         3.9062        58.8550
     962.55840         8.5000         8.4499         2.3361        98.1763       112.8842       0.313182       0.307892         3.2442         4.1323         3.9416        59.0712
     962.71080         8.5000         8.4488         2.3392        98.1863       109.7724       0.308134       0.302875         3.2662         4.2042         4.0025        59.4261
     962.86320         8.5000         8.4477         2.3424        98.1964       106.6607       0.303087       0.297858         3.2882         4.2760         4.0634        59.7810
     963.01560         8.5000         8.4471         2.3449        98.2065       103.7002       0.298186       0.292990         3.3064         4.3386         4.1170        60.0975
     963.16800         8.5000         8.4511         2.3424        98.2165       102.0664       0.294574       0.289428         3.2922         4.3196         4.1060        60.0761
     963.32040         8.5000         8.4552         2.3398        98.2266       100.4326       0.290962       0.285867         3.2779         4.3006         4.0950        60.0548
     963.47280         8.5000         8.4592         2.3373        98.2366        98.7989       0.287350       0.282305         3.2636         4.2816         4.0840        60.0335
     963.62520         8.5000         8.4635         2.3410        98.2467        98.1289       0.289595       0.284522         3.2552         4.3244         4.1294        60.1297
     963.77760         8.5000         8.4679         2.3461        98.2567        97.6682       0.293113       0.287994         3.2480         4.3808         4.1872        60.2515
     963.93000         8.5000         8.4723         2.3512        98.2668        97.2076       0.296631       0.291466         3.2409         4.4371         4.2449        60.3733
     964.08240         8.5000         8.4788         2.3519        98.2768        97.6540       0.301988       0.296927         3.2337         4.4628         4.2711        60.2904
     964.23480         8.5000         8.4871         2.3488        98.2869        98.8711       0.308909       0.304078         3.2265         4.4625         4.2705        60.0336
     964.38720         8.5000         8.4955         2.3457        98.2970       100.0881       0.315830       0.311228         3.2193         4.4621         4.2699        59.7768
     964.53960         8.5000         8.5021         2.3447        98.3070       100.6783       0.318803       0.314323         3.2085         4.4799         4.2872        59.4207
     964.69200         8.5000         8.5036         2.3496        98.3171        99.4831       0.310529       0.305870         3.1875         4.5496         4.3555        58.7816
     964.84440         8.5000         8.5052         2.3544        98.3271        98.2879       0.302255       0.297416         3.1665         4.6193         4.4239        58.1425
     964.99680         8.5000         8.5067         2.3593        98.3372        97.0926       0.293981       0.288962         3.1455         4.6889         4.4922        57.5034
     965.14920         8.5000         8.5068         2.3611        98.3472        97.8033       0.290561       0.285471         3.1410         4.7360         4.5297        57.2319
     965.30160         8.5000         8.5069         2.3629        98.3573        98.5549       0.287244       0.282086         3.1368         4.7827         4.5665        56.9682
     965.45400         8.5000         8.5069         2.3647        98.3673        99.3065       0.283927       0.278701         3.1326         4.8293         4.6033        56.7045
     965.60640         8.5000         8.5056         2.3619        98.3774       100.2396       0.278931       0.273505         3.1298         4.8374         4.6039        56.7522
     965.75880         8.5000         8.5038         2.3573        98.3875       101.2512       0.273209       0.267525         3.1276         4.8289         4.5889        56.9345
     965.91120         8.5000         8.5019         2.3526        98.3975       102.2628       0.267487       0.261545         3.1254         4.8203         4.5739        57.1168
