~Version Information Block
VERS .                 2.00:  CWLS LOG ASCII STANDARD - VERSION 2.00
WRAP .                   NO:  One line per depth step
~Well Information Block
#MNEM.UNIT        Data Type   Information
#---------- ----------------  -----------
STRT .M           422.60520:  START DEPTH
STOP .M          2060.90520:  STOP DEPTH
STEP .M             0.15240:  STEP
NULL .              -999.25:  NULL VALUE
COMP .                     :  COMPANY
WELL .           Ngatoro-11:  WELL
FLD  .                     :  FIELD
LOC  .                     :  LOCATION
CTRY .                     :  COUNTRY
STAT .                     :  STATE
CNTY .                     :  COUNTY
SRVC .     New Zealand Petroleum Co Ltd:  SERVICE COMPANY
DATE .                     :  DATE
API  .                     :  API NUMBER
UWI  .         100000290650:  UNIQUE WELL ID
LATI .          -39.1949222:  LATITUDE
LONG .          174.1848583:  LONGITUDE
~Curve Information Block
#MNEM.UNIT         API CODE   Curve Description
#---------- ----------------  -----------------
DEPTH.M                    :  
BS   .IN                   :  Bit Size (Created in Geolog)
CALI .IN                   :  Caliper Log (CALI)
DENS .G/C3                 :  Compensated Formation Density Log (RHOB)
DRHO .G/C3                 :  Density Log Correction (DRHO)
DTC  .US/F                 :  8-10 Ft Compensated Sonic (BPB) (DTC3)
GR   .GAPI                 :  Gamma-Ray Log (GR)
GR_CORR.GAPI                 :  Gamma ray corrected
NEUT .V/V                  :  Neutron Log Porosity (NPHI)
NEUT_CORR.V/V                  :  Corrected NPHI (limestone units)
PEF  .B/E                  :  Photoelectric Factor (PEDF)
RESD .OHMM                 :  Laterolog Deep Resistivity (LLD)
RESD_CORR.OHMM                 :  Borehole corrected LLD
RESS .OHMM                 :  Shallow Laterolog (LLS)
RESS_CORR.OHMM                 :  Borehole corrected LLS
SP   .MV                   :  Spontaneous Potential Log (SP)
TENS .KGF                  :  Cable tension at surface (TENS)
~Parameter Information Block
#MNEM.UNIT            Value   Description
#---------- ----------------  -----------
CUR_INT_BOT.M                2063:  Current interpolated bottom
PROJECT.     New Zealand Log QC Project:  
SET  .     A0_FINAL_INTER_REF_D:  
ELEVATION_AMSL.M              291.65:  Elevation above mean sea level
ELEVATION_REF.                   KB:  Measurement reference
FORMATION_AT_TD.      Mount Messenger:  Formation at TD
GL_ELEVATION_AMSL.M            286.3000:  Ground level elevation above mean sea level
LICENCE_NUMBER.             PMP38148:  Licence number
ONSHORE_OR_OFFSHORE.              Onshore:  Onshore/offshore
PR_NUMBER.               PR2438:  Petroleum report number
SPUD_DATE.           28/06/1998:  Spud date
STATUS_AT_COMPLETION.     Cased and suspended as a future oil producer:  Status at completion
TD_DATE.           15/07/1998:  Total depth date
TOTAL_DEPTH_DRILLED.M                2063:  Total depth drilled
~Other Information Block
# 
~A       DEPTH             BS           CALI           DENS           DRHO            DTC             GR        GR_CORR           NEUT      NEUT_CORR            PEF           RESD      RESD_CORR           RESS      RESS_CORR             SP           TENS 
# ...
     637.18440         8.5000         9.5069         2.2279       0.013553       118.0072       104.9985       110.4533       0.394017       0.360123         2.7721        11.6705        11.8725         6.9667         7.2635       216.8165       983.2739
     637.33680         8.5000         9.4052         2.2234       0.018557       118.3569       103.0128       107.8431       0.405881       0.373423         2.7381        11.6000        11.7856         6.8641         7.1326       217.6876       982.1599
     637.48920         8.5000         9.3036         2.2189       0.023561       118.7065       101.0271       105.2329       0.417746       0.386723         2.7041        11.5295        11.6987         6.7615         7.0016       218.5587       981.0459
     637.64160         8.5000         9.2829         2.2182       0.025661       118.9427        98.1206       102.1050       0.414651       0.384325         2.6841        11.8816        12.0492         6.7808         7.0166       219.9232       981.7241
     637.79400         8.5000         9.2684         2.2178       0.027540       119.1703        95.1439        98.9377       0.410416       0.380729         2.6653        12.2660        12.4331         6.8095         7.0427       221.3254       982.5388
     637.94640         8.5000         9.2539         2.2174       0.029419       119.3978        92.1672        95.7703       0.406180       0.377133         2.6464        12.6503        12.8170         6.8382         7.0688       222.7276       983.3536
     638.09880         8.5000         9.2455         2.2140       0.032275       119.4073        92.8403        96.4256       0.405451       0.376652         2.6309        12.8454        13.0113         6.8888         7.1187       223.5976       986.2173
     638.25120         8.5000         9.2404         2.2089       0.035661       119.2986        95.4934        99.1547       0.406625       0.377860         2.6173        12.9378        13.1029         6.9514         7.1816       224.1787       990.1924
     638.40360         8.5000         9.2353         2.2039       0.039048       119.1899        98.1465       101.8838       0.407799       0.379069         2.6037        13.0302        13.1944         7.0140         7.2444       224.7599       994.1677
     638.55600         8.5000         9.1689         2.2018       0.039868       118.9155       100.2585       103.7199       0.396160       0.369484         2.5945        13.1160        13.2673         7.1246         7.3399       225.4836       995.8485
     638.70840         8.5000         8.9970         2.2048       0.036268       118.3560       101.4389       104.0189       0.362466       0.341318         2.5928        13.1902        13.3080         7.3180         7.4916       226.4525       993.5800
     638.86080         8.5000         8.8251         2.2078       0.032668       117.7965       102.6193       104.3179       0.328771       0.313152         2.5912        13.2644        13.3486         7.5113         7.6434       227.4214       991.3113
     639.01320         8.5000         8.6670         2.2107       0.028861       117.2405       103.8723       104.7610       0.298833       0.288260         2.5881        13.3416        13.3949         7.6831         7.7768       228.3621       989.0811
     639.16560         8.5000         8.6546         2.2121       0.022868       116.7228       105.8900       106.7251       0.308503       0.297896         2.5699        13.4495        13.4993         7.6272         7.7175       229.0051       987.2551
     639.31800         8.5000         8.6421         2.2136       0.016874       116.2051       107.9078       108.6891       0.318173       0.307532         2.5518        13.5575        13.6037         7.5714         7.6583       229.6481       985.4291
     639.47040         8.5000         8.6296         2.2150       0.010881       115.6874       109.9255       110.6531       0.327843       0.317168         2.5337        13.6655        13.7081         7.5155         7.5990       230.2911       983.6032
     639.62280         8.5000         8.6365         2.2322       0.020907       113.1229       104.2869       105.0061       0.320133       0.309578         2.5157        14.4824        14.5194         7.8533         7.9388       230.3867       985.0237
     639.77520         8.5000         8.6480         2.2532       0.034795       110.0651        96.8027        97.5246       0.308234       0.297835         2.4977        15.4701        15.5010         8.2860         8.3748       230.3504       987.2269
     639.92760         8.5000         8.6595         2.2742       0.048683       107.0072        89.3185        90.0431       0.296334       0.286092         2.4798        16.4579        16.4827         8.7186         8.8109       230.3141       989.4301
     640.08000         8.5000         8.6695         2.3116       0.051528       100.6886        83.5904        84.3160       0.274330       0.264640         2.5246        18.1837        18.1843         9.5918         9.6867       230.4504       990.4329
     640.23240         8.5000         8.6781         2.3638       0.044378        91.4191        79.4517        80.1765       0.243180       0.234400         2.6263        20.5774        20.5375        10.8635        10.9605       230.7429       990.3493
     640.38480         8.5000         8.6867         2.4161       0.037228        82.1495        75.3129        76.0371       0.212030       0.204160         2.7280        22.9711        22.8907        12.1353        12.2344       231.0354       990.2657
     640.53720         8.5000         8.6881         2.4453       0.031678        77.5899        72.4277        73.1334       0.192376       0.185144         2.7955        25.0461        24.9272        13.1278        13.2259       231.3088       990.2465
     640.68960         8.5000         8.6673         2.4030       0.031084        87.6160        73.4245        74.0564       0.208321       0.200886         2.7572        26.1341        25.9832        13.2559        13.3430       231.5228       990.4260
     640.84200         8.5000         8.6464         2.3607       0.030490        97.6421        74.4212        74.9794       0.224267       0.216627         2.7189        27.2222        27.0392        13.3840        13.4601       231.7369       990.6054
     640.99440         8.5000         8.6256         2.3184       0.029895       107.6681        75.4180        75.9024       0.240213       0.232369         2.6806        28.3102        28.0951        13.5121        13.5773       231.9509       990.7849
     641.14680         8.5000         8.6486         2.2723       0.022788       111.6009        76.3880        76.9743       0.269417       0.260135         2.5868        25.2957        25.1491        12.5669        12.6447       231.7947       991.3553
     641.29920         8.5000         8.6733         2.2259       0.015433       115.3012        77.3569        78.0518       0.299127       0.288359         2.4910        22.1247        22.0503        11.5807        11.6720       231.6243       991.9406
     641.45160         8.5000         8.6980         2.1796       0.008078       119.0015        78.3258        79.1293       0.328838       0.316584         2.3951        18.9537        18.9516        10.5946        10.6994       231.4540       992.5259
     641.60400         8.5000         8.6948         2.1687       0.010333       119.8803        78.9478        79.7429       0.347544       0.334770         2.3659        18.6123        18.6200        10.3140        10.4188       231.3728       992.1376
     641.75640         8.5000         8.6788         2.1743       0.017061       119.4459        79.4083        80.1405       0.361130       0.348284         2.3678        19.5877        19.5763        10.3619        10.4604       231.3332       991.2961
     641.90880         8.5000         8.6627         2.1799       0.023789       119.0115        79.8688        80.5381       0.374716       0.361798         2.3696        20.5632        20.5325        10.4098        10.5020       231.2936       990.4546
