~Version Information Block
VERS .                 2.00:  CWLS LOG ASCII STANDARD - VERSION 2.00
WRAP .                   NO:  One line per depth step
~Well Information Block
#MNEM.UNIT        Data Type   Information
#---------- ----------------  -----------
STRT .M             5.63880:  START DEPTH
STOP .M          2149.90680:  STOP DEPTH
STEP .M             0.15240:  STEP
NULL .              -999.25:  NULL VALUE
COMP .                     :  COMPANY
WELL .            Ngatoro-4:  WELL
FLD  .                     :  FIELD
LOC  .                     :  LOCATION
CTRY .                     :  COUNTRY
STAT .                     :  STATE
CNTY .                     :  COUNTY
SRVC .     New Zealand Petroleum Co Ltd:  SERVICE COMPANY
DATE .                     :  DATE
API  .                     :  API NUMBER
UWI  .         100000159749:  UNIQUE WELL ID
LATI .           -39.193014:  LATITUDE
LONG .          174.1756345:  LONGITUDE
~Curve Information Block
#MNEM.UNIT         API CODE   Curve Description
#---------- ----------------  -----------------
DEPTH.M                    :  
BS   .IN                   :  Bit Size (Created in Geolog)
CALI .IN                   :  Caliper Log (CALI)
DRHO .G/C3                 :  Density Log Correction (DRHO)
DTC  .US/F                 :  Delta T (DT)
DTS  .US/F                 :  Delta T Shear Lower Dipole (DT1)
GR   .GAPI                 :  Gamma-Ray Log (GR)
GR_CORR.GAPI                 :  Gamma ray corrected
NEUT .V/V                  :  Neutron Log Porosity (NPHI)
NEUT_CORR.V/V                  :  Corrected NPHI (limestone units)
PEF  .B/E                  :  Photoelectric Factor (PEDF)
RESD .OHMM                 :  Laterolog Deep Resistivity (LLD)
RESD_CORR.OHMM                 :  Borehole corrected LLD
RESS .OHMM                 :  Shallow Laterolog (LLS)
RESS_CORR.OHMM                 :  Borehole corrected LLS
SP   .MV                   :  Spontaneous Potential Log (SP)
TEMP .DEGC                 :  Temperature (TEMP)
TENS .KGF                  :  Cable tension at surface (TENS)
~Parameter Information Block
#MNEM.UNIT            Value   Description
#---------- ----------------  -----------
CUR_INT_BOT.M                2150:  Current interpolated bottom
PROJECT.     New Zealand Log QC Project:  
SET  .     A0_FINAL_INTER_REF_D:  
ELEVATION_AMSL.M               297.7:  Elevation above mean sea level
ELEVATION_REF.                   KB:  Measurement reference
FORMATION_AT_TD.                 Moki:  Formation at TD
GL_ELEVATION_AMSL.M            292.8000:  Ground level elevation above mean sea level
LICENCE_NUMBER.             PPL38706:  Licence number
ONSHORE_OR_OFFSHORE.              Onshore:  Onshore/offshore
PR_NUMBER.               PR1914:  Petroleum report number
SPUD_DATE.           07/03/1993:  Spud date
STATUS_AT_COMPLETION.     Suspended as a potential oil producer:  Status at completion
TD_DATE.           21/03/1993:  Total depth date
TOTAL_DEPTH_DRILLED.M                2150:  Total depth drilled
~Other Information Block
# 
~A       DEPTH             BS           CALI           DRHO            DTC            DTS             GR        GR_CORR           NEUT      NEUT_CORR            PEF           RESD      RESD_CORR           RESS      RESS_CORR             SP           TEMP           TENS 
# ...
    1651.55880         8.5000         8.5865      0.0083419        56.8185        57.2587       101.8017       101.4911       0.236595       0.232243         2.8662         2.4318         2.4347         2.6195         2.6747      -999.2500        62.1097       514.8879
    1651.71120         8.5000         8.5782      0.0082922        56.8204        57.2797       100.6976       100.5601       0.239097       0.234829         2.8179         2.3589         2.3604         2.5516         2.6062      -999.2500        62.1268       515.3689
    1651.86360         8.5000         8.5699      0.0082425        56.8224        57.3007        99.5935        99.6290       0.241600       0.237415         2.7695         2.2860         2.2862         2.4838         2.5377      -999.2500        62.1438       515.8499
    1652.01600         8.5000         8.5627      0.0081731        56.8264        57.3187        98.4864        98.6868       0.243895       0.239780         2.7327         2.2171         2.2161         2.4187         2.4720      -999.2500        62.1606       516.0461
    1652.16840         8.5000         8.5641      0.0079351        56.8482        57.3109        97.3539        97.6492       0.244419       0.240266         2.7943         2.1827         2.1812         2.3768         2.4302      -999.2500        62.1750       513.8137
    1652.32080         8.5000         8.5656      0.0076971        56.8700        57.3032        96.2214        96.6116       0.244942       0.240752         2.8558         2.1483         2.1464         2.3350         2.3884      -999.2500        62.1894       511.5814
    1652.47320         8.5000         8.5671      0.0074591        56.8917        57.2954        95.0889        95.5740       0.245466       0.241238         2.9174         2.1139         2.1115         2.2932         2.3465      -999.2500        62.2038       509.3491
    1652.62560         8.5000         8.5706      0.0068494        56.8999        57.3368        96.4561        96.7639       0.243605       0.239379         2.9160         2.0940         2.0915         2.2730         2.3265      -999.2500        62.2163       508.5237
    1652.77800         8.5000         8.5746      0.0061603        56.9050        57.3886        98.3567        98.4291       0.241236       0.237019         2.9011         2.0773         2.0746         2.2575         2.3112      -999.2500        62.2285       507.9985
    1652.93040         8.5000         8.5785      0.0054712        56.9102        57.4405       100.2572       100.0943       0.238866       0.234659         2.8862         2.0606         2.0578         2.2420         2.2958      -999.2500        62.2406       507.4733
    1653.08280         8.5000         8.5834      0.0057983        56.9181        57.4804       101.3440       101.1717       0.239458       0.235151         2.8740         2.0767         2.0743         2.2607         2.3148      -999.2500        62.2523       508.0845
    1653.23520         8.5000         8.5889      0.0069797        56.9282        57.5102       101.7466       101.7549       0.242541       0.238041         2.8640         2.1205         2.1190         2.3082         2.3628      -999.2500        62.2638       509.6510
    1653.38760         8.5000         8.5944      0.0081610        56.9382        57.5401       102.1492       102.3381       0.245623       0.240931         2.8541         2.1643         2.1636         2.3557         2.4107      -999.2500        62.2752       511.2175
    1653.54000         8.5000         8.5963      0.0087277        56.9471        57.5771       102.5611       102.7887       0.248837       0.244015         2.8479         2.1769         2.1765         2.3720         2.4271      -999.2500        62.2874       512.0679
    1653.69240         8.5000         8.5878      0.0075671        56.9526        57.6340       102.9990       102.8668       0.252423       0.247645         2.8524         2.1019         2.1001         2.3005         2.3550      -999.2500        62.3019       510.9063
    1653.84480         8.5000         8.5794      0.0064065        56.9581        57.6909       103.4370       102.9448       0.256008       0.251275         2.8570         2.0269         2.0237         2.2290         2.2828      -999.2500        62.3164       509.7446
    1653.99720         8.5000         8.5709      0.0052459        56.9636        57.7478       103.8750       103.0228       0.259593       0.254905         2.8615         1.9519         1.9473         2.1575         2.2107      -999.2500        62.3308       508.5829
    1654.14960         8.5000         8.5826      0.0043406        56.9786        57.6710       101.6430       101.4444       0.255059       0.250317         2.9223         1.9920         1.9884         2.1913         2.2452      -999.2500        62.3479       507.7250
    1654.30200         8.5000         8.5947      0.0034400        56.9937        57.5917        99.3610        99.8351       0.250373       0.245575         2.9842         2.0344         2.0317         2.2271         2.2817      -999.2500        62.3649       506.8729
    1654.45440         8.5000         8.6068      0.0025394        57.0089        57.5124        97.0790        98.2257       0.245687       0.240833         3.0461         2.0767         2.0751         2.2629         2.3183      -999.2500        62.3820       506.0207
    1654.60680         8.5000         8.6145      0.0024331        57.3146        58.0513        99.0378       100.0819       0.242982       0.238050         3.0448         2.1733         2.1735         2.3659         2.4222      -999.2500        62.3979       506.5137
    1654.75920         8.5000         8.6204      0.0026658        57.7443        58.8542       102.8073       103.4178       0.241123       0.236103         3.0167         2.2932         2.2953         2.4977         2.5548      -999.2500        62.4134       507.5811
    1654.91160         8.5000         8.6263      0.0028985        58.1740        59.6572       106.5768       106.7537       0.239265       0.234156         2.9885         2.4131         2.4172         2.6295         2.6875      -999.2500        62.4289       508.6485
    1655.06400         8.5000         8.6528      0.0030771        58.2906        59.8342       109.4719       109.5423       0.235670       0.230221         3.0009         2.6314         2.6400         2.8626         2.9243      -999.2500        62.4439       508.9057
    1655.21640         8.5000         8.7080      0.0031808        57.9746        59.1467       111.1592       111.5750       0.229678       0.223540         3.0693         2.9858         3.0022         3.2356         3.3050      -999.2500        62.4580       508.0436
    1655.36880         8.5000         8.7631      0.0032844        57.6585        58.4592       112.8465       113.6077       0.223686       0.216858         3.1377         3.3402         3.3644         3.6087         3.6856      -999.2500        62.4722       507.1815
    1655.52120         8.5000         8.8106      0.0032540        57.3571        57.8578       114.2715       115.3508       0.218508       0.211087         3.1918         3.6549         3.6861         3.9404         4.0240      -999.2500        62.4863       506.2436
    1655.67360         8.5000         8.8108      0.0023935        57.1461        57.7892       114.0730       115.3021       0.218372       0.210952         3.1576         3.7247         3.7569         4.0164         4.1008      -999.2500        62.4997       504.8367
    1655.82600         8.5000         8.8109      0.0015330        56.9352        57.7206       113.8746       115.2533       0.218236       0.210817         3.1235         3.7945         3.8276         4.0925         4.1776      -999.2500        62.5131       503.4298
    1655.97840         8.5000         8.8111      0.0006725        56.7242        57.6519       113.6761       115.2045       0.218100       0.210682         3.0893         3.8643         3.8984         4.1685         4.2543      -999.2500        62.5266       502.0229
