~Version Information Block
VERS .                 2.00:  CWLS LOG ASCII STANDARD - VERSION 2.00
WRAP .                   NO:  One line per depth step
~Well Information Block
#MNEM.UNIT        Data Type   Information
#---------- ----------------  -----------
STRT .M           514.50240:  START DEPTH
STOP .M          1925.26920:  STOP DEPTH
STEP .M             0.15240:  STEP
NULL .              -999.25:  NULL VALUE
COMP .                     :  COMPANY
WELL .            Ngatoro-6:  WELL
FLD  .                     :  FIELD
LOC  .                     :  LOCATION
CTRY .                     :  COUNTRY
STAT .                     :  STATE
CNTY .                     :  COUNTY
SRVC .     New Zealand Petroleum Co Ltd:  SERVICE COMPANY
DATE .                     :  DATE
API  .                     :  API NUMBER
UWI  .         100000210185:  UNIQUE WELL ID
LATI .          -39.2039386:  LATITUDE
LONG .          174.1707675:  LONGITUDE
~Curve Information Block
#MNEM.UNIT         API CODE   Curve Description
#---------- ----------------  -----------------
DEPTH.M                    :  
BS   .IN                   :  Bit Size (Created in Geolog)
CALI .IN                   :  CALIPER (HCAL)
DENS .G/C3                 :  Bulk Density (RHOZ) and HR Bulk Density (RHO8)
DTC  .US/F                 :  Delta Time Compressional (DTCO)
DTS  .US/F                 :  Delta-T Shear (DTSM)
GR   .GAPI                 :  Gamma Ray (GR) and HR Gamma Ray (HGR)
NEUT .V/V                  :  Neutron Porosity (NPHI) and HR Neutron Porosity (HTNP)
NEUT_CORR.V/V                  :  Corrected NPHI (limestone units)
PEF  .B/E                  :  HRDD Std Resolution Formation Photoelectric Factor (PEFZ) and (PEF8)
RESD .OHMM                 :  HALS Deep Res. (HLLD) and HR HALS Deep Res. (HRLD)
RESS .OHMM                 :  HALS Shallow Res. (HLLS) and HR HALS Shallow Res. (HRLS)
SP   .MV                   :  Spontaneous Potential (SP)
~Parameter Information Block
#MNEM.UNIT            Value   Description
#---------- ----------------  -----------
CUR_INT_BOT.M                1930:  Current interpolated bottom
PROJECT.     New Zealand Log QC Project:  
SET  .     A0_FINAL_INTER_REF_D:  
ELEVATION_AMSL.M                 328:  Elevation above mean sea level
ELEVATION_REF.                   KB:  Measurement reference
FORMATION_AT_TD.      Mount Messenger:  Formation at TD
GL_ELEVATION_AMSL.M            322.5000:  Ground level elevation above mean sea level
LICENCE_NUMBER.             PPL38706:  Licence number
ONSHORE_OR_OFFSHORE.              Onshore:  Onshore/offshore
PR_NUMBER.               PR2214:  Petroleum report number
SPUD_DATE.           27/03/1996:  Spud date
STATUS_AT_COMPLETION.     Suspended with 7" casing cemented in place:  Status at completion
TD_DATE.           04/04/1996:  Total depth date
TOTAL_DEPTH_DRILLED.M                1930:  Total depth drilled
~Other Information Block
# 
~A       DEPTH             BS           CALI           DENS            DTC            DTS             GR           NEUT      NEUT_CORR            PEF           RESD           RESS             SP 
# ...
    1455.42000         8.5000         8.4002         2.3992        96.2527       186.5016       102.0181       0.303578       0.306023         3.3195         2.6350         2.8109       222.1645
    1455.57240         8.5000         8.3945         2.3974        96.4027       186.7266       103.0194       0.304380       0.306758         3.3175         2.6277         2.8248       222.4272
    1455.72480         8.5000         8.3681         2.3875        96.8075       186.3012       104.9986       0.302908       0.305676         3.2777         2.6195         2.8324       222.7683
    1455.87720         8.5000         8.3416         2.3776        97.2123       185.8757       106.9779       0.301435       0.304593         3.2379         2.6114         2.8401       223.1093
    1456.02960         8.5000         8.3188         2.3700        97.5860       185.6353       108.4315       0.298258       0.301454         3.2122         2.6007         2.8417       223.4496
    1456.18200         8.5000         8.3111         2.3719        97.8305       186.1622       107.7045       0.288012       0.289781         3.2448         2.5794         2.8185       223.7872
    1456.33440         8.5000         8.3035         2.3737        98.0750       186.6891       106.9775       0.277766       0.278108         3.2774         2.5582         2.7952       224.1248
    1456.48680         8.5000         8.2958         2.3756        98.3195       187.2160       106.2505       0.267521       0.266434         3.3100         2.5369         2.7720       224.4625
    1456.63920         8.5000         8.2919         2.3854        97.3921       186.4545       104.9709       0.265662       0.264485         3.3140         2.7207         2.9565       223.7995
    1456.79160         8.5000         8.2883         2.3961        96.3535       185.5708       103.6389       0.264599       0.263457         3.3153         2.9240         3.1608       223.0416
    1456.94400         8.5000         8.2847         2.4067        95.3149       184.6871       102.3069       0.263536       0.262430         3.3165         3.1273         3.3650       222.2837
    1457.09640         8.5000         8.2764         2.3986        96.1378       185.2967       101.5906       0.265037       0.264193         3.3037         3.0826         3.3157       221.9960
    1457.24880         8.5000         8.2653         2.3796        98.0420       186.7738       101.2318       0.268026       0.267577         3.2827         2.8938         3.1190       221.9815
    1457.40120         8.5000         8.2541         2.3606        99.9461       188.2509       100.8731       0.271015       0.270962         3.2617         2.7051         2.9223       221.9670
    1457.55360         8.5000         8.2488         2.3495       101.1337       189.4455       100.9421       0.274084       0.274512         3.2381         2.5631         2.7754       221.6934
    1457.70600         8.5000         8.2541         2.3530       101.0003       190.1195       101.7997       0.277300       0.278367         3.2098         2.5074         2.7200       220.9420
    1457.85840         8.5000         8.2594         2.3565       100.8669       190.7935       102.6574       0.280516       0.282222         3.1814         2.4516         2.6647       220.1906
    1458.01080         8.5000         8.2648         2.3593       100.7462       191.3962       103.4203       0.283322       0.285573         3.1560         2.4001         2.6130       219.4915
    1458.16320         8.5000         8.2714         2.3534       100.7912       191.0637       102.9412       0.280768       0.282312         3.1687         2.4046         2.6089       219.4774
    1458.31560         8.5000         8.2780         2.3474       100.8362       190.7312       102.4621       0.278214       0.279051         3.1814         2.4091         2.6048       219.4634
    1458.46800         8.5000         8.2846         2.3415       100.8812       190.3987       101.9830       0.275660       0.275789         3.1941         2.4136         2.6006       219.4493
    1458.62040         8.5000         8.2818         2.3401       101.9055       189.7864        99.9611       0.276172       0.276398         3.2189         2.3952         2.5696       219.6060
    1458.77280         8.5000         8.2764         2.3398       103.1900       189.0997        97.5292       0.277499       0.278036         3.2469         2.3707         2.5314       219.8082
    1458.92520         8.5000         8.2711         2.3396       104.4745       188.4130        95.0973       0.278826       0.279674         3.2750         2.3462         2.4932       220.0103
    1459.07760         8.5000         8.2673         2.3418       104.3213       188.3503        94.5011       0.280254       0.281506         3.2646         2.3516         2.4905       220.1358
    1459.23000         8.5000         8.2651         2.3463       102.7821       188.8889        95.6745       0.281780       0.283527         3.2172         2.3857         2.5220       220.1875
    1459.38240         8.5000         8.2629         2.3509       101.2429       189.4275        96.8479       0.283306       0.285547         3.1698         2.4199         2.5535       220.2392
    1459.53480         8.5000         8.2637         2.3541       100.0348       189.6075        98.6320       0.283989       0.286465         3.1405         2.4402         2.5723       220.3463
    1459.68720         8.5000         8.2751         2.3529        99.9458       188.5758       102.4795       0.281822       0.283655         3.1725         2.4141         2.5483       220.6408
    1459.83960         8.5000         8.2864         2.3516        99.8568       187.5441       106.3270       0.279655       0.280846         3.2044         2.3880         2.5243       220.9353
    1459.99200         8.5000         8.2977         2.3504        99.7678       186.5124       110.1745       0.277487       0.278037         3.2363         2.3619         2.5003       221.2299
    1460.14440         8.5000         8.3027         2.3577        99.1035       186.0876       107.5364       0.278755       0.279576         3.2366         2.3489         2.4884       220.9745
    1460.29680         8.5000         8.3073         2.3654        98.4073       185.6965       104.5390       0.280213       0.281356         3.2350         2.3366         2.4771       220.6887
    1460.44920         8.5000         8.3118         2.3731        97.7112       185.3053       101.5415       0.281671       0.283135         3.2335         2.3243         2.4658       220.4028
    1460.60160         8.5000         8.2997         2.3722        97.7347       185.5327       100.1398       0.281068       0.282483         3.2350         2.3246         2.4654       220.1788
    1460.75400         8.5000         8.2792         2.3670        98.1180       186.0692        99.5359       0.279433       0.280613         3.2381         2.3311         2.4705       219.9856
    1460.90640         8.5000         8.2586         2.3618        98.5014       186.6058        98.9320       0.277799       0.278744         3.2411         2.3376         2.4755       219.7924
    1461.05880         8.5000         8.2483         2.3571        98.7900       187.1254        99.0139       0.275736       0.276326         3.2418         2.3298         2.4676       219.5496
    1461.21120         8.5000         8.2542         2.3535        98.9280       187.6179       100.1872       0.272992       0.273034         3.2389         2.2992         2.4388       219.2277
    1461.36360         8.5000         8.2602         2.3499        99.0661       188.1103       101.3606       0.270248       0.269742         3.2359         2.2686         2.4101       218.9058
    1461.51600         8.5000         8.2658         2.3460        99.3292       188.7362       102.2547       0.267410       0.266406         3.2327         2.2459         2.3892       218.6302
    1461.66840         8.5000         8.2691         2.3395       100.6590       190.4993       100.7676       0.263781       0.262700         3.2275         2.2907         2.4352       218.7500
