~Version Information Block
VERS .                 2.00:  CWLS LOG ASCII STANDARD - VERSION 2.00
WRAP .                   NO:  One line per depth step
~Well Information Block
#MNEM.UNIT        Data Type   Information
#---------- ----------------  -----------
STRT .M             5.63880:  START DEPTH
STOP .M          2149.90680:  STOP DEPTH
STEP .M             0.15240:  STEP
NULL .              -999.25:  NULL VALUE
COMP .                     :  COMPANY
WELL .            Ngatoro-4:  WELL
FLD  .                     :  FIELD
LOC  .                     :  LOCATION
CTRY .                     :  COUNTRY
STAT .                     :  STATE
CNTY .                     :  COUNTY
SRVC .     New Zealand Petroleum Co Ltd:  SERVICE COMPANY
DATE .                     :  DATE
API  .                     :  API NUMBER
UWI  .         100000159749:  UNIQUE WELL ID
LATI .           -39.193014:  LATITUDE
LONG .          174.1756345:  LONGITUDE
~Curve Information Block
#MNEM.UNIT         API CODE   Curve Description
#---------- ----------------  -----------------
DEPTH.M                    :  
BS   .IN                   :  Bit Size (Created in Geolog)
CALI .IN                   :  Caliper Log (CALI)
DRHO .G/C3                 :  Density Log Correction (DRHO)
DTC  .US/F                 :  Delta T (DT)
DTS  .US/F                 :  Delta T Shear Lower Dipole (DT1)
GR   .GAPI                 :  Gamma-Ray Log (GR)
GR_CORR.GAPI                 :  Gamma ray corrected
NEUT .V/V                  :  Neutron Log Porosity (NPHI)
NEUT_CORR.V/V                  :  Corrected NPHI (limestone units)
PEF  .B/E                  :  Photoelectric Factor (PEDF)
RESD .OHMM                 :  Laterolog Deep Resistivity (LLD)
RESD_CORR.OHMM                 :  Borehole corrected LLD
RESS .OHMM                 :  Shallow Laterolog (LLS)
RESS_CORR.OHMM                 :  Borehole corrected LLS
SP   .MV                   :  Spontaneous Potential Log (SP)
TEMP .DEGC                 :  Temperature (TEMP)
TENS .KGF                  :  Cable tension at surface (TENS)
~Parameter Information Block
#MNEM.UNIT            Value   Description
#---------- ----------------  -----------
CUR_INT_BOT.M                2150:  Current interpolated bottom
PROJECT.     New Zealand Log QC Project:  
SET  .     A0_FINAL_INTER_REF_D:  
ELEVATION_AMSL.M               297.7:  Elevation above mean sea level
ELEVATION_REF.                   KB:  Measurement reference
FORMATION_AT_TD.                 Moki:  Formation at TD
GL_ELEVATION_AMSL.M            292.8000:  Ground level elevation above mean sea level
LICENCE_NUMBER.             PPL38706:  Licence number
ONSHORE_OR_OFFSHORE.              Onshore:  Onshore/offshore
PR_NUMBER.               PR1914:  Petroleum report number
SPUD_DATE.           07/03/1993:  Spud date
STATUS_AT_COMPLETION.     Suspended as a potential oil producer:  Status at completion
TD_DATE.           21/03/1993:  Total depth date
TOTAL_DEPTH_DRILLED.M                2150:  Total depth drilled
~Other Information Block
# 
~A       DEPTH             BS           CALI           DRHO            DTC            DTS             GR        GR_CORR           NEUT      NEUT_CORR            PEF           RESD      RESD_CORR           RESS      RESS_CORR             SP           TEMP           TENS 
# ...
    1276.65480         8.5000         8.8479      0.0136889      -999.2500      -999.2500       110.6313       111.9815       0.261548       0.250394         3.0509         2.2787         2.2840         2.3805         2.4553      -999.2500      -999.2500       451.9461
    1276.80720         8.5000         8.8675      0.0122489      -999.2500      -999.2500       109.8357       111.4721       0.261016       0.249629         3.0492         2.2888         2.2949         2.3863         2.4622      -999.2500      -999.2500       451.1010
    1276.95960         8.5000         8.8871      0.0108089      -999.2500      -999.2500       109.0402       110.9628       0.260485       0.248864         3.0475         2.2989         2.3059         2.3920         2.4690      -999.2500      -999.2500       450.2557
    1277.11200         8.5000         8.8950      0.0119358      -999.2500      -999.2500       108.9142       110.8506       0.279987       0.267195         3.0504         2.1894         2.1944         2.2813         2.3569      -999.2500      -999.2500       453.1973
    1277.26440         8.5000         8.8988      0.0139885      -999.2500      -999.2500       109.0297       110.8816       0.306716       0.292412         3.0550         2.0367         2.0387         2.1285         2.2019      -999.2500      -999.2500       457.5049
    1277.41680         8.5000         8.9026      0.0160413      -999.2500      -999.2500       109.1452       110.9126       0.333444       0.317630         3.0595         1.8840         1.8829         1.9758         2.0469      -999.2500      -999.2500       461.8124
    1277.56920         8.5000         8.9114      0.0187687      -999.2500      -999.2500       108.9243       110.7596       0.336682       0.320539         3.0590         1.8586         1.8573         1.9532         2.0244      -999.2500      -999.2500       462.8181
    1277.72160         8.5000         8.9260      0.0223073      -999.2500      -999.2500       108.2991       110.3855       0.311675       0.296624         3.0524         1.9862         1.9880         2.0873         2.1614      -999.2500      -999.2500       459.8540
    1277.87400         8.5000         8.9406      0.0258459      -999.2500      -999.2500       107.6738       110.0113       0.286669       0.272710         3.0458         2.1137         2.1186         2.2214         2.2984      -999.2500      -999.2500       456.8899
    1278.02640         8.5000         8.9532      0.0287375      -999.2500      -999.2500       107.5334       110.0235       0.266262       0.253170         3.0381         2.2312         2.2390         2.3445         2.4241      -999.2500      -999.2500       453.8881
    1278.17880         8.5000         8.9562      0.0285406      -999.2500      -999.2500       109.7071       111.8795       0.267801       0.254511         3.0247         2.3005         2.3099         2.4154         2.4965      -999.2500      -999.2500       450.7068
    1278.33120         8.5000         8.9591      0.0283438      -999.2500      -999.2500       111.8807       113.7356       0.269341       0.255851         3.0113         2.3699         2.3808         2.4864         2.5688      -999.2500      -999.2500       447.5255
    1278.48360         8.5000         8.9621      0.0281470      -999.2500      -999.2500       114.0544       115.5916       0.270880       0.257191         2.9979         2.4392         2.4517         2.5573         2.6412      -999.2500      -999.2500       444.3442
    1278.63600         8.5000         8.9567      0.0236126      -999.2500      -999.2500       113.0905       114.8738       0.271550       0.257930         3.0128         2.4424         2.4548         2.5605         2.6441      -999.2500      -999.2500       444.8109
    1278.78840         8.5000         8.9503      0.0185551      -999.2500      -999.2500       111.7482       113.8457       0.272114       0.258596         3.0311         2.4376         2.4496         2.5555         2.6386      -999.2500      -999.2500       445.7174
    1278.94080         8.5000         8.9440      0.0134976      -999.2500      -999.2500       110.4059       112.8175       0.272679       0.259263         3.0495         2.4328         2.4445         2.5505         2.6332      -999.2500      -999.2500       446.6240
    1279.09320         8.5000         8.9362      0.0109095      -999.2500      -999.2500       110.5251       112.8902       0.275346       0.261940         3.0718         2.4329         2.4443         2.5497         2.6318      -999.2500      -999.2500       447.2708
    1279.24560         8.5000         8.9275      0.0098898      -999.2500      -999.2500       111.5726       113.6622       0.279349       0.265893         3.0968         2.4360         2.4472         2.5514         2.6331      -999.2500      -999.2500       447.7527
    1279.39800         8.5000         8.9187      0.0088701      -999.2500      -999.2500       112.6201       114.4342       0.283351       0.269846         3.1217         2.4392         2.4502         2.5531         2.6343      -999.2500      -999.2500       448.2345
    1279.55040         8.5000         8.9108      0.0082988      -999.2500      -999.2500       113.0022       114.7368       0.283666       0.270289         3.1467         2.4399         2.4506         2.5542         2.6350      -999.2500      -999.2500       448.3719
    1279.70280         8.5000         8.9044      0.0086346      -999.2500      -999.2500       112.0375       114.0895       0.276515       0.263626         3.1717         2.4354         2.4458         2.5541         2.6345      -999.2500      -999.2500       447.8119
    1279.85520         8.5000         8.8981      0.0089704      -999.2500      -999.2500       111.0727       113.4422       0.269365       0.256962         3.1966         2.4309         2.4409         2.5540         2.6340      -999.2500      -999.2500       447.2519
    1280.00760         8.5000         8.8920      0.0092896      -999.2500      -999.2500       110.2317       112.8913       0.262561       0.250621         3.2196         2.4275         2.4372         2.5549         2.6346      -999.2500      -999.2500       446.7232
    1280.16000         8.5000         8.8920      0.0092910      -999.2500      -999.2500       111.7480       114.1773       0.262364       0.250413         3.2036         2.4445         2.4546         2.5742         2.6542      -999.2500      -999.2500       446.7919
    1280.31240         8.5000         8.8920      0.0092924      -999.2500      -999.2500       113.2643       115.4632       0.262167       0.250205         3.1876         2.4616         2.4720         2.5936         2.6738      -999.2500      -999.2500       446.8606
    1280.46480         8.5000         8.8920      0.0092938      -999.2500      -999.2500       114.7806       116.7492       0.261970       0.249998         3.1716         2.4786         2.4894         2.6129         2.6934      -999.2500      -999.2500       446.9293
    1280.61720         8.5000         8.8916      0.0087175      -999.2500      -999.2500       115.4352       117.2568       0.263246       0.251216         3.1836         2.4811         2.4919         2.6173         2.6978      -999.2500      -999.2500       446.6300
    1280.76960         8.5000         8.8910      0.0079677      -999.2500      -999.2500       115.8310       117.5305       0.264965       0.252862         3.2039         2.4791         2.4898         2.6171         2.6976      -999.2500      -999.2500       446.2202
    1280.92200         8.5000         8.8904      0.0072179      -999.2500      -999.2500       116.2269       117.8042       0.266684       0.254508         3.2242         2.4771         2.4878         2.6170         2.6975      -999.2500      -999.2500       445.8104
    1281.07440         8.5000         8.8859      0.0061656      -999.2500      -999.2500       115.8319       117.4347       0.268836       0.256634         3.2344         2.4801         2.4907         2.6229         2.7032      -999.2500      -999.2500       445.5001
