~Version Information Block
VERS .                 2.00:  CWLS LOG ASCII STANDARD - VERSION 2.00
WRAP .                   NO:  One line per depth step
~Well Information Block
#MNEM.UNIT        Data Type   Information
#---------- ----------------  -----------
STRT .M           535.07640:  START DEPTH
STOP .M          2419.95960:  STOP DEPTH
STEP .M             0.15240:  STEP
NULL .              -999.25:  NULL VALUE
COMP .                     :  COMPANY
WELL .            Ngatoro-3:  WELL
FLD  .                     :  FIELD
LOC  .                     :  LOCATION
CTRY .                     :  COUNTRY
STAT .                     :  STATE
CNTY .                     :  COUNTY
SRVC .     New Zealand Petroleum Co Ltd:  SERVICE COMPANY
DATE .                     :  DATE
API  .                     :  API NUMBER
UWI  .         100000158215:  UNIQUE WELL ID
LATI .          -39.1846093:  LATITUDE
LONG .          174.1883769:  LONGITUDE
~Curve Information Block
#MNEM.UNIT         API CODE   Curve Description
#---------- ----------------  -----------------
DEPTH.M                    :  
BS   .IN                   :  Bit Size (Created in Geolog)
CALI .IN                   :  Caliper Log (CALI)
DENS .G/C3                 :  Compensated Formation Density Log (RHOB)
DRHO .G/C3                 :  Density Log Correction (DRHO)
DTC  .US/F                 :  Delta T (DT)
GR   .GAPI                 :  Gamma-Ray Log (GR)
GR_CORR.GAPI                 :  Gamma ray corrected
NEUT .V/V                  :  Neutron Log Porosity (NPHI)
NEUT_CORR.V/V                  :  Corrected NPHI (limestone units)
PEF  .B/E                  :  Photoelectric Factor (PEDF)
RESD .OHMM                 :  Laterolog Deep Resistivity (LLD)
RESD_CORR.OHMM                 :  Borehole corrected LLD
RESS .OHMM                 :  Shallow Laterolog (LLS)
RESS_CORR.OHMM                 :  Borehole corrected LLS
SP   .MV                   :  Spontaneous Potential Log (SP)
TEMP .DEGC                 :  Temperature (TEMP)
TENS .KGF                  :  Cable tension at surface (TENS)
~Parameter Information Block
#MNEM.UNIT            Value   Description
#---------- ----------------  -----------
CUR_INT_BOT.M                2420:  Current interpolated bottom
PROJECT.     New Zealand Log QC Project:  
SET  .     A0_FINAL_INTER_REF_D:  
ELEVATION_AMSL.M              267.94:  Elevation above mean sea level
ELEVATION_REF.                   KB:  Measurement reference
FORMATION_AT_TD.             Manganui:  Formation at TD
GL_ELEVATION_AMSL.M            263.2000:  Ground level elevation above mean sea level
LICENCE_NUMBER.             PPL38706:  Licence number
ONSHORE_OR_OFFSHORE.              Onshore:  Onshore/offshore
PR_NUMBER.               PR1863:  Petroleum report number
SPUD_DATE.           14/01/1993:  Spud date
STATUS_AT_COMPLETION.     Suspended as a potential oil producer:  Status at completion
TD_DATE.           08/02/1993:  Total depth date
TOTAL_DEPTH_DRILLED.M                2420:  Total depth drilled
~Other Information Block
# 
~A       DEPTH             BS           CALI           DENS           DRHO            DTC             GR        GR_CORR           NEUT      NEUT_CORR            PEF           RESD      RESD_CORR           RESS      RESS_CORR             SP           TEMP           TENS 
# ...
    1417.47240         8.5000         8.5524         2.3377      0.0100571        91.2512       107.5502       107.4657       0.313555       0.307192         3.0032         2.0048         2.0027         2.2851         2.3341        67.7224        55.6055      1128.6616
    1417.62480         8.5000         8.5524         2.3305      0.0119039        91.3463       105.5117       105.4285       0.313473       0.307113         2.9720         1.9529         1.9501         2.2251         2.2741        68.0608        55.6035      1128.1211
    1417.77720         8.5000         8.5524         2.3227      0.0142032        91.4443       102.7654       102.6845       0.313376       0.307019         2.9300         1.8975         1.8939         2.1616         2.2104        68.4272        55.5983      1127.7222
    1417.92960         8.5000         8.5524         2.3149      0.0165026        91.5423       100.0192        99.9404       0.313278       0.306925         2.8879         1.8420         1.8376         2.0981         2.1468        68.7935        55.5932      1127.3234
    1418.08200         8.5000         8.5524         2.3144      0.0165046        91.3688        98.3944        98.3169       0.306827       0.300626         2.8869         1.8412         1.8368         2.0954         2.1441        68.8765        55.5908      1127.1281
    1418.23440         8.5000         8.5524         2.3200      0.0145344        90.9622        97.7324        97.6554       0.294920       0.289000         2.9210         1.8874         1.8836         2.1450         2.1938        68.7162        55.5908      1127.1074
    1418.38680         8.5000         8.5524         2.3257      0.0125642        90.5556        97.0704        96.9939       0.283013       0.277373         2.9552         1.9335         1.9305         2.1946         2.2434        68.5559        55.5908      1127.0868
    1418.53920         8.5000         8.5526         2.3328      0.0112502        90.2374        97.1788        97.1031       0.275065       0.269610         2.9829         1.9873         1.9850         2.2507         2.2997        68.4414        55.5917      1127.0986
    1418.69160         8.5000         8.5532         2.3443      0.0118311        90.1742        99.5118        99.4376       0.278553       0.273003         2.9920         2.0633         2.0620         2.3259         2.3750        68.4593        55.5953      1127.2045
    1418.84400         8.5000         8.5538         2.3558      0.0124119        90.1111       101.8449       101.7722       0.282040       0.276395         3.0011         2.1392         2.1390         2.4011         2.4502        68.4773        55.5988      1127.3103
    1418.99640         8.5000         8.5544         2.3673      0.0129927        90.0480       104.1779       104.1067       0.285527       0.279788         3.0102         2.2151         2.2160         2.4762         2.5255        68.4952        55.6024      1127.4163
    1419.14880         8.5000         8.5623         2.3654      0.0129704        90.2549       101.9342       101.9044       0.289323       0.283333         3.0225         2.1842         2.1850         2.4480         2.4977        68.0116        55.6100      1127.6516
    1419.30120         8.5000         8.5703         2.3632      0.0129335        90.4684        99.5798        99.5924       0.293127       0.286881         3.0348         2.1508         2.1513         2.4172         2.4674        67.5159        55.6177      1127.8903
    1419.45360         8.5000         8.5783         2.3610      0.0128966        90.6819        97.2254        97.2803       0.296932       0.290430         3.0472         2.1173         2.1177         2.3865         2.4371        67.0201        55.6254      1128.1288
    1419.60600         8.5000         8.5744         2.3574      0.0119949        90.7925        97.0562        97.0913       0.297596       0.291160         3.0325         2.1017         2.1018         2.3676         2.4180        67.0102        55.6199      1130.0559
    1419.75840         8.5000         8.5653         2.3532      0.0107147        90.8581        97.8435        97.8316       0.296885       0.290656         3.0060         2.0940         2.0937         2.3540         2.4038        67.2128        55.6087      1132.7222
    1419.91080         8.5000         8.5562         2.3489      0.0094346        90.9237        98.6308        98.5719       0.296175       0.290151         2.9796         2.0863         2.0855         2.3404         2.3897        67.4155        55.5974      1135.3884
    1420.06320         8.5000         8.5485         2.3479      0.0094733        90.9242       100.1893       100.0884       0.300863       0.294897         2.9643         2.0764         2.0752         2.3290         2.3778        67.6287        55.5909      1136.1313
    1420.21560         8.5000         8.5427         2.3513      0.0113736        90.8329       102.8363       102.7003       0.313171       0.307054         2.9648         2.0633         2.0618         2.3207         2.3691        67.8566        55.5912      1134.1598
    1420.36800         8.5000         8.5369         2.3548      0.0132739        90.7416       105.4834       105.3122       0.325479       0.319211         2.9654         2.0502         2.0483         2.3124         2.3605        68.0845        55.5915      1132.1881
    1420.52040         8.5000         8.5318         2.3582      0.0149030        90.6489       107.4849       107.2839       0.335158       0.328780         2.9629         2.0452         2.0430         2.3111         2.3589        68.2633        55.5924      1130.5435
    1420.67280         8.5000         8.5318         2.3615      0.0147779        90.5468       105.3103       105.1130       0.327819       0.321605         2.9409         2.0919         2.0904         2.3553         2.4031        68.1248        55.5978      1131.0140
    1420.82520         8.5000         8.5317         2.3647      0.0146527        90.4447       103.1356       102.9421       0.320481       0.314430         2.9190         2.1386         2.1377         2.3996         2.4474        67.9863        55.6032      1131.4847
    1420.97760         8.5000         8.5317         2.3680      0.0145276        90.3427       100.9609       100.7712       0.313143       0.307256         2.8970         2.1853         2.1851         2.4438         2.4916        67.8478        55.6086      1131.9553
    1421.13000         8.5000         8.5319         2.3685      0.0142027        90.3445       101.9121       101.7215       0.299687       0.294098         2.8708         2.1891         2.1889         2.4471         2.4949        67.9486        55.6228      1133.0387
    1421.28240         8.5000         8.5321         2.3685      0.0138433        90.3641       103.4019       103.2096       0.285178       0.279910         2.8439         2.1854         2.1852         2.4433         2.4911        68.0907        55.6386      1134.2277
    1421.43480         8.5000         8.5323         2.3685      0.0134840        90.3838       104.8917       104.6977       0.270668       0.265721         2.8171         2.1818         2.1815         2.4396         2.4874        68.2327        55.6544      1135.4166
    1421.58720         8.5000         8.5339         2.3687      0.0135451        90.4288       104.7989       104.6141       0.267435       0.262527         2.8250         2.1862         2.1860         2.4512         2.4991        68.1748        55.6688      1134.9966
    1421.73960         8.5000         8.5368         2.3689      0.0139206        90.4928       103.5227       103.3552       0.272634       0.267554         2.8590         2.1966         2.1967         2.4743         2.5224        67.9673        55.6820      1133.3737
    1421.89200         8.5000         8.5396         2.3692      0.0142960        90.5568       102.2465       102.0964       0.277834       0.272580         2.8930         2.2071         2.2074         2.4975         2.5458        67.7599        55.6953      1131.7506
