~Version Information Block
VERS .                 2.00:  CWLS LOG ASCII STANDARD - VERSION 2.00
WRAP .                   NO:  One line per depth step
~Well Information Block
#MNEM.UNIT        Data Type   Information
#---------- ----------------  -----------
STRT .M           514.50240:  START DEPTH
STOP .M          1925.26920:  STOP DEPTH
STEP .M             0.15240:  STEP
NULL .              -999.25:  NULL VALUE
COMP .                     :  COMPANY
WELL .            Ngatoro-6:  WELL
FLD  .                     :  FIELD
LOC  .                     :  LOCATION
CTRY .                     :  COUNTRY
STAT .                     :  STATE
CNTY .                     :  COUNTY
SRVC .     New Zealand Petroleum Co Ltd:  SERVICE COMPANY
DATE .                     :  DATE
API  .                     :  API NUMBER
UWI  .         100000210185:  UNIQUE WELL ID
LATI .          -39.2039386:  LATITUDE
LONG .          174.1707675:  LONGITUDE
~Curve Information Block
#MNEM.UNIT         API CODE   Curve Description
#---------- ----------------  -----------------
DEPTH.M                    :  
BS   .IN                   :  Bit Size (Created in Geolog)
CALI .IN                   :  CALIPER (HCAL)
DENS .G/C3                 :  Bulk Density (RHOZ) and HR Bulk Density (RHO8)
DTC  .US/F                 :  Delta Time Compressional (DTCO)
DTS  .US/F                 :  Delta-T Shear (DTSM)
GR   .GAPI                 :  Gamma Ray (GR) and HR Gamma Ray (HGR)
NEUT .V/V                  :  Neutron Porosity (NPHI) and HR Neutron Porosity (HTNP)
NEUT_CORR.V/V                  :  Corrected NPHI (limestone units)
PEF  .B/E                  :  HRDD Std Resolution Formation Photoelectric Factor (PEFZ) and (PEF8)
RESD .OHMM                 :  HALS Deep Res. (HLLD) and HR HALS Deep Res. (HRLD)
RESS .OHMM                 :  HALS Shallow Res. (HLLS) and HR HALS Shallow Res. (HRLS)
SP   .MV                   :  Spontaneous Potential (SP)
~Parameter Information Block
#MNEM.UNIT            Value   Description
#---------- ----------------  -----------
CUR_INT_BOT.M                1930:  Current interpolated bottom
PROJECT.     New Zealand Log QC Project:  
SET  .     A0_FINAL_INTER_REF_D:  
ELEVATION_AMSL.M                 328:  Elevation above mean sea level
ELEVATION_REF.                   KB:  Measurement reference
FORMATION_AT_TD.      Mount Messenger:  Formation at TD
GL_ELEVATION_AMSL.M            322.5000:  Ground level elevation above mean sea level
LICENCE_NUMBER.             PPL38706:  Licence number
ONSHORE_OR_OFFSHORE.              Onshore:  Onshore/offshore
PR_NUMBER.               PR2214:  Petroleum report number
SPUD_DATE.           27/03/1996:  Spud date
STATUS_AT_COMPLETION.     Suspended with 7" casing cemented in place:  Status at completion
TD_DATE.           04/04/1996:  Total depth date
TOTAL_DEPTH_DRILLED.M                1930:  Total depth drilled
~Other Information Block
# 
~A       DEPTH             BS           CALI           DENS            DTC            DTS             GR           NEUT      NEUT_CORR            PEF           RESD           RESS             SP 
# ...
    1545.03120         8.5000         8.6688         2.3844        95.6816       162.3187       101.4562       0.270599       0.268675         3.1567         2.8808         3.1480       243.6898
    1545.18360         8.5000         8.6877         2.3932        95.4533       151.7715       102.8337       0.264085       0.262526         3.2413         2.9192         3.1859       243.9769
    1545.33600         8.5000         8.7065         2.4019        95.2250       141.2242       104.2112       0.257571       0.256378         3.3259         2.9576         3.2239       244.2639
    1545.48840         8.5000         8.7253         2.4107        94.9967       130.6770       105.5887       0.251056       0.250229         3.4105         2.9959         3.2619       244.5510
    1545.64080         8.5000         8.7077         2.4257        94.6632       138.5011       105.6288       0.254344       0.253331         3.4219         3.2446         3.5076       245.2285
    1545.79320         8.5000         8.6871         2.4413        94.3209       147.8387       105.5587       0.258440       0.257196         3.4272         3.5106         3.7704       245.9381
    1545.94560         8.5000         8.6664         2.4569        93.9787       157.1763       105.4885       0.262536       0.261060         3.4325         3.7766         4.0332       246.6478
    1546.09800         8.5000         8.6883         2.4493        94.1047       166.9140       104.8276       0.266960       0.265505         3.4017         3.6894         3.9320       247.6362
    1546.25040         8.5000         8.7338         2.4288        94.4906       176.8739       103.8388       0.271567       0.270273         3.3508         3.4061         3.6287       248.7795
    1546.40280         8.5000         8.7793         2.4082        94.8765       186.8337       102.8499       0.276175       0.275041         3.2999         3.1229         3.3255       249.9228
    1546.55520         8.5000         8.8086         2.4010        94.4097       189.8895       102.3330       0.276131       0.275048         3.2631         2.9545         3.1453       251.0740
    1546.70760         8.5000         8.8092         2.4173        92.4412       180.7880       102.6470       0.267898       0.266670         3.2511         2.9885         3.1817       252.2392
    1546.86000         8.5000         8.8098         2.4335        90.4727       171.6866       102.9610       0.259665       0.258292         3.2392         3.0225         3.2182       253.4044
    1547.01240         8.5000         8.8107         2.4492        88.6614       163.0459       103.2622       0.251721       0.250247         3.2319         3.0590         3.2565       254.5672
    1547.16480         8.5000         8.8148         2.4589        88.6254       159.6073       103.4183       0.247039       0.245967         3.2767         3.1239         3.3150       255.7033
    1547.31720         8.5000         8.8188         2.4686        88.5894       156.1685       103.5744       0.242358       0.241687         3.3215         3.1888         3.3735       256.8394
    1547.46960         8.5000         8.8228         2.4782        88.5533       152.7299       103.7305       0.237676       0.237408         3.3663         3.2537         3.4320       257.9755
    1547.62200         8.5000         8.8165         2.4910        88.0142       150.3265       104.9359       0.241223       0.240785         3.4138         3.4697         3.6416       257.7313
    1547.77440         8.5000         8.8076         2.5045        87.3497       148.1810       106.4027       0.246819       0.246070         3.4620         3.7234         3.8888       257.1431
    1547.92680         8.5000         8.7986         2.5180        86.6852       146.0356       107.8695       0.252416       0.251355         3.5102         3.9771         4.1360       256.5549
    1548.07920         8.5000         8.7995         2.5052        86.9887       148.6366       107.8857       0.256836       0.255442         3.4818         3.9244         4.0774       256.0208
    1548.23160         8.5000         8.8094         2.4680        88.1869       155.6243       106.5613       0.260168       0.258421         3.3826         3.5886         3.7360       255.5367
    1548.38400         8.5000         8.8193         2.4308        89.3852       162.6121       105.2370       0.263500       0.261400         3.2834         3.2528         3.3946       255.0525
    1548.53640         8.5000         8.8227         2.4046        90.3694       169.0048       104.9663       0.265571       0.263206         3.2085         3.0062         3.1449       254.5591
    1548.68880         8.5000         8.8054         2.4132        90.6719       173.5015       108.0537       0.263622       0.261274         3.2110         3.0437         3.1873       254.0360
    1548.84120         8.5000         8.7881         2.4218        90.9743       177.9982       111.1411       0.261674       0.259342         3.2135         3.0813         3.2297       253.5128
    1548.99360         8.5000         8.7708         2.4303        91.2767       182.4949       114.2285       0.259726       0.257410         3.2160         3.1189         3.2720       252.9897
    1549.14600         8.5000         8.7618         2.4241        91.5348       179.8490       111.1949       0.259476       0.257191         3.2480         3.1358         3.2923       253.2927
    1549.29840         8.5000         8.7531         2.4171        91.7909       176.8899       107.8930       0.259300       0.257047         3.2814         3.1519         3.3117       253.6319
    1549.45080         8.5000         8.7444         2.4102        92.0470       173.9309       104.5911       0.259125       0.256904         3.3147         3.1679         3.3310       253.9710
    1549.60320         8.5000         8.7481         2.4095        92.1756       169.8991       103.7959       0.256688       0.254780         3.2933         3.2237         3.3832       255.0339
    1549.75560         8.5000         8.7576         2.4117        92.2434       165.3559       104.1958       0.253172       0.251712         3.2456         3.2983         3.4512       256.4419
    1549.90800         8.5000         8.7672         2.4139        92.3112       160.8127       104.5958       0.249657       0.248644         3.1980         3.3730         3.5192       257.8499
    1550.06040         8.5000         8.7542         2.4213        91.5144       158.0651       105.5249       0.246184       0.245569         3.2060         3.4650         3.6124       259.1386
    1550.21280         8.5000         8.7068         2.4364        89.4006       158.0525       107.2600       0.242777       0.242484         3.2987         3.5833         3.7442       260.2459
    1550.36520         8.5000         8.6595         2.4516        87.2869       158.0399       108.9951       0.239370       0.239398         3.3914         3.7017         3.8760       261.3531
    1550.51760         8.5000         8.6177         2.4631        85.4389       157.9155       110.3179       0.237082       0.237333         3.4655         3.7929         3.9791       262.4107
    1550.67000         8.5000         8.6182         2.4466        85.6257       156.9348       108.4828       0.243372       0.243082         3.3965         3.6758         3.8624       263.0878
    1550.82240         8.5000         8.6187         2.4300        85.8124       155.9541       106.6476       0.249662       0.248832         3.3276         3.5587         3.7457       263.7648
    1550.97480         8.5000         8.6193         2.4135        85.9992       154.9734       104.8124       0.255952       0.254582         3.2587         3.4416         3.6291       264.4419
    1551.12720         8.5000         8.6072         2.4078        89.3786       155.1136       103.7728       0.262951       0.261838         3.2404         3.2937         3.4713       264.2902
    1551.27960         8.5000         8.5927         2.4042        93.3905       155.4759       102.8908       0.270091       0.269393         3.2320         3.1397         3.3055       263.9743
