~Version Information Block
VERS .                 2.00:  CWLS LOG ASCII STANDARD - VERSION 2.00
WRAP .                   NO:  One line per depth step
~Well Information Block
#MNEM.UNIT        Data Type   Information
#---------- ----------------  -----------
STRT .M           422.60520:  START DEPTH
STOP .M          2060.90520:  STOP DEPTH
STEP .M             0.15240:  STEP
NULL .              -999.25:  NULL VALUE
COMP .                     :  COMPANY
WELL .           Ngatoro-11:  WELL
FLD  .                     :  FIELD
LOC  .                     :  LOCATION
CTRY .                     :  COUNTRY
STAT .                     :  STATE
CNTY .                     :  COUNTY
SRVC .     New Zealand Petroleum Co Ltd:  SERVICE COMPANY
DATE .                     :  DATE
API  .                     :  API NUMBER
UWI  .         100000290650:  UNIQUE WELL ID
LATI .          -39.1949222:  LATITUDE
LONG .          174.1848583:  LONGITUDE
~Curve Information Block
#MNEM.UNIT         API CODE   Curve Description
#---------- ----------------  -----------------
DEPTH.M                    :  
BS   .IN                   :  Bit Size (Created in Geolog)
CALI .IN                   :  Caliper Log (CALI)
DENS .G/C3                 :  Compensated Formation Density Log (RHOB)
DRHO .G/C3                 :  Density Log Correction (DRHO)
DTC  .US/F                 :  8-10 Ft Compensated Sonic (BPB) (DTC3)
GR   .GAPI                 :  Gamma-Ray Log (GR)
GR_CORR.GAPI                 :  Gamma ray corrected
NEUT .V/V                  :  Neutron Log Porosity (NPHI)
NEUT_CORR.V/V                  :  Corrected NPHI (limestone units)
PEF  .B/E                  :  Photoelectric Factor (PEDF)
RESD .OHMM                 :  Laterolog Deep Resistivity (LLD)
RESD_CORR.OHMM                 :  Borehole corrected LLD
RESS .OHMM                 :  Shallow Laterolog (LLS)
RESS_CORR.OHMM                 :  Borehole corrected LLS
SP   .MV                   :  Spontaneous Potential Log (SP)
TENS .KGF                  :  Cable tension at surface (TENS)
~Parameter Information Block
#MNEM.UNIT            Value   Description
#---------- ----------------  -----------
CUR_INT_BOT.M                2063:  Current interpolated bottom
PROJECT.     New Zealand Log QC Project:  
SET  .     A0_FINAL_INTER_REF_D:  
ELEVATION_AMSL.M              291.65:  Elevation above mean sea level
ELEVATION_REF.                   KB:  Measurement reference
FORMATION_AT_TD.      Mount Messenger:  Formation at TD
GL_ELEVATION_AMSL.M            286.3000:  Ground level elevation above mean sea level
LICENCE_NUMBER.             PMP38148:  Licence number
ONSHORE_OR_OFFSHORE.              Onshore:  Onshore/offshore
PR_NUMBER.               PR2438:  Petroleum report number
SPUD_DATE.           28/06/1998:  Spud date
STATUS_AT_COMPLETION.     Cased and suspended as a future oil producer:  Status at completion
TD_DATE.           15/07/1998:  Total depth date
TOTAL_DEPTH_DRILLED.M                2063:  Total depth drilled
~Other Information Block
# 
~A       DEPTH             BS           CALI           DENS           DRHO            DTC             GR        GR_CORR           NEUT      NEUT_CORR            PEF           RESD      RESD_CORR           RESS      RESS_CORR             SP           TENS 
# ...
    1914.90600         8.5000         8.7682         2.4725       0.012152        85.7920       114.5915       116.1887       0.253124       0.246499         3.0781         3.3719         3.3996         3.7782         3.8484       236.0564      2052.3689
    1915.05840         8.5000         8.7656         2.4699       0.011887        85.9144       114.1080       115.6843       0.257573       0.250860         3.0790         3.3705         3.3980         3.7630         3.8329       236.1517      2056.3748
    1915.21080         8.5000         8.7392         2.4616       0.011772        86.0018       113.4828       114.8946       0.254693       0.248540         3.0541         3.3738         3.3999         3.7551         3.8217       236.1675      2071.3171
    1915.36320         8.5000         8.7127         2.4533       0.011658        86.0892       112.8576       114.1048       0.251814       0.246221         3.0293         3.3771         3.4019         3.7472         3.8104       236.1833      2086.2595
    1915.51560         8.5000         8.6866         2.4458       0.011640        86.1436       112.0925       113.1768       0.248902       0.243861         3.0071         3.3740         3.3974         3.7332         3.7933       236.1967      2098.5701
    1915.66800         8.5000         8.6638         2.4457       0.012469        85.9083       110.1003       111.0363       0.245707       0.241148         3.0080         3.3158         3.3373         3.6664         3.7236       236.1892      2087.8005
    1915.82040         8.5000         8.6409         2.4455       0.013299        85.6729       108.1081       108.8958       0.242513       0.238435         3.0089         3.2575         3.2772         3.5996         3.6540       236.1818      2077.0310
    1915.97280         8.5000         8.6180         2.4454       0.014128        85.4376       106.1159       106.7553       0.239318       0.235722         3.0098         3.1993         3.2170         3.5328         3.5844       236.1743      2066.2615
    1916.12520         8.5000         8.6259         2.4639       0.017115        83.6906       108.4909       109.1936       0.232120       0.228582         2.9932         3.3291         3.3486         3.6692         3.7220       236.1333      2061.4070
    1916.27760         8.5000         8.6405         2.4864       0.020571        81.6153       111.8148       112.6268       0.224052       0.220480         2.9727         3.4998         3.5219         3.8498         3.9047       236.0850      2057.8374
    1916.43000         8.5000         8.6551         2.5088       0.024027        79.5399       115.1386       116.0599       0.215984       0.212378         2.9522         3.6705         3.6951         4.0303         4.0873       236.0367      2054.2681
    1916.58240         8.5000         8.6624         2.5143       0.024456        78.9558       116.5150       117.4885       0.212181       0.208553         2.9625         3.6726         3.6977         4.0300         4.0879       235.9823      2056.4326
    1916.73480         8.5000         8.6634         2.5052       0.022313        79.6384       116.2371       117.2143       0.212002       0.208362         2.9988         3.5317         3.5554         3.8761         3.9337       235.9226      2063.4688
    1916.88720         8.5000         8.6644         2.4961       0.020171        80.3211       115.9592       116.9401       0.211822       0.208170         3.0351         3.3907         3.4130         3.7222         3.7795       235.8629      2070.5046
    1917.03960         8.5000         8.6577         2.4854       0.018336        81.0966       116.0576       116.9966       0.215277       0.211658         3.0440         3.2762         3.2969         3.5976         3.6539       235.8089      2074.6799
    1917.19200         8.5000         8.6288         2.4704       0.017379        82.1367       117.2278       117.9949       0.229082       0.225624         2.9746         3.2367         3.2554         3.5565         3.6095       235.7707      2070.7063
    1917.34440         8.5000         8.6000         2.4553       0.016422        83.1768       118.3979       118.9932       0.242888       0.239590         2.9052         3.1972         3.2140         3.5155         3.5651       235.7325      2066.7327
    1917.49680         8.5000         8.5712         2.4403       0.015465        84.2169       119.5681       119.9915       0.256693       0.253556         2.8359         3.1577         3.1726         3.4744         3.5207       235.6943      2062.7593
    1917.64920         8.5000         8.5586         2.4365       0.016040        84.2912       117.3431       117.6835       0.250393       0.247606         2.8331         3.1694         3.1837         3.5006         3.5455       235.8864      2058.7783
    1917.80160         8.5000         8.5463         2.4330       0.016647        84.3448       115.0453       115.3046       0.243663       0.241229         2.8318         3.1822         3.1960         3.5283         3.5717       236.0835      2054.7971
    1917.95400         8.5000         8.5340         2.4296       0.017255        84.3985       112.7475       112.9257       0.236932       0.234851         2.8304         3.1950         3.2083         3.5560         3.5979       236.2805      2050.8159
    1918.10640         8.5000         8.5281         2.4264       0.018628        84.7322       111.3161       111.4559       0.234623       0.232694         2.8167         3.1819         3.1947         3.5563         3.5976       236.4576      2053.5156
    1918.25880         8.5000         8.5249         2.4234       0.020333        85.1871       110.2594       110.3790       0.234227       0.232360         2.7976         3.1575         3.1700         3.5448         3.5858       236.6262      2059.1035
    1918.41120         8.5000         8.5217         2.4204       0.022038        85.6419       109.2027       109.3021       0.233830       0.232027         2.7785         3.1332         3.1452         3.5333         3.5739       236.7947      2064.6914
    1918.56360         8.5000         8.5207         2.4152       0.023348        86.1968       108.1187       108.2104       0.234866       0.233062         2.7563         3.1231         3.1350         3.5295         3.5701       236.8539      2067.9998
    1918.71600         8.5000         8.5225         2.4069       0.024109        86.8913       106.9965       107.0978       0.237903       0.236010         2.7295         3.1329         3.1450         3.5367         3.5774       236.7605      2068.1245
    1918.86840         8.5000         8.5244         2.3985       0.024870        87.5859       105.8743       105.9853       0.240939       0.238958         2.7027         3.1428         3.1551         3.5438         3.5847       236.6671      2068.2495
    1919.02080         8.5000         8.5252         2.3930       0.025752        87.9921       105.0035       105.1180       0.243446       0.241406         2.6891         3.1743         3.1869         3.5704         3.6113       236.5871      2068.7148
    1919.17320         8.5000         8.5189         2.4051       0.027399        86.5743       105.7231       105.8025       0.242608       0.240695         2.7588         3.3429         3.3565         3.7200         3.7594       236.5915      2071.3337
    1919.32560         8.5000         8.5126         2.4173       0.029047        85.1565       106.4428       106.4870       0.241770       0.239984         2.8285         3.5114         3.5261         3.8696         3.9075       236.5959      2073.9526
    1919.47800         8.5000         8.5063         2.4294       0.030694        83.7387       107.1624       107.1715       0.240932       0.239273         2.8982         3.6800         3.6957         4.0191         4.0557       236.6003      2076.5715
    1919.63040         8.5000         8.5267         2.4349       0.030730        83.3274       107.3987       107.5250       0.231080       0.229281         2.9078         3.6958         3.7128         4.0320         4.0712       236.5047      2071.1289
