~Version Information Block
VERS .                 2.00:  CWLS LOG ASCII STANDARD - VERSION 2.00
WRAP .                   NO:  One line per depth step
~Well Information Block
#MNEM.UNIT        Data Type   Information
#---------- ----------------  -----------
STRT .M           376.58040:  START DEPTH
STOP .M          2000.85960:  STOP DEPTH
STEP .M             0.15240:  STEP
NULL .              -999.25:  NULL VALUE
COMP .                     :  COMPANY
WELL .            Ngatoro-9:  WELL
FLD  .                     :  FIELD
LOC  .                     :  LOCATION
CTRY .                     :  COUNTRY
STAT .                     :  STATE
CNTY .                     :  COUNTY
SRVC .     New Zealand Petroleum Co Ltd:  SERVICE COMPANY
DATE .                     :  DATE
API  .                     :  API NUMBER
UWI  .         100000290639:  UNIQUE WELL ID
LATI .          -39.1948838:  LATITUDE
LONG .          174.1848348:  LONGITUDE
~Curve Information Block
#MNEM.UNIT         API CODE   Curve Description
#---------- ----------------  -----------------
DEPTH.M                    :  
BS   .IN                   :  Bit Size (Created in Geolog)
CALI .IN                   :  Caliper Log (CALI)
DENS .G/C3                 :  Compensated Formation Density Log (RHOB)
DRHO .G/C3                 :  Density Log Correction (DRHO)
DTC  .US/F                 :  3-5 Ft Compensated Sonic (BPB) (DTC1)
GR   .GAPI                 :  Gamma-Ray Log (GR)
GR_CORR.GAPI                 :  Gamma ray corrected
NEUT .V/V                  :  Neutron Log Porosity (NPHI)
NEUT_CORR.V/V                  :  Corrected NPHI (limestone units)
PEF  .B/E                  :  Photoelectric Factor (PEDF)
RESD .OHMM                 :  Laterolog Deep Resistivity (LLD)
RESD_CORR.OHMM                 :  Borehole corrected LLD
RESS .OHMM                 :  Shallow Laterolog (LLS)
RESS_CORR.OHMM                 :  Borehole corrected LLS
SP   .MV                   :  Spontaneous Potential Log (SP)
TEMP .DEGC                 :  Temperature (TEMP)
TENS .KGF                  :  Cable tension at surface (TENS)
~Parameter Information Block
#MNEM.UNIT            Value   Description
#---------- ----------------  -----------
CUR_INT_BOT.M              2001.5:  Current interpolated bottom
PROJECT.     New Zealand Log QC Project:  
SET  .     A0_FINAL_INTER_REF_D:  
ELEVATION_AMSL.M              291.65:  Elevation above mean sea level
ELEVATION_REF.                   KB:  Measurement reference
FORMATION_AT_TD.      Mount Messenger:  Formation at TD
GL_ELEVATION_AMSL.M            286.3000:  Ground level elevation above mean sea level
LICENCE_NUMBER.             PMP38148:  Licence number
ONSHORE_OR_OFFSHORE.              Onshore:  Onshore/offshore
PR_NUMBER.               PR2437:  Petroleum report number
SPUD_DATE.           06/06/1998:  Spud date
STATUS_AT_COMPLETION.     Cased and suspended as a potential oil producer:  Status at completion
TD_DATE.           20/06/1998:  Total depth date
TOTAL_DEPTH_DRILLED.M              2001.5:  Total depth drilled
~Other Information Block
# 
~A       DEPTH             BS           CALI           DENS           DRHO            DTC             GR        GR_CORR           NEUT      NEUT_CORR            PEF           RESD      RESD_CORR           RESS      RESS_CORR             SP           TEMP           TENS 
# ...
    1903.62840         8.5000         8.8360         2.4643      0.0290104        83.0821       123.3485       125.5024       0.281914       0.271594         3.3034         3.6751         3.7021         4.0454         4.1434        16.7278        56.0791       439.8853
    1903.78080         8.5000         8.8504         2.4693      0.0305191        84.6726       121.5275       123.7399       0.271321       0.261171         3.2860         3.5837         3.6099         3.9435         4.0419        16.9158        56.0791       442.0646
    1903.93320         8.5000         8.8648         2.4742      0.0320278        86.2632       119.7065       121.9775       0.260728       0.250748         3.2685         3.4922         3.5176         3.8415         3.9404        17.1038        56.0791       444.2438
    1904.08560         8.5000         8.8731         2.4801      0.0331123        86.7029       118.9891       121.2996       0.252145       0.242370         3.2536         3.4975         3.5235         3.8495         3.9495        16.9053        56.0791       444.8790
    1904.23800         8.5000         8.8766         2.4868      0.0338659        86.2445       119.1329       121.4681       0.245129       0.235588         3.2406         3.5783         3.6059         3.9433         4.0449        16.4053        56.0791       444.3091
    1904.39040         8.5000         8.8801         2.4935      0.0346194        85.7862       119.2766       121.6366       0.238113       0.228807         3.2276         3.6590         3.6882         4.0371         4.1402        15.9053        56.0791       443.7392
    1904.54280         8.5000         8.8796         2.4986      0.0349421        85.4298       118.9241       121.2748       0.234853       0.225692         3.2095         3.7350         3.7655         4.1245         4.2287        15.6048        56.0791       443.7837
    1904.69520         8.5000         8.8688         2.4996      0.0341618        85.3344       117.3004       119.5550       0.241210       0.231966         3.1784         3.7987         3.8297         4.1958         4.2996        15.8150        56.0791       445.4011
    1904.84760         8.5000         8.8581         2.5006      0.0333816        85.2390       115.6768       117.8351       0.247568       0.238241         3.1473         3.8624         3.8939         4.2671         4.3704        16.0252        56.0791       447.0186
    1905.00000         8.5000         8.8474         2.5016      0.0326013        85.1436       114.0531       116.1153       0.253925       0.244515         3.1163         3.9261         3.9580         4.3383         4.4413        16.2354        56.0791       448.6360
    1905.15240         8.5000         8.8562         2.4989      0.0322264        85.0209       116.6154       118.7802       0.248126       0.238806         3.1525         3.8487         3.8798         4.2508         4.3538        16.0481        56.0830       446.6286
    1905.30480         8.5000         8.8651         2.4961      0.0318515        84.8982       119.1777       121.4452       0.242328       0.233097         3.1888         3.7714         3.8017         4.1633         4.2662        15.8608        56.0868       444.6212
    1905.45720         8.5000         8.8739         2.4934      0.0314766        84.7755       121.7401       124.1101       0.236530       0.227387         3.2251         3.6940         3.7235         4.0758         4.1787        15.6735        56.0907       442.6138
    1905.60960         8.5000         8.8686         2.4916      0.0315054        84.4317       122.4173       124.7656       0.233457       0.224531         3.2200         3.6851         3.7141         4.0655         4.1677        15.6578        56.0890       442.4921
    1905.76200         8.5000         8.8577         2.4903      0.0316919        84.0017       122.3584       124.6364       0.231449       0.222788         3.1987         3.7029         3.7317         4.0855         4.1866        15.7091        56.0851       443.1069
    1905.91440         8.5000         8.8468         2.4890      0.0318785        83.5716       122.2995       124.5072       0.229440       0.221044         3.1775         3.7208         3.7492         4.1054         4.2055        15.7604        56.0813       443.7217
    1906.06680         8.5000         8.8508         2.4882      0.0321350        83.6074       122.6533       124.8944       0.230291       0.221789         3.1822         3.7320         3.7609         4.1181         4.2188        15.7812        56.0791       443.8010
    1906.21920         8.5000         8.8740         2.4883      0.0324813        84.2403       123.5358       125.9435       0.234805       0.225721         3.2202         3.7347         3.7649         4.1214         4.2250        15.7630        56.0791       443.1939
    1906.37160         8.5000         8.8971         2.4884      0.0328276        84.8731       124.4183       126.9925       0.239319       0.229654         3.2582         3.7374         3.7690         4.1248         4.2311        15.7448        56.0791       442.5868
    1906.52400         8.5000         8.9172         2.4881      0.0329195        85.4128       125.1677       127.8865       0.243007       0.232847         3.2859         3.7453         3.7782         4.1334         4.2422        15.7122        56.0791       442.0446
    1906.67640         8.5000         8.9213         2.4854      0.0316500        85.4541       125.2054       127.9511       0.242279       0.232083         3.2587         3.7814         3.8152         4.1694         4.2793        15.6030        56.0791       441.8498
    1906.82880         8.5000         8.9253         2.4827      0.0303806        85.4955       125.2430       128.0158       0.241550       0.231320         3.2315         3.8175         3.8522         4.2055         4.3165        15.4938        56.0791       441.6551
    1906.98120         8.5000         8.9294         2.4801      0.0291111        85.5368       125.2807       128.0804       0.240822       0.230557         3.2043         3.8537         3.8892         4.2416         4.3536        15.3846        56.0791       441.4603
    1907.13360         8.5000         8.9301         2.4846      0.0302820        85.0423       125.1713       127.9731       0.242348       0.232003         3.1838         3.8754         3.9114         4.2649         4.3773        15.4773        56.0806       442.6598
    1907.28600         8.5000         8.9303         2.4901      0.0317963        84.4724       125.0413       127.8417       0.244192       0.233759         3.1643         3.8950         3.9314         4.2863         4.3991        15.5984        56.0822       444.0555
    1907.43840         8.5000         8.9306         2.4956      0.0333107        83.9025       124.9112       127.7102       0.246036       0.235515         3.1448         3.9147         3.9514         4.3077         4.4209        15.7195        56.0839       445.4513
    1907.59080         8.5000         8.9398         2.4995      0.0327813        83.7351       123.6931       126.5214       0.245100       0.234469         3.1493         3.8826         3.9193         4.2755         4.3893        15.9381        56.0861       445.7342
    1907.74320         8.5000         8.9551         2.5022      0.0308656        83.8408       121.7368       124.6151       0.242279       0.231521         3.1701         3.8153         3.8516         4.2069         4.3214        16.2230        56.0887       445.2621
    1907.89560         8.5000         8.9705         2.5050      0.0289498        83.9466       119.7806       122.7089       0.239457       0.228572         3.1909         3.7481         3.7840         4.1383         4.2535        16.5079        56.0914       444.7900
    1908.04800         8.5000         8.9796         2.5063      0.0264392        84.0571       118.0238       120.9677       0.238013       0.227043         3.1988         3.7038         3.7394         4.0926         4.2082        16.6098        56.0940       444.4401
