~Version Information Block
VERS .                 2.00:  CWLS LOG ASCII STANDARD - VERSION 2.00
WRAP .                   NO:  One line per depth step
~Well Information Block
#MNEM.UNIT        Data Type   Information
#---------- ----------------  -----------
STRT .M             9.14400:  START DEPTH
STOP .M          1999.48800:  STOP DEPTH
STEP .M             0.15240:  STEP
NULL .              -999.25:  NULL VALUE
COMP .                     :  COMPANY
WELL .            Ngatoro-2:  WELL
FLD  .                     :  FIELD
LOC  .                     :  LOCATION
CTRY .                     :  COUNTRY
STAT .                     :  STATE
CNTY .                     :  COUNTY
SRVC .     New Zealand Petroleum Co Ltd:  SERVICE COMPANY
DATE .                     :  DATE
API  .                     :  API NUMBER
UWI  .         100000127958:  UNIQUE WELL ID
LATI .          -39.1949429:  LATITUDE
LONG .          174.1849215:  LONGITUDE
~Curve Information Block
#MNEM.UNIT         API CODE   Curve Description
#---------- ----------------  -----------------
DEPTH.M                    :  
BS   .IN                   :  Bit Size (Created in Geolog)
CALI .IN                   :  Caliper Log (CALI)
DENS .G/C3                 :  Compensated Formation Density Log (RHOB)
DRHO .G/C3                 :  Density Log Correction (DRHO)
DTC  .US/F                 :  Delta T (DT)
DTS  .US/F                 :  Delta T Shear Lower Dipole (DT1)
GR   .GAPI                 :  Gamma-Ray Raw (Reeves PSD) (GRCF)
GR_CORR.GAPI                 :  Gamma ray corrected
NEUT .V/V                  :  Neutron Log Porosity (NPHI)
NEUT_CORR.V/V                  :  Corrected NPHI (limestone units)
PEF  .B/E                  :  Photoelectric Factor (PEDF)
RESD .OHMM                 :  Laterolog Deep Resistivity (LLD)
RESD_CORR.OHMM                 :  Borehole corrected LLD
RESS .OHMM                 :  Shallow Laterolog (LLS)
RESS_CORR.OHMM                 :  Borehole corrected LLS
SP   .MV                   :  Spontaneous Potential Log (SP)
TEMP .DEGC                 :  Temperature (TEMP)
TENS .KGF                  :  Cable tension at surface (TENS)
~Parameter Information Block
#MNEM.UNIT            Value   Description
#---------- ----------------  -----------
CUR_INT_BOT.M                2000:  Current interpolated bottom
PROJECT.     New Zealand Log QC Project:  
SET  .     A0_FINAL_INTER_REF_D:  
ELEVATION_AMSL.M              294.94:  Elevation above mean sea level
ELEVATION_REF.                   KB:  Measurement reference
FORMATION_AT_TD.             Manganui:  Formation at TD
GL_ELEVATION_AMSL.M            286.3000:  Ground level elevation above mean sea level
LICENCE_NUMBER.             PPL38706:  Licence number
ONSHORE_OR_OFFSHORE.              Onshore:  Onshore/offshore
PR_NUMBER.               PR1920:  Petroleum report number
SPUD_DATE.           12/10/1991:  Spud date
STATUS_AT_COMPLETION.     Completed as an oil producer:  Status at completion
TD_DATE.           26/10/1991:  Total depth date
TOTAL_DEPTH_DRILLED.M                2000:  Total depth drilled
~Other Information Block
# 
~A       DEPTH             BS           CALI           DENS           DRHO            DTC            DTS             GR        GR_CORR           NEUT      NEUT_CORR            PEF           RESD      RESD_CORR           RESS      RESS_CORR             SP           TEMP           TENS 
# ...
    1989.12480         8.5000         8.7497         2.5832      0.0057298      -999.2500      -999.2500        99.1105        99.7162       0.191219       0.185083         3.7787      -999.2500      -999.2500      -999.2500      -999.2500      -999.2500        64.7753      1010.7133
    1989.27720         8.5000         8.7498         2.5810      0.0054537      -999.2500      -999.2500        98.8602        99.4647       0.188436       0.182407         3.7185      -999.2500      -999.2500      -999.2500      -999.2500      -999.2500        64.7624      1007.6021
    1989.42960         8.5000         8.7499         2.5788      0.0051775      -999.2500      -999.2500        98.6098        99.2131       0.185653       0.179730         3.6582      -999.2500      -999.2500      -999.2500      -999.2500      -999.2500        64.7495      1004.4908
    1989.58200         8.5000         8.7500         2.5793      0.0064032      -999.2500      -999.2500        99.4481       100.0570       0.186267       0.180320         3.6335      -999.2500      -999.2500      -999.2500      -999.2500      -999.2500        64.7352      1003.5079
    1989.73440         8.5000         8.7500         2.5819      0.0089185      -999.2500      -999.2500       101.2211       101.8413       0.189798       0.183715         3.6394      -999.2500      -999.2500      -999.2500      -999.2500      -999.2500        64.7198      1004.3524
    1989.88680         8.5000         8.7501         2.5846      0.0114337      -999.2500      -999.2500       102.9941       103.6256       0.193329       0.187109         3.6454      -999.2500      -999.2500      -999.2500      -999.2500      -999.2500        64.7043      1005.1968
    1990.03920         8.5000         8.7502         2.5867      0.0135279      -999.2500      -999.2500       104.1836       104.8228       0.196156       0.189827         3.6351      -999.2500      -999.2500      -999.2500      -999.2500      -999.2500        64.6889      1005.7202
    1990.19160         8.5000         8.7502         2.5871      0.0144063      -999.2500      -999.2500       103.6883       104.3243       0.196951       0.190592         3.5780      -999.2500      -999.2500      -999.2500      -999.2500      -999.2500        64.6732      1005.3162
    1990.34400         8.5000         8.7502         2.5876      0.0152848      -999.2500      -999.2500       103.1930       103.8259       0.197745       0.191357         3.5209      -999.2500      -999.2500      -999.2500      -999.2500      -999.2500        64.6576      1004.9123
    1990.49640         8.5000         8.7502         2.5881      0.0161632      -999.2500      -999.2500       102.6977       103.3275       0.198540       0.192121         3.4638      -999.2500      -999.2500      -999.2500      -999.2500      -999.2500        64.6420      1004.5083
    1990.64880         8.5000         8.7501         2.5841      0.0132520      -999.2500      -999.2500       103.1528       103.7850       0.198466       0.192051         3.5480      -999.2500      -999.2500      -999.2500      -999.2500      -999.2500        64.5779      1000.9030
    1990.80120         8.5000         8.7500         2.5799      0.0102492      -999.2500      -999.2500       103.6309       104.2657       0.198370       0.191961         3.6355      -999.2500      -999.2500      -999.2500      -999.2500      -999.2500        64.5127       997.2201
    1990.95360         8.5000         8.7500         2.5758      0.0072463      -999.2500      -999.2500       104.1090       104.7463       0.198275       0.191871         3.7231      -999.2500      -999.2500      -999.2500      -999.2500      -999.2500        64.4474       993.5373
    1991.10600         8.5000         8.7499         2.5738      0.0072026      -999.2500      -999.2500       102.3618       102.9881       0.194854       0.188584         3.7407      -999.2500      -999.2500      -999.2500      -999.2500      -999.2500        64.4861       995.5938
    1991.25840         8.5000         8.7498         2.5727      0.0084542      -999.2500      -999.2500        99.6405       100.2499       0.189978       0.183897         3.7276      -999.2500      -999.2500      -999.2500      -999.2500      -999.2500        64.5703      1000.1624
    1991.41080         8.5000         8.7498         2.5716      0.0097058      -999.2500      -999.2500        96.9192        97.5116       0.185102       0.179210         3.7146      -999.2500      -999.2500      -999.2500      -999.2500      -999.2500        64.6544      1004.7311
    1991.56320         8.5000         8.7497         2.5698      0.0093055      -999.2500      -999.2500        95.3679        95.9506       0.182357       0.176572         3.7321      -999.2500      -999.2500      -999.2500      -999.2500      -999.2500        64.6639      1006.8047
    1991.71560         8.5000         8.7498         2.5672      0.0065736      -999.2500      -999.2500        95.4677        96.0513       0.182622       0.176827         3.7926      -999.2500      -999.2500      -999.2500      -999.2500      -999.2500        64.5681      1005.3566
    1991.86800         8.5000         8.7498         2.5647      0.0038417      -999.2500      -999.2500        95.5675        96.1519       0.182886       0.177081         3.8532      -999.2500      -999.2500      -999.2500      -999.2500      -999.2500        64.4723      1003.9084
    1992.02040         8.5000         8.7498         2.5625      0.0017274      -999.2500      -999.2500        95.8695        96.4559       0.184123       0.178270         3.9019      -999.2500      -999.2500      -999.2500      -999.2500      -999.2500        64.3989      1002.5087
    1992.17280         8.5000         8.7498         2.5635      0.0036084      -999.2500      -999.2500        97.4799        98.0759       0.191648       0.185507         3.8742      -999.2500      -999.2500      -999.2500      -999.2500      -999.2500        64.4702      1001.4220
    1992.32520         8.5000         8.7497         2.5644      0.0054895      -999.2500      -999.2500        99.0904        99.6960       0.199173       0.192745         3.8465      -999.2500      -999.2500      -999.2500      -999.2500      -999.2500        64.5416      1000.3353
    1992.47760         8.5000         8.7497         2.5653      0.0073706      -999.2500      -999.2500       100.7008       101.3160       0.206699       0.199982         3.8187      -999.2500      -999.2500      -999.2500      -999.2500      -999.2500        64.6129       999.2487
    1992.63000         8.5000         8.7498         2.5602      0.0066100      -999.2500      -999.2500        98.2949        98.8957       0.211133       0.204247         3.8187      -999.2500      -999.2500      -999.2500      -999.2500      -999.2500        64.5612      1001.2097
    1992.78240         8.5000         8.7499         2.5540      0.0053943      -999.2500      -999.2500        95.1969        95.7793       0.215034       0.207999         3.8235      -999.2500      -999.2500      -999.2500      -999.2500      -999.2500        64.4882      1003.6959
    1992.93480         8.5000         8.7500         2.5478      0.0041785      -999.2500      -999.2500        92.0989        92.6628       0.218936       0.211751         3.8283      -999.2500      -999.2500      -999.2500      -999.2500      -999.2500        64.4152      1006.1820
    1993.08720         8.5000         8.7499         2.5473      0.0040513      -999.2500      -999.2500        94.6002        95.1789       0.217769       0.210630         3.8301      -999.2500      -999.2500      -999.2500      -999.2500      -999.2500        64.3694      1006.2554
    1993.23960         8.5000         8.7497         2.5510      0.0047379      -999.2500      -999.2500       101.2881       101.9066       0.212811       0.205865         3.8297      -999.2500      -999.2500      -999.2500      -999.2500      -999.2500        64.3441      1004.5247
    1993.39200         8.5000         8.7495         2.5547      0.0054245      -999.2500      -999.2500       107.9760       108.6343       0.207854       0.201100         3.8293      -999.2500      -999.2500      -999.2500      -999.2500      -999.2500        64.3187      1002.7940
