~Version Information Block
VERS .                 2.00:  CWLS LOG ASCII STANDARD - VERSION 2.00
WRAP .                   NO:  One line per depth step
~Well Information Block
#MNEM.UNIT        Data Type   Information
#---------- ----------------  -----------
STRT .M           527.15160:  START DEPTH
STOP .M          2099.31000:  STOP DEPTH
STEP .M             0.15240:  STEP
NULL .              -999.25:  NULL VALUE
COMP .                     :  COMPANY
WELL .            Ngatoro-8:  WELL
FLD  .                     :  FIELD
LOC  .                     :  LOCATION
CTRY .                     :  COUNTRY
STAT .                     :  STATE
CNTY .                     :  COUNTY
SRVC .     New Zealand Petroleum Co Ltd:  SERVICE COMPANY
DATE .                     :  DATE
API  .                     :  API NUMBER
UWI  .         100000210422:  UNIQUE WELL ID
LATI .          -39.2038856:  LATITUDE
LONG .          174.1703227:  LONGITUDE
~Curve Information Block
#MNEM.UNIT         API CODE   Curve Description
#---------- ----------------  -----------------
DEPTH.M                    :  
BS   .IN                   :  Bit Size (Created in Geolog)
CALI .IN                   :  Caliper (HCAL)
DENS .G/C3                 :  Bulk Density (RHOZ) and HR Bulk Density (RHO8)
DTC  .US/F                 :  Delta Time (DT)
GR   .GAPI                 :  Gamma Ray (GR) and HR Gamma Ray (HGR)
NEUT .V/V                  :  Neutron Porosity (NPHI) and HR Neutron Porosity (HTNP)
NEUT_CORR.V/V                  :  Corrected NPHI (limestone units)
PEF  .B/E                  :  Photoelectric Factor (PEF) and (PEFZ)
RESD .OHMM                 :  HALS Deep Res. (HLLD) and HR HALS Deep Res. (HRLD)
RESS .OHMM                 :  HALS Shallow Res. (HLLS) and HR HALS Shallow Res. (HRLS)
SP   .MV                   :  Spontaneous Potential (SP)
~Parameter Information Block
#MNEM.UNIT            Value   Description
#---------- ----------------  -----------
CUR_INT_BOT.M                2100:  Current interpolated bottom
PROJECT.     New Zealand Log QC Project:  
SET  .     A0_FINAL_INTER_REF_D:  
ELEVATION_AMSL.M                 328:  Elevation above mean sea level
ELEVATION_REF.                   KB:  Measurement reference
FORMATION_AT_TD.             Manganui:  Formation at TD
GL_ELEVATION_AMSL.M            322.5000:  Ground level elevation above mean sea level
LICENCE_NUMBER.             PPL38706:  Licence number
ONSHORE_OR_OFFSHORE.              Onshore:  Onshore/offshore
PR_NUMBER.               PR2216:  Petroleum report number
SPUD_DATE.           22/04/1996:  Spud date
STATUS_AT_COMPLETION.     Suspended with 7" casing cemented to TD:  Status at completion
TD_DATE.           29/04/1996:  Total depth date
TOTAL_DEPTH_DRILLED.M                2100:  Total depth drilled
~Other Information Block
# 
~A       DEPTH             BS           CALI           DENS            DTC             GR           NEUT      NEUT_CORR            PEF           RESD           RESS             SP 
# ...
    1878.17760         8.5000         8.4127         2.5715        88.5822       102.7048       0.185696       0.181131         3.4514         5.8268         6.2836        76.9789
    1878.33000         8.5000         8.4141         2.5602        89.9465       104.7023       0.197414       0.192356         3.4028         5.3156         5.7568        76.9950
    1878.48240         8.5000         8.4155         2.5489        91.3109       106.6998       0.209132       0.203580         3.3542         4.8043         5.2299        77.0111
    1878.63480         8.5000         8.4149         2.5505        91.2502       108.7152       0.214995       0.209476         3.3683         4.6572         5.0343        77.0486
    1878.78720         8.5000         8.4140         2.5538        91.0034       110.7330       0.220093       0.214676         3.3906         4.5577         4.8819        77.0890
    1878.93960         8.5000         8.4131         2.5571        90.7567       112.7507       0.225192       0.219876         3.4130         4.4583         4.7295        77.1293
    1879.09200         8.5000         8.4178         2.5530        88.5295       111.1915       0.224819       0.219460         3.4059         4.5521         4.8705        77.2622
    1879.24440         8.5000         8.4263         2.5441        85.0021       107.2839       0.220855       0.215356         3.3795         4.7729         5.2043        77.4558
    1879.39680         8.5000         8.4347         2.5353        81.4747       103.3763       0.216891       0.211252         3.3532         4.9937         5.5380        77.6495
    1879.54920         8.5000         8.4391         2.5249        80.1061        98.2932       0.211420       0.205862         3.3162         5.4342         5.9579        78.0050
    1879.70160         8.5000         8.4349         2.5115        83.2657        90.7446       0.202790       0.197776         3.2571         6.3359         6.5588        78.7001
    1879.85400         8.5000         8.4307         2.4980        86.4254        83.1959       0.194160       0.189690         3.1979         7.2375         7.1597        79.3953
    1880.00640         8.5000         8.4277         2.4854        89.4469        76.3003       0.186253       0.182278         3.1434         8.0446         7.6847        80.0603
    1880.15880         8.5000         8.4505         2.4923        89.3159        84.3039       0.194857       0.190260         3.1946         6.6946         6.4792        80.0397
    1880.31120         8.5000         8.4734         2.4992        89.1849        92.3075       0.203460       0.198243         3.2459         5.3446         5.2738        80.0190
    1880.46360         8.5000         8.4962         2.5061        89.0539       100.3112       0.212063       0.206225         3.2971         3.9946         4.0683        79.9984
    1880.61600         8.5000         8.4900         2.5149        89.0040       104.8788       0.215467       0.209549         3.3439         3.9327         4.0510        80.2974
    1880.76840         8.5000         8.4746         2.5244        88.9795       108.3682       0.217239       0.211411         3.3893         4.2750         4.4066        80.6966
    1880.92080         8.5000         8.4593         2.5340        88.9551       111.8576       0.219011       0.213273         3.4347         4.6173         4.7622        81.0959
    1881.07320         8.5000         8.4559         2.5385        88.9750       113.1339       0.220207       0.214526         3.4607         4.7736         4.9483        81.1975
    1881.22560         8.5000         8.4655         2.5377        89.0428       112.0158       0.220780       0.215120         3.4655         4.7288         4.9511        80.9772
    1881.37800         8.5000         8.4750         2.5370        89.1107       110.8976       0.221352       0.215714         3.4704         4.6840         4.9538        80.7569
    1881.53040         8.5000         8.4812         2.5361        88.9946       109.8986       0.221495       0.215857         3.4750         4.6297         4.9444        80.5658
    1881.68280         8.5000         8.4735         2.5350        88.1406       109.3777       0.219910       0.214190         3.4785         4.5378         4.8861        80.4914
    1881.83520         8.5000         8.4659         2.5339        87.2866       108.8568       0.218326       0.212523         3.4820         4.4458         4.8277        80.4171
    1881.98760         8.5000         8.4582         2.5328        86.4326       108.3359       0.216742       0.210855         3.4855         4.3539         4.7693        80.3428
    1882.14000         8.5000         8.4695         2.5466        86.9048       106.5765       0.214751       0.208830         3.5139         4.6946         5.0828        80.1388
    1882.29240         8.5000         8.4824         2.5618        87.4944       104.7074       0.212725       0.206773         3.5445         5.0736         5.4292        79.9232
    1882.44480         8.5000         8.4953         2.5769        88.0841       102.8384       0.210699       0.204716         3.5751         5.4527         5.7756        79.7077
    1882.59720         8.5000         8.4711         2.5707        89.7044       102.4950       0.211256       0.205277         3.5505         5.4534         5.7923        79.6005
    1882.74960         8.5000         8.4259         2.5523        91.9099       103.0181       0.213280       0.207323         3.4945         5.2392         5.6219        79.5547
    1882.90200         8.5000         8.3806         2.5339        94.1154       103.5412       0.215304       0.209370         3.4385         5.0251         5.4514        79.5090
    1883.05440         8.5000         8.3483         2.5089        95.7275       102.2717       0.215384       0.209525         3.3776         4.9087         5.3687        79.3336
    1883.20680         8.5000         8.3394         2.4722        96.2704        97.7729       0.211964       0.206273         3.3077         4.9685         5.4442        78.9248
    1883.35920         8.5000         8.3305         2.4356        96.8134        93.2740       0.208544       0.203021         3.2378         5.0283         5.5197        78.5159
    1883.51160         8.5000         8.3222         2.4019        97.3417        89.2715       0.205266       0.199908         3.1713         5.0908         5.5968        78.1342
    1883.66400         8.5000         8.3210         2.4053        97.6922        91.2937       0.203719       0.198477         3.1457         5.1857         5.6941        78.0820
    1883.81640         8.5000         8.3199         2.4087        98.0427        93.3158       0.202171       0.197045         3.1201         5.2805         5.7914        78.0298
    1883.96880         8.5000         8.3187         2.4120        98.3932        95.3379       0.200624       0.195613         3.0945         5.3754         5.8887        77.9776
    1884.12120         8.5000         8.3172         2.4109        98.4086        93.7722       0.198076       0.193322         3.1194         5.4123         5.9062        78.0440
    1884.27360         8.5000         8.3156         2.4087        98.3376        91.2829       0.195271       0.190810         3.1573         5.4342         5.9032        78.1411
    1884.42600         8.5000         8.3140         2.4064        98.2666        88.7936       0.192466       0.188298         3.1952         5.4561         5.9002        78.2381
    1884.57840         8.5000         8.3169         2.4169        98.0981        87.7633       0.192090       0.187968         3.2219         5.4660         5.8849        78.0919
    1884.73080         8.5000         8.3240         2.4396        97.8375        88.1101       0.194008       0.189697         3.2379         5.4646         5.8580        77.7163
    1884.88320         8.5000         8.3312         2.4622        97.5769        88.4569       0.195926       0.191426         3.2539         5.4631         5.8311        77.3406
