~Version Information Block
VERS .                 2.00:  CWLS LOG ASCII STANDARD - VERSION 2.00
WRAP .                   NO:  One line per depth step
~Well Information Block
#MNEM.UNIT        Data Type   Information
#---------- ----------------  -----------
STRT .M            16.61160:  START DEPTH
STOP .M          1898.90400:  STOP DEPTH
STEP .M             0.15240:  STEP
NULL .              -999.25:  NULL VALUE
COMP .                     :  COMPANY
WELL .         Ngatoro-3ST1:  WELL
FLD  .                     :  FIELD
LOC  .                     :  LOCATION
CTRY .                     :  COUNTRY
STAT .                     :  STATE
CNTY .                     :  COUNTY
SRVC .     Greymouth Petroleum Ltd:  SERVICE COMPANY
DATE .                     :  DATE
API  .                     :  API NUMBER
UWI  .         100000787700:  UNIQUE WELL ID
LATI .          -39.1846084:  LATITUDE
LONG .          174.1883756:  LONGITUDE
~Curve Information Block
#MNEM.UNIT         API CODE   Curve Description
#---------- ----------------  -----------------
DEPTH.M                    :  
BS   .IN                   :  Bit Size (Created in Geolog)
CALI .IN                   :  HRCC Cal. Caliper (HCAL)
DENS .G/C3                 :  HRDD High Resolution Formation Density (RHO8)
DRHO .G/C3                 :  HRDD Density Correction (HDRA)
GR   .GAPI                 :  HiRes Gamma-Ray (EHGR)
NEUT .V/V                  :  HiRes Thermal Neutron Porosity (HTNP)
PEF  .B/E                  :  HRDD High Resolution Formation Photoelectric Factor (PEF8)
RESD .OHMM                 :  Array Induction Two Foot Resistivity A90 (AHT90)
RESM .OHMM                 :  Array Induction Two Foot Resistivity A30 (AHT30)
RESS .OHMM                 :  Array Induction Two Foot Resistivity A10 (AHT10)
SP   .MV                   :  SP Shifted (SP)
TEMP .DEGC                 :  HTC Temperature (HTEM)
TENS .KGF                  :  Cable Tension (TENS)
~Parameter Information Block
#MNEM.UNIT            Value   Description
#---------- ----------------  -----------
CUR_INT_BOT.M                1899:  Current interpolated bottom
PROJECT.     New Zealand Log QC Project:  
SET  .     A0_FINAL_INTER_REF_D:  
ELEVATION_AMSL.M              262.91:  Elevation above mean sea level
ELEVATION_REF.                   DF:  Measurement reference
FORMATION_AT_TD.             Manganui:  Formation at TD
GL_ELEVATION_AMSL.M            259.3000:  Ground level elevation above mean sea level
KICK_OFF_DATE.           26/09/2005:  Kick off date
KICK_OFF_DEPTH.M                 645:  Kick off depth
LICENCE_NUMBER.             PMP38148:  Licence number
ONSHORE_OR_OFFSHORE.              Onshore:  Onshore/offshore
PARENT_WELL.            Ngatoro-3:  Parent well
PR_NUMBER.               PR3237:  Petroleum report number
STATUS_AT_COMPLETION.     Completed ready for perforating:  Status at completion
TD_DATE.           05/10/2005:  Total depth date
TOTAL_DEPTH_DRILLED.M             1898.82:  Total depth drilled
~Other Information Block
# 
~A       DEPTH             BS           CALI           DENS           DRHO             GR           NEUT            PEF           RESD           RESM           RESS             SP           TEMP           TENS 
# ...
    1312.31640         6.0000         6.3804         2.3093     -0.0000857        97.7290       0.318933         2.8806         2.4410         2.4559         2.6147       365.5345        51.2080      1091.0981
    1312.46880         6.0000         6.2549         2.3046     -0.0003991        97.3849       0.319206         2.8718         2.4337         2.4701         2.6390       368.9026        51.2080      1094.3324
    1312.62120         6.0000         6.1470         2.3053      0.0005588        95.9808       0.317557         2.8821         2.4198         2.4714         2.6470       369.5214        51.2080      1091.8682
    1312.77360         6.0000         6.0436         2.3074      0.0018440        94.3039       0.315413         2.8975         2.4041         2.4694         2.6507       369.4324        51.2080      1087.9369
    1312.92600         6.0000         5.9402         2.3094      0.0031291        92.6269       0.313269         2.9128         2.3885         2.4674         2.6544       369.3434        51.2080      1084.0056
    1313.07840         6.0000         5.8980         2.3130      0.0029697        91.3501       0.311022         2.9093         2.3887         2.4743         2.6596       369.1596        51.2080      1085.0591
    1313.23080         6.0000         5.9136         2.3182      0.0014469        90.4510       0.308678         2.8880         2.4037         2.4894         2.6660       368.8866        51.2080      1090.8173
    1313.38320         6.0000         5.9292         2.3234     -0.0000760        89.5519       0.306333         2.8667         2.4188         2.5045         2.6724       368.6136        51.2080      1096.5754
    1313.53560         6.0000         5.9488         2.3192     -0.0003238        88.8584       0.306686         2.8504         2.4328         2.5105         2.6634       367.9997        51.2080      1098.8273
    1313.68800         6.0000         5.9817         2.2845      0.0036120        88.8395       0.315889         2.8501         2.4431         2.4869         2.6041       366.2679        51.2080      1089.5752
    1313.84040         6.0000         6.0146         2.2499      0.0075477        88.8206       0.325092         2.8498         2.4534         2.4632         2.5448       364.5359        51.2080      1080.3232
    1313.99280         6.0000         6.0474         2.2152      0.0114834        88.8018       0.334295         2.8495         2.4637         2.4396         2.4855       362.8040        51.2080      1071.0712
    1314.14520         6.0000         6.0940         2.2379      0.0091389        89.6015       0.326862         2.8124         2.5121         2.4350         2.4504       363.2175        51.2080      1071.7617
    1314.29760         6.0000         6.1413         2.2635      0.0064830        90.4419       0.318604         2.7735         2.5624         2.4313         2.4166       363.7374        51.2080      1072.9453
    1314.45000         6.0000         6.1885         2.2891      0.0038271        91.2823       0.310346         2.7345         2.6127         2.4277         2.3827       364.2573        51.2080      1074.1289
    1314.60240         6.0000         6.2723         2.2921      0.0036419        90.8562       0.311568         2.7403         2.6733         2.4321         2.3558       362.9611        51.2080      1077.7717
    1314.75480         6.0000         6.3740         2.2839      0.0046632        89.8118       0.317419         2.7678         2.7390         2.4404         2.3324       360.7782        51.2080      1082.6154
    1314.90720         6.0000         6.4756         2.2758      0.0056844        88.7674       0.323270         2.7954         2.8047         2.4488         2.3090       358.5953        51.2080      1087.4590
    1315.05960         6.0000         6.5714         2.2794      0.0081243        87.6859       0.325246         2.8254         2.8977         2.4817         2.3158       356.4643        51.2080      1091.6399
    1315.21200         6.0000         6.6580         2.3013      0.0127731        86.5466       0.321191         2.8593         3.0334         2.5528         2.3696       354.4138        51.2080      1094.7889
    1315.36440         6.0000         6.7446         2.3233      0.0174220        85.4073       0.317135         2.8933         3.1690         2.6238         2.4235       352.3634        51.2080      1097.9380
    1315.51680         6.0000         6.8161         2.3417      0.0206764        84.6619       0.313268         2.9191         3.2960         2.6926         2.4803       350.4549        51.2080      1100.0604
    1315.66920         6.0000         6.7652         2.3314      0.0126757        87.0961       0.310924         2.8796         3.3530         2.7430         2.5605       349.6914        51.2080      1093.8962
    1315.82160         6.0000         6.7142         2.3212      0.0046751        89.5303       0.308579         2.8401         3.4101         2.7934         2.6407       348.9279        51.2080      1087.7321
    1315.97400         6.0000         6.6633         2.3110     -0.0033256        91.9645       0.306234         2.8006         3.4671         2.8438         2.7209       348.1645        51.2080      1081.5679
    1316.12640         6.0000         6.6324         2.2998     -0.0011075        91.2102       0.308446         2.7945         3.3462         2.7994         2.6943       349.8443        51.2080      1080.9843
    1316.27880         6.0000         6.6056         2.2884      0.0032125        89.7999       0.311595         2.7953         3.1888         2.7356         2.6457       352.0266        51.2080      1081.5486
    1316.43120         6.0000         6.5789         2.2770      0.0075325        88.3897       0.314745         2.7961         3.0313         2.6717         2.5972       354.2090        51.2080      1082.1128
    1316.58360         6.0000         6.4667         2.2777      0.0085608        88.1727       0.313131         2.8044         2.8936         2.6113         2.5608       355.2983        51.2080      1082.3754
    1316.73600         6.0000         6.2843         2.2885      0.0068801        88.9376       0.307597         2.8190         2.7721         2.5538         2.5344       355.4882        51.2080      1082.3895
    1316.88840         6.0000         6.1019         2.2992      0.0051993        89.7026       0.302063         2.8335         2.6506         2.4962         2.5081       355.6780        51.2080      1082.4038
    1317.04080         6.0000         5.9726         2.3034      0.0034129        90.2820       0.300171         2.8396         2.5562         2.4507         2.4947       355.6024        51.2080      1082.3754
    1317.19320         6.0000         5.9884         2.2896      0.0013375        90.3538       0.308241         2.8223         2.5361         2.4381         2.5170       354.8008        51.2080      1082.2303
    1317.34560         6.0000         6.0042         2.2758     -0.0007378        90.4256       0.316312         2.8050         2.5159         2.4255         2.5393       353.9992        51.2080      1082.0853
    1317.49800         6.0000         6.0200         2.2620     -0.0028132        90.4974       0.324382         2.7877         2.4958         2.4129         2.5616       353.1976        51.2080      1081.9403
    1317.65040         6.0000         6.0527         2.2782     -0.0012630        91.3021       0.323138         2.7858         2.4875         2.4044         2.5874       351.8148        51.2080      1097.8379
    1317.80280         6.0000         6.0856         2.2947      0.0003355        92.1165       0.321771         2.7842         2.4793         2.3960         2.6132       350.4242        51.2080      1113.9489
    1317.95520         6.0000         6.1186         2.3113      0.0019340        92.9309       0.320403         2.7826         2.4712         2.3876         2.6390       349.0336        51.2080      1130.0597
    1318.10760         6.0000         6.1061         2.3068      0.0041335        93.2531       0.317507         2.7943         2.4487         2.3822         2.6689       347.2846        51.2080      1135.0172
