~Version Information Block
VERS .                 2.00:  CWLS LOG ASCII STANDARD - VERSION 2.00
WRAP .                   NO:  One line per depth step
~Well Information Block
#MNEM.UNIT        Data Type   Information
#---------- ----------------  -----------
STRT .M             5.63880:  START DEPTH
STOP .M          2149.90680:  STOP DEPTH
STEP .M             0.15240:  STEP
NULL .              -999.25:  NULL VALUE
COMP .                     :  COMPANY
WELL .            Ngatoro-4:  WELL
FLD  .                     :  FIELD
LOC  .                     :  LOCATION
CTRY .                     :  COUNTRY
STAT .                     :  STATE
CNTY .                     :  COUNTY
SRVC .     New Zealand Petroleum Co Ltd:  SERVICE COMPANY
DATE .                     :  DATE
API  .                     :  API NUMBER
UWI  .         100000159749:  UNIQUE WELL ID
LATI .           -39.193014:  LATITUDE
LONG .          174.1756345:  LONGITUDE
~Curve Information Block
#MNEM.UNIT         API CODE   Curve Description
#---------- ----------------  -----------------
DEPTH.M                    :  
BS   .IN                   :  Bit Size (Created in Geolog)
CALI .IN                   :  Caliper Log (CALI)
DRHO .G/C3                 :  Density Log Correction (DRHO)
DTC  .US/F                 :  Delta T (DT)
DTS  .US/F                 :  Delta T Shear Lower Dipole (DT1)
GR   .GAPI                 :  Gamma-Ray Log (GR)
GR_CORR.GAPI                 :  Gamma ray corrected
NEUT .V/V                  :  Neutron Log Porosity (NPHI)
NEUT_CORR.V/V                  :  Corrected NPHI (limestone units)
PEF  .B/E                  :  Photoelectric Factor (PEDF)
RESD .OHMM                 :  Laterolog Deep Resistivity (LLD)
RESD_CORR.OHMM                 :  Borehole corrected LLD
RESS .OHMM                 :  Shallow Laterolog (LLS)
RESS_CORR.OHMM                 :  Borehole corrected LLS
SP   .MV                   :  Spontaneous Potential Log (SP)
TEMP .DEGC                 :  Temperature (TEMP)
TENS .KGF                  :  Cable tension at surface (TENS)
~Parameter Information Block
#MNEM.UNIT            Value   Description
#---------- ----------------  -----------
CUR_INT_BOT.M                2150:  Current interpolated bottom
PROJECT.     New Zealand Log QC Project:  
SET  .     A0_FINAL_INTER_REF_D:  
ELEVATION_AMSL.M               297.7:  Elevation above mean sea level
ELEVATION_REF.                   KB:  Measurement reference
FORMATION_AT_TD.                 Moki:  Formation at TD
GL_ELEVATION_AMSL.M            292.8000:  Ground level elevation above mean sea level
LICENCE_NUMBER.             PPL38706:  Licence number
ONSHORE_OR_OFFSHORE.              Onshore:  Onshore/offshore
PR_NUMBER.               PR1914:  Petroleum report number
SPUD_DATE.           07/03/1993:  Spud date
STATUS_AT_COMPLETION.     Suspended as a potential oil producer:  Status at completion
TD_DATE.           21/03/1993:  Total depth date
TOTAL_DEPTH_DRILLED.M                2150:  Total depth drilled
~Other Information Block
# 
~A       DEPTH             BS           CALI           DRHO            DTC            DTS             GR        GR_CORR           NEUT      NEUT_CORR            PEF           RESD      RESD_CORR           RESS      RESS_CORR             SP           TEMP           TENS 
# ...
    2026.46280         8.5000         8.5348      0.0007422      -999.2500      -999.2500       108.0777       107.9422       0.173246       0.172475         3.7633         5.3923         5.4183         5.8010         5.8354        22.1670        70.8533       579.4844
    2026.61520         8.5000         8.5346      0.0010573      -999.2500      -999.2500       107.3500       107.2284       0.173091       0.172323         3.7692         5.4794         5.5056         5.8978         5.9316        22.2137        70.8546       580.1395
    2026.76760         8.5000         8.5344      0.0012674      -999.2500      -999.2500       106.1090       106.0029       0.174084       0.173284         3.7641         5.5662         5.5925         5.9952         6.0284        22.2710        70.8560       581.1624
    2026.92000         8.5000         8.5342      0.0014775      -999.2500      -999.2500       104.8679       104.7775       0.175077       0.174245         3.7591         5.6529         5.6794         6.0925         6.1251        22.3283        70.8573       582.1852
    2027.07240         8.5000         8.5341      0.0016498      -999.2500      -999.2500       103.9264       103.8216       0.176325       0.175458         3.7423         5.7147         5.7413         6.1639         6.1960        22.3745        70.8604       583.0302
    2027.22480         8.5000         8.5342      0.0017803      -999.2500      -999.2500       103.3160       103.1637       0.177855       0.176950         3.7126         5.7489         5.7755         6.2064         6.2383        22.4086        70.8655       583.6787
    2027.37720         8.5000         8.5342      0.0019109      -999.2500      -999.2500       102.7055       102.5057       0.179386       0.178442         3.6828         5.7831         5.8098         6.2489         6.2806        22.4428        70.8705       584.3272
    2027.52960         8.5000         8.5340      0.0023009      -999.2500      -999.2500       102.1400       101.8828       0.180654       0.179685         3.6671         5.7825         5.8092         6.2552         6.2868        22.4720        70.8758       584.7029
    2027.68200         8.5000         8.5326      0.0037668      -999.2500      -999.2500       101.7610       101.4055       0.180835       0.179893         3.7098         5.6374         5.6637         6.1111         6.1432        22.4809        70.8821       583.9467
    2027.83440         8.5000         8.5312      0.0052328      -999.2500      -999.2500       101.3819       100.9282       0.181015       0.180101         3.7526         5.4923         5.5182         5.9670         5.9997        22.4899        70.8884       583.1906
    2027.98680         8.5000         8.5298      0.0066988      -999.2500      -999.2500       101.0029       100.4509       0.181195       0.180309         3.7953         5.3472         5.3727         5.8229         5.8561        22.4988        70.8947       582.4344
    2028.13920         8.5000         8.5270      0.0061805      -999.2500      -999.2500        99.2595        98.9737       0.181762       0.180900         3.7492         5.3197         5.3449         5.7996         5.8324        22.6795        70.9041       582.4355
    2028.29160         8.5000         8.5241      0.0054741      -999.2500      -999.2500        97.3868        97.4017       0.182365       0.181527         3.6947         5.3034         5.3282         5.7879         5.8201        22.8764        70.9138       582.5084
    2028.44400         8.5000         8.5212      0.0047678      -999.2500      -999.2500        95.5141        95.8297       0.182968       0.182155         3.6401         5.2870         5.3116         5.7761         5.8078        23.0733        70.9236       582.5813
    2028.59640         8.5000         8.5202      0.0042511      -999.2500      -999.2500        96.6636        96.9385       0.182483       0.181693         3.6123         5.3333         5.3579         5.8268         5.8579        23.1655        70.9327       582.8209
    2028.74880         8.5000         8.5202      0.0038445      -999.2500      -999.2500        99.5688        99.6045       0.181365       0.180598         3.6000         5.4159         5.4407         5.9139         5.9444        23.1968        70.9416       583.1574
    2028.90120         8.5000         8.5201      0.0034380      -999.2500      -999.2500       102.4739       102.2706       0.180248       0.179504         3.5877         5.4986         5.5235         6.0009         6.0309        23.2281        70.9505       583.4938
    2029.05360         8.5000         8.5202      0.0031347      -999.2500      -999.2500       104.4232       104.0272       0.178720       0.178010         3.5732         5.5588         5.5838         6.0625         6.0921        23.2552        70.9583       583.6803
    2029.20600         8.5000         8.5202      0.0030217      -999.2500      -999.2500       104.6104       104.1074       0.176435       0.175778         3.5548         5.5777         5.6028         6.0773         6.1068        23.2745        70.9640       583.5903
    2029.35840         8.5000         8.5203      0.0029087      -999.2500      -999.2500       104.7976       104.1876       0.174151       0.173547         3.5364         5.5966         5.6217         6.0921         6.1215        23.2938        70.9697       583.5004
    2029.51080         8.5000         8.5204      0.0027828      -999.2500      -999.2500       104.8760       104.1895       0.172098       0.171541         3.5258         5.6124         5.6375         6.1037         6.1330        23.2949        70.9749       583.4454
    2029.66320         8.5000         8.5203      0.0024890      -999.2500      -999.2500       103.5289       103.1639       0.173072       0.172496         3.6185         5.5868         5.6119         6.0740         6.1035        23.0571        70.9739       583.8503
    2029.81560         8.5000         8.5202      0.0021951      -999.2500      -999.2500       102.1819       102.1384       0.174046       0.173451         3.7112         5.5612         5.5862         6.0442         6.0739        22.8193        70.9729       584.2553
    2029.96800         8.5000         8.5201      0.0019012      -999.2500      -999.2500       100.8348       101.1128       0.175020       0.174405         3.8039         5.5356         5.5606         6.0145         6.0443        22.5815        70.9719       584.6602
    2030.12040         8.5000         8.5200      0.0013305      -999.2500      -999.2500       103.1406       103.2096       0.177802       0.177127         3.7810         5.5432         5.5681         6.0231         6.0529        22.7404        70.9752       584.3140
    2030.27280         8.5000         8.5199      0.0006863      -999.2500      -999.2500       106.4173       106.1362       0.181064       0.180319         3.7273         5.5596         5.5846         6.0419         6.0715        23.0048        70.9797       583.7681
    2030.42520         8.5000         8.5198      0.0000421      -999.2500      -999.2500       109.6940       109.0628       0.184325       0.183510         3.6736         5.5759         5.6010         6.0608         6.0902        23.2691        70.9842       583.2222
    2030.57760         8.5000         8.5215     -0.0005210      -999.2500      -999.2500       110.4080       109.6835       0.185883       0.185013         3.6562         5.5833         5.6084         6.0670         6.0968        23.3685        70.9865       582.4627
    2030.73000         8.5000         8.5248     -0.0010058      -999.2500      -999.2500       108.6517       108.0816       0.185800       0.184886         3.6737         5.5818         5.6073         6.0610         6.0916        23.3089        70.9867       581.4974
    2030.88240         8.5000         8.5281     -0.0014907      -999.2500      -999.2500       106.8953       106.4796       0.185716       0.184760         3.6912         5.5804         5.6062         6.0551         6.0865        23.2492        70.9869       580.5322
