~Version Information Block
VERS .                 2.00:  CWLS LOG ASCII STANDARD - VERSION 2.00
WRAP .                   NO:  One line per depth step
~Well Information Block
#MNEM.UNIT        Data Type   Information
#---------- ----------------  -----------
STRT .M           422.60520:  START DEPTH
STOP .M          2060.90520:  STOP DEPTH
STEP .M             0.15240:  STEP
NULL .              -999.25:  NULL VALUE
COMP .                     :  COMPANY
WELL .           Ngatoro-11:  WELL
FLD  .                     :  FIELD
LOC  .                     :  LOCATION
CTRY .                     :  COUNTRY
STAT .                     :  STATE
CNTY .                     :  COUNTY
SRVC .     New Zealand Petroleum Co Ltd:  SERVICE COMPANY
DATE .                     :  DATE
API  .                     :  API NUMBER
UWI  .         100000290650:  UNIQUE WELL ID
LATI .          -39.1949222:  LATITUDE
LONG .          174.1848583:  LONGITUDE
~Curve Information Block
#MNEM.UNIT         API CODE   Curve Description
#---------- ----------------  -----------------
DEPTH.M                    :  
BS   .IN                   :  Bit Size (Created in Geolog)
CALI .IN                   :  Caliper Log (CALI)
DENS .G/C3                 :  Compensated Formation Density Log (RHOB)
DRHO .G/C3                 :  Density Log Correction (DRHO)
DTC  .US/F                 :  8-10 Ft Compensated Sonic (BPB) (DTC3)
GR   .GAPI                 :  Gamma-Ray Log (GR)
GR_CORR.GAPI                 :  Gamma ray corrected
NEUT .V/V                  :  Neutron Log Porosity (NPHI)
NEUT_CORR.V/V                  :  Corrected NPHI (limestone units)
PEF  .B/E                  :  Photoelectric Factor (PEDF)
RESD .OHMM                 :  Laterolog Deep Resistivity (LLD)
RESD_CORR.OHMM                 :  Borehole corrected LLD
RESS .OHMM                 :  Shallow Laterolog (LLS)
RESS_CORR.OHMM                 :  Borehole corrected LLS
SP   .MV                   :  Spontaneous Potential Log (SP)
TENS .KGF                  :  Cable tension at surface (TENS)
~Parameter Information Block
#MNEM.UNIT            Value   Description
#---------- ----------------  -----------
CUR_INT_BOT.M                2063:  Current interpolated bottom
PROJECT.     New Zealand Log QC Project:  
SET  .     A0_FINAL_INTER_REF_D:  
ELEVATION_AMSL.M              291.65:  Elevation above mean sea level
ELEVATION_REF.                   KB:  Measurement reference
FORMATION_AT_TD.      Mount Messenger:  Formation at TD
GL_ELEVATION_AMSL.M            286.3000:  Ground level elevation above mean sea level
LICENCE_NUMBER.             PMP38148:  Licence number
ONSHORE_OR_OFFSHORE.              Onshore:  Onshore/offshore
PR_NUMBER.               PR2438:  Petroleum report number
SPUD_DATE.           28/06/1998:  Spud date
STATUS_AT_COMPLETION.     Cased and suspended as a future oil producer:  Status at completion
TD_DATE.           15/07/1998:  Total depth date
TOTAL_DEPTH_DRILLED.M                2063:  Total depth drilled
~Other Information Block
# 
~A       DEPTH             BS           CALI           DENS           DRHO            DTC             GR        GR_CORR           NEUT      NEUT_CORR            PEF           RESD      RESD_CORR           RESS      RESS_CORR             SP           TENS 
# ...
    1168.75560         8.5000         9.0322         2.3360       0.014210       104.1581       120.0230       123.3355       0.301735       0.285825         2.9820         2.0983         2.1072         2.2473         2.3275       184.8934      1296.4988
    1168.90800         8.5000         9.1157         2.3406       0.013570       103.8404       119.7696       123.5904       0.291246       0.274235         2.9664         2.0965         2.1079         2.2454         2.3297       184.4791      1293.8635
    1169.06040         8.5000         9.1393         2.3430       0.012880       103.8304       120.4400       124.4202       0.294710       0.277085         2.9548         2.0953         2.1073         2.2433         2.3287       184.4010      1293.5559
    1169.21280         8.5000         9.0714         2.3421       0.012116       104.2889       122.5174       126.1260       0.319427       0.301930         2.9496         2.0948         2.1048         2.2408         2.3228       184.8349      1296.7937
    1169.36520         8.5000         9.0035         2.3411       0.011351       104.7474       124.5948       127.8317       0.344143       0.326775         2.9444         2.0944         2.1024         2.2383         2.3170       185.2687      1300.0315
    1169.51760         8.5000         8.9544         2.3404       0.010709       105.0814       126.3603       129.3372       0.364691       0.347269         2.9356         2.0941         2.1006         2.2359         2.3121       185.6770      1302.6990
    1169.67000         8.5000         9.0501         2.3419       0.011010       104.4611       125.7369       129.3092       0.353314       0.334436         2.8991         2.0945         2.1039         2.2336         2.3144       185.8892      1300.9978
    1169.82240         8.5000         9.1458         2.3433       0.011312       103.8408       125.1136       129.2811       0.341936       0.321603         2.8625         2.0950         2.1072         2.2314         2.3168       186.1015      1299.2966
    1169.97480         8.5000         9.2414         2.3448       0.011613       103.2205       124.4903       129.2531       0.330559       0.308770         2.8260         2.0955         2.1104         2.2291         2.3191       186.3138      1297.5955
    1170.12720         8.5000         9.2302         2.3448       0.011814       101.6440       124.8832       129.5912       0.329279       0.307753         2.8269         2.1046         2.1195         2.2367         2.3263       186.3121      1297.1174
    1170.27960         8.5000         9.1979         2.3445       0.011996        99.8781       125.4773       130.0019       0.330000       0.309078         2.8352         2.1154         2.1296         2.2462         2.3344       186.2681      1296.8816
    1170.43200         8.5000         9.1656         2.3441       0.012178        98.1122       126.0715       130.4125       0.330720       0.310403         2.8435         2.1262         2.1398         2.2557         2.3426       186.2240      1296.6459
    1170.58440         8.5000         9.1887         2.3445       0.012138        97.8324       125.6411       130.1093       0.329175       0.308490         2.8360         2.1274         2.1417         2.2565         2.3446       186.2303      1298.8003
    1170.73680         8.5000         9.2566         2.3455       0.011919        98.7499       124.3853       129.2307       0.325803       0.303969         2.8157         2.1209         2.1369         2.2503         2.3416       186.2773      1302.8806
    1170.88920         8.5000         9.3245         2.3465       0.011699        99.6675       123.1295       128.3522       0.322431       0.299448         2.7954         2.1144         2.1322         2.2442         2.3386       186.3243      1306.9608
    1171.04160         8.5000         9.3808         2.3473       0.011801       100.5998       122.6499       128.2105       0.317601       0.293824         2.7899         2.1070         2.1262         2.2377         2.3346       186.2741      1307.2886
    1171.19400         8.5000         9.4060         2.3479       0.012756       101.5716       124.2378       130.0313       0.308888       0.285262         2.8239         2.0971         2.1167         2.2304         2.3283       185.9652      1297.6213
    1171.34640         8.5000         9.4312         2.3484       0.013711       102.5434       125.8257       131.8520       0.300176       0.276700         2.8578         2.0872         2.1073         2.2230         2.3219       185.6563      1287.9541
    1171.49880         8.5000         9.4565         2.3490       0.014666       103.5152       127.4136       133.6727       0.291463       0.268138         2.8918         2.0774         2.0979         2.2157         2.3156       185.3473      1278.2870
    1171.65120         8.5000         9.4687         2.3493       0.014499       103.6903       127.1224       133.4415       0.299860       0.275681         2.9034         2.0731         2.0938         2.2108         2.3111       185.3764      1298.9639
    1171.80360         8.5000         9.4808         2.3497       0.014323       103.8592       126.8163       133.1940       0.308392       0.283352         2.9148         2.0690         2.0898         2.2059         2.3066       185.4081      1319.8816
    1171.95600         8.5000         9.4930         2.3500       0.014148       104.0280       126.5101       132.9465       0.316925       0.291023         2.9262         2.0648         2.0858         2.2011         2.3021       185.4398      1340.7993
    1172.10840         8.5000         9.5925         2.3495       0.013501       103.8461       124.6935       131.6232       0.328764       0.299965         2.8831         2.0593         2.0827         2.1961         2.3016       185.0962      1343.9834
    1172.26080         8.5000         9.7276         2.3486       0.012664       103.5219       122.2639       129.8631       0.341945       0.309423         2.8179         2.0532         2.0798         2.1912         2.3029       184.6003      1339.9692
    1172.41320         8.5000         9.8626         2.3476       0.011826       103.1977       119.8342       128.1030       0.355126       0.318881         2.7526         2.0471         2.0770         2.1863         2.3041       184.1043      1335.9551
    1172.56560         8.5000         9.9283         2.3476       0.011390       102.8175       118.1690       126.7351       0.356228       0.318684         2.7310         2.0456         2.0772         2.1865         2.3074       184.0237      1335.9982
    1172.71800         8.5000         9.9023         2.3486       0.011487       102.3632       117.5153       125.8861       0.341348       0.305711         2.7670         2.0503         2.0814         2.1934         2.3134       184.4928      1341.4097
    1172.87040         8.5000         9.8762         2.3496       0.011584       101.9090       116.8616       125.0371       0.326468       0.292738         2.8031         2.0550         2.0856         2.2002         2.3194       184.9619      1346.8212
    1173.02280         8.5000         9.8728         2.3506       0.011906       101.4394       116.1872       124.2908       0.313052       0.280710         2.8366         2.0573         2.0879         2.2052         2.3248       185.3555      1350.0626
    1173.17520         8.5000         9.9982         2.3515       0.013514       100.8828       115.3955       124.1283       0.307957       0.274057         2.8561         2.0464         2.0795         2.1995         2.3265       185.3206      1340.9694
    1173.32760         8.5000        10.1235         2.3523       0.015121       100.3263       114.6037       123.9657       0.302861       0.267403         2.8757         2.0355         2.0711         2.1937         2.3281       185.2856      1331.8760
    1173.48000         8.5000        10.2489         2.3531       0.016728        99.7697       113.8119       123.8032       0.297765       0.260749         2.8952         2.0245         2.0627         2.1879         2.3298       185.2507      1322.7827
