~Version Information Block
VERS .                 2.00:  CWLS LOG ASCII STANDARD - VERSION 2.00
WRAP .                   NO:  One line per depth step
~Well Information Block
#MNEM.UNIT        Data Type   Information
#---------- ----------------  -----------
STRT .M             5.63880:  START DEPTH
STOP .M          2149.90680:  STOP DEPTH
STEP .M             0.15240:  STEP
NULL .              -999.25:  NULL VALUE
COMP .                     :  COMPANY
WELL .            Ngatoro-4:  WELL
FLD  .                     :  FIELD
LOC  .                     :  LOCATION
CTRY .                     :  COUNTRY
STAT .                     :  STATE
CNTY .                     :  COUNTY
SRVC .     New Zealand Petroleum Co Ltd:  SERVICE COMPANY
DATE .                     :  DATE
API  .                     :  API NUMBER
UWI  .         100000159749:  UNIQUE WELL ID
LATI .           -39.193014:  LATITUDE
LONG .          174.1756345:  LONGITUDE
~Curve Information Block
#MNEM.UNIT         API CODE   Curve Description
#---------- ----------------  -----------------
DEPTH.M                    :  
BS   .IN                   :  Bit Size (Created in Geolog)
CALI .IN                   :  Caliper Log (CALI)
DRHO .G/C3                 :  Density Log Correction (DRHO)
DTC  .US/F                 :  Delta T (DT)
DTS  .US/F                 :  Delta T Shear Lower Dipole (DT1)
GR   .GAPI                 :  Gamma-Ray Log (GR)
GR_CORR.GAPI                 :  Gamma ray corrected
NEUT .V/V                  :  Neutron Log Porosity (NPHI)
NEUT_CORR.V/V                  :  Corrected NPHI (limestone units)
PEF  .B/E                  :  Photoelectric Factor (PEDF)
RESD .OHMM                 :  Laterolog Deep Resistivity (LLD)
RESD_CORR.OHMM                 :  Borehole corrected LLD
RESS .OHMM                 :  Shallow Laterolog (LLS)
RESS_CORR.OHMM                 :  Borehole corrected LLS
SP   .MV                   :  Spontaneous Potential Log (SP)
TEMP .DEGC                 :  Temperature (TEMP)
TENS .KGF                  :  Cable tension at surface (TENS)
~Parameter Information Block
#MNEM.UNIT            Value   Description
#---------- ----------------  -----------
CUR_INT_BOT.M                2150:  Current interpolated bottom
PROJECT.     New Zealand Log QC Project:  
SET  .     A0_FINAL_INTER_REF_D:  
ELEVATION_AMSL.M               297.7:  Elevation above mean sea level
ELEVATION_REF.                   KB:  Measurement reference
FORMATION_AT_TD.                 Moki:  Formation at TD
GL_ELEVATION_AMSL.M            292.8000:  Ground level elevation above mean sea level
LICENCE_NUMBER.             PPL38706:  Licence number
ONSHORE_OR_OFFSHORE.              Onshore:  Onshore/offshore
PR_NUMBER.               PR1914:  Petroleum report number
SPUD_DATE.           07/03/1993:  Spud date
STATUS_AT_COMPLETION.     Suspended as a potential oil producer:  Status at completion
TD_DATE.           21/03/1993:  Total depth date
TOTAL_DEPTH_DRILLED.M                2150:  Total depth drilled
~Other Information Block
# 
~A       DEPTH             BS           CALI           DRHO            DTC            DTS             GR        GR_CORR           NEUT      NEUT_CORR            PEF           RESD      RESD_CORR           RESS      RESS_CORR             SP           TEMP           TENS 
# ...
    1185.21480         8.5000         8.6391      0.0163224      -999.2500      -999.2500       110.6917       111.1519       0.294879       0.286081         3.1190         2.1330         2.1274         2.3733         2.4388      -999.2500      -999.2500       432.7092
    1185.36720         8.5000         8.6357      0.0164262      -999.2500      -999.2500       109.9830       110.4037       0.289687       0.281112         3.0984         2.1218         2.1159         2.3629         2.4281      -999.2500      -999.2500       434.4865
    1185.51960         8.5000         8.6324      0.0165386      -999.2500      -999.2500       109.2791       109.6718       0.284555       0.276206         3.0834         2.1183         2.1123         2.3602         2.4252      -999.2500      -999.2500       436.0797
    1185.67200         8.5000         8.6292      0.0167089      -999.2500      -999.2500       108.6078       109.0504       0.279828       0.271730         3.1069         2.1673         2.1620         2.4095         2.4746      -999.2500      -999.2500       436.4262
    1185.82440         8.5000         8.6260      0.0168791      -999.2500      -999.2500       107.9365       108.4289       0.275102       0.267253         3.1304         2.2163         2.2116         2.4588         2.5241      -999.2500      -999.2500       436.7728
    1185.97680         8.5000         8.6228      0.0170494      -999.2500      -999.2500       107.2651       107.8074       0.270375       0.262777         3.1538         2.2653         2.2613         2.5082         2.5735      -999.2500      -999.2500       437.1194
    1186.12920         8.5000         8.6028      0.0146084      -999.2500      -999.2500       107.7122       108.1273       0.272659       0.265378         3.1425         2.2273         2.2220         2.4696         2.5337      -999.2500      -999.2500       435.7041
    1186.28160         8.5000         8.5798      0.0116984      -999.2500      -999.2500       108.3600       108.6161       0.276203       0.269249         3.1249         2.1735         2.1667         2.4153         2.4780      -999.2500      -999.2500       433.9724
    1186.43400         8.5000         8.5568      0.0087885      -999.2500      -999.2500       109.0079       109.1050       0.279747       0.273121         3.1073         2.1198         2.1114         2.3610         2.4223      -999.2500      -999.2500       432.2407
    1186.58640         8.5000         8.5496      0.0075290      -999.2500      -999.2500       109.8797       109.8907       0.283260       0.276662         3.1078         2.1035         2.0946         2.3458         2.4066      -999.2500      -999.2500       431.2602
    1186.73880         8.5000         8.5544      0.0075301      -999.2500      -999.2500       110.9225       110.9030       0.286751       0.279949         3.1222         2.1157         2.1071         2.3605         2.4216      -999.2500      -999.2500       430.8534
    1186.89120         8.5000         8.5592      0.0075313      -999.2500      -999.2500       111.9653       111.9154       0.290241       0.283237         3.1365         2.1279         2.1197         2.3752         2.4365      -999.2500      -999.2500       430.4467
    1187.04360         8.5000         8.5636      0.0077277      -999.2500      -999.2500       113.0644       112.9871       0.292979       0.285818         3.1395         2.1380         2.1300         2.3879         2.4495      -999.2500      -999.2500       429.9333
    1187.19600         8.5000         8.5667      0.0084114      -999.2500      -999.2500       114.3040       114.2066       0.293839       0.286635         3.1141         2.1427         2.1350         2.3957         2.4575      -999.2500      -999.2500       429.1541
    1187.34840         8.5000         8.5697      0.0090951      -999.2500      -999.2500       115.5437       115.4262       0.294700       0.287453         3.0887         2.1475         2.1399         2.4036         2.4656      -999.2500      -999.2500       428.3748
    1187.50080         8.5000         8.5728      0.0097716      -999.2500      -999.2500       116.7729       116.6357       0.295580       0.288289         3.0635         2.1522         2.1448         2.4113         2.4735      -999.2500      -999.2500       427.5980
    1187.65320         8.5000         8.5715      0.0090865      -999.2500      -999.2500       116.0307       115.9448       0.300067       0.292628         3.0749         2.1472         2.1396         2.4041         2.4662      -999.2500      -999.2500       427.3035
    1187.80560         8.5000         8.5703      0.0084013      -999.2500      -999.2500       115.2885       115.2539       0.304553       0.296967         3.0863         2.1422         2.1345         2.3969         2.4589      -999.2500      -999.2500       427.0090
    1187.95800         8.5000         8.5690      0.0077162      -999.2500      -999.2500       114.5463       114.5630       0.309039       0.301305         3.0977         2.1371         2.1294         2.3897         2.4516      -999.2500      -999.2500       426.7144
    1188.11040         8.5000         8.5716      0.0085028      -999.2500      -999.2500       113.9290       114.0238       0.307210       0.299471         3.0810         2.1348         2.1271         2.3901         2.4521      -999.2500      -999.2500       427.1018
    1188.26280         8.5000         8.5755      0.0098493      -999.2500      -999.2500       113.3592       113.5422       0.302980       0.295288         3.0537         2.1335         2.1259         2.3933         2.4555      -999.2500      -999.2500       427.7485
    1188.41520         8.5000         8.5795      0.0111958      -999.2500      -999.2500       112.7894       113.0607       0.298749       0.291104         3.0264         2.1322         2.1247         2.3964         2.4589      -999.2500      -999.2500       428.3953
    1188.56760         8.5000         8.5841      0.0115093      -999.2500      -999.2500       113.7229       113.9134       0.293998       0.286411         3.0352         2.1396         2.1324         2.4058         2.4685      -999.2500      -999.2500       428.6650
    1188.72000         8.5000         8.5895      0.0105270      -999.2500      -999.2500       116.5421       116.4397       0.288594       0.281077         3.0894         2.1579         2.1512         2.4228         2.4859      -999.2500      -999.2500       428.4618
    1188.87240         8.5000         8.5949      0.0095447      -999.2500      -999.2500       119.3614       118.9661       0.283189       0.275744         3.1436         2.1763         2.1700         2.4399         2.5033      -999.2500      -999.2500       428.2586
    1189.02480         8.5000         8.5969      0.0090313      -999.2500      -999.2500       121.2906       120.7036       0.278018       0.270696         3.1813         2.1844         2.1783         2.4460         2.5096      -999.2500      -999.2500       427.9568
    1189.17720         8.5000         8.5814      0.0109308      -999.2500      -999.2500       118.6408       118.3823       0.274044       0.267121         3.1340         2.1395         2.1322         2.3962         2.4588      -999.2500      -999.2500       427.1477
    1189.32960         8.5000         8.5660      0.0128304      -999.2500      -999.2500       115.9910       116.0611       0.270070       0.263547         3.0867         2.0947         2.0862         2.3463         2.4080      -999.2500      -999.2500       426.3386
    1189.48200         8.5000         8.5505      0.0147299      -999.2500      -999.2500       113.3412       113.7398       0.266096       0.259972         3.0394         2.0498         2.0402         2.2965         2.3572      -999.2500      -999.2500       425.5296
    1189.63440         8.5000         8.5602      0.0164264      -999.2500      -999.2500       112.7947       113.0944       0.266777       0.260446         3.0581         2.0722         2.0632         2.3197         2.3810      -999.2500      -999.2500       425.7427
