~Version Information Block
VERS .                 2.00:  CWLS LOG ASCII STANDARD - VERSION 2.00
WRAP .                   NO:  One line per depth step
~Well Information Block
#MNEM.UNIT        Data Type   Information
#---------- ----------------  -----------
STRT .M             9.14400:  START DEPTH
STOP .M          1999.48800:  STOP DEPTH
STEP .M             0.15240:  STEP
NULL .              -999.25:  NULL VALUE
COMP .                     :  COMPANY
WELL .            Ngatoro-2:  WELL
FLD  .                     :  FIELD
LOC  .                     :  LOCATION
CTRY .                     :  COUNTRY
STAT .                     :  STATE
CNTY .                     :  COUNTY
SRVC .     New Zealand Petroleum Co Ltd:  SERVICE COMPANY
DATE .                     :  DATE
API  .                     :  API NUMBER
UWI  .         100000127958:  UNIQUE WELL ID
LATI .          -39.1949429:  LATITUDE
LONG .          174.1849215:  LONGITUDE
~Curve Information Block
#MNEM.UNIT         API CODE   Curve Description
#---------- ----------------  -----------------
DEPTH.M                    :  
BS   .IN                   :  Bit Size (Created in Geolog)
CALI .IN                   :  Caliper Log (CALI)
DENS .G/C3                 :  Compensated Formation Density Log (RHOB)
DRHO .G/C3                 :  Density Log Correction (DRHO)
DTC  .US/F                 :  Delta T (DT)
DTS  .US/F                 :  Delta T Shear Lower Dipole (DT1)
GR   .GAPI                 :  Gamma-Ray Raw (Reeves PSD) (GRCF)
GR_CORR.GAPI                 :  Gamma ray corrected
NEUT .V/V                  :  Neutron Log Porosity (NPHI)
NEUT_CORR.V/V                  :  Corrected NPHI (limestone units)
PEF  .B/E                  :  Photoelectric Factor (PEDF)
RESD .OHMM                 :  Laterolog Deep Resistivity (LLD)
RESD_CORR.OHMM                 :  Borehole corrected LLD
RESS .OHMM                 :  Shallow Laterolog (LLS)
RESS_CORR.OHMM                 :  Borehole corrected LLS
SP   .MV                   :  Spontaneous Potential Log (SP)
TEMP .DEGC                 :  Temperature (TEMP)
TENS .KGF                  :  Cable tension at surface (TENS)
~Parameter Information Block
#MNEM.UNIT            Value   Description
#---------- ----------------  -----------
CUR_INT_BOT.M                2000:  Current interpolated bottom
PROJECT.     New Zealand Log QC Project:  
SET  .     A0_FINAL_INTER_REF_D:  
ELEVATION_AMSL.M              294.94:  Elevation above mean sea level
ELEVATION_REF.                   KB:  Measurement reference
FORMATION_AT_TD.             Manganui:  Formation at TD
GL_ELEVATION_AMSL.M            286.3000:  Ground level elevation above mean sea level
LICENCE_NUMBER.             PPL38706:  Licence number
ONSHORE_OR_OFFSHORE.              Onshore:  Onshore/offshore
PR_NUMBER.               PR1920:  Petroleum report number
SPUD_DATE.           12/10/1991:  Spud date
STATUS_AT_COMPLETION.     Completed as an oil producer:  Status at completion
TD_DATE.           26/10/1991:  Total depth date
TOTAL_DEPTH_DRILLED.M                2000:  Total depth drilled
~Other Information Block
# 
~A       DEPTH             BS           CALI           DENS           DRHO            DTC            DTS             GR        GR_CORR           NEUT      NEUT_CORR            PEF           RESD      RESD_CORR           RESS      RESS_CORR             SP           TEMP           TENS 
# ...
    1569.26280         8.5000         8.7179         2.5289      0.0174124      -999.2500      -999.2500       109.6162       110.1012       0.234969       0.225971         3.4901      -999.2500      -999.2500      -999.2500      -999.2500      -999.2500        57.1688       808.7700
    1569.41520         8.5000         8.7542         2.5364      0.0200834      -999.2500      -999.2500       108.4956       109.1801       0.230934       0.221496         3.5117      -999.2500      -999.2500      -999.2500      -999.2500      -999.2500        57.2813       810.1702
    1569.56760         8.5000         8.7539         2.5303      0.0215051      -999.2500      -999.2500       108.0301       108.7116       0.232144       0.222675         3.4728      -999.2500      -999.2500      -999.2500      -999.2500      -999.2500        57.3199       810.2665
    1569.72000         8.5000         8.7076         2.5069      0.0213597      -999.2500      -999.2500       108.3866       108.8107       0.239932       0.230946         3.3579      -999.2500      -999.2500      -999.2500      -999.2500      -999.2500        57.2656       808.7269
    1569.87240         8.5000         8.6613         2.4836      0.0212144      -999.2500      -999.2500       108.7430       108.9097       0.247721       0.239218         3.2431      -999.2500      -999.2500      -999.2500      -999.2500      -999.2500        57.2113       807.1874
    1570.02480         8.5000         8.6234         2.4638      0.0209424      -999.2500      -999.2500       109.1895       109.1454       0.253150       0.245076         3.1424      -999.2500      -999.2500      -999.2500      -999.2500      -999.2500        57.1660       805.6637
    1570.17720         8.5000         8.6283         2.4622      0.0200192      -999.2500      -999.2500       110.0995       110.0837       0.246445       0.238519         3.1152      -999.2500      -999.2500      -999.2500      -999.2500      -999.2500        57.1674       804.2217
    1570.32960         8.5000         8.6333         2.4605      0.0190960      -999.2500      -999.2500       111.0095       111.0220       0.239739       0.231963         3.0880      -999.2500      -999.2500      -999.2500      -999.2500      -999.2500        57.1687       802.7798
    1570.48200         8.5000         8.6382         2.4589      0.0181728      -999.2500      -999.2500       111.9195       111.9603       0.233033       0.225406         3.0607      -999.2500      -999.2500      -999.2500      -999.2500      -999.2500        57.1701       801.3379
    1570.63440         8.5000         8.6628         2.4597      0.0169033      -999.2500      -999.2500       111.5691       111.7492       0.240312       0.231984         3.0777      -999.2500      -999.2500      -999.2500      -999.2500      -999.2500        57.1720       803.2794
    1570.78680         8.5000         8.6900         2.4607      0.0155874      -999.2500      -999.2500       111.0499       111.3843       0.249464       0.240321         3.1007      -999.2500      -999.2500      -999.2500      -999.2500      -999.2500        57.1740       805.6739
    1570.93920         8.5000         8.7172         2.4617      0.0142715      -999.2500      -999.2500       110.5307       111.0194       0.258616       0.248657         3.1236      -999.2500      -999.2500      -999.2500      -999.2500      -999.2500        57.1760       808.0684
    1571.09160         8.5000         8.7087         2.4602      0.0138145      -999.2500      -999.2500       107.9932       108.4341       0.255018       0.245334         3.1179      -999.2500      -999.2500      -999.2500      -999.2500      -999.2500        57.1772       805.7701
    1571.24400         8.5000         8.6766         2.4569      0.0139276      -999.2500      -999.2500       104.1161       104.3752       0.242958       0.234272         3.0931      -999.2500      -999.2500      -999.2500      -999.2500      -999.2500        57.1778       800.3570
    1571.39640         8.5000         8.6445         2.4536      0.0140407      -999.2500      -999.2500       100.2389       100.3162       0.230897       0.223209         3.0683      -999.2500      -999.2500      -999.2500      -999.2500      -999.2500        57.1784       794.9438
    1571.54880         8.5000         8.6173         2.4448      0.0145477      -999.2500      -999.2500        98.4668        98.3906       0.223391       0.216447         3.0450      -999.2500      -999.2500      -999.2500      -999.2500      -999.2500        57.1698       792.7831
    1571.70120         8.5000         8.6005         2.4241      0.0158909      -999.2500      -999.2500       101.1633       100.9943       0.225552       0.218815         3.0250      -999.2500      -999.2500      -999.2500      -999.2500      -999.2500        57.1415       797.5272
    1571.85360         8.5000         8.5837         2.4035      0.0172342      -999.2500      -999.2500       103.8599       103.5979       0.227713       0.221182         3.0050      -999.2500      -999.2500      -999.2500      -999.2500      -999.2500        57.1133       802.2714
    1572.00600         8.5000         8.5682         2.3838      0.0184718      -999.2500      -999.2500       106.4457       106.0980       0.230188       0.223831         2.9884      -999.2500      -999.2500      -999.2500      -999.2500      -999.2500        57.0895       806.6981
    1572.15840         8.5000         8.5848         2.3867      0.0171320      -999.2500      -999.2500       106.3289       106.0727       0.240316       0.233335         3.0537      -999.2500      -999.2500      -999.2500      -999.2500      -999.2500        57.1773       803.3807
    1572.31080         8.5000         8.6014         2.3896      0.0157921      -999.2500      -999.2500       106.2120       106.0474       0.250443       0.242840         3.1190      -999.2500      -999.2500      -999.2500      -999.2500      -999.2500        57.2652       800.0633
    1572.46320         8.5000         8.6181         2.3926      0.0144523      -999.2500      -999.2500       106.0951       106.0220       0.260570       0.252344         3.1842      -999.2500      -999.2500      -999.2500      -999.2500      -999.2500        57.3530       796.7458
    1572.61560         8.5000         8.6230         2.4014      0.0150561      -999.2500      -999.2500       105.2800       105.2348       0.263341       0.254938         3.1721      -999.2500      -999.2500      -999.2500      -999.2500      -999.2500        57.3436       796.0818
    1572.76800         8.5000         8.6241         2.4121      0.0162786      -999.2500      -999.2500       104.2426       104.2049       0.263770       0.255331         3.1352      -999.2500      -999.2500      -999.2500      -999.2500      -999.2500        57.3033       796.2623
    1572.92040         8.5000         8.6253         2.4227      0.0175012      -999.2500      -999.2500       103.2052       103.1751       0.264198       0.255724         3.0983      -999.2500      -999.2500      -999.2500      -999.2500      -999.2500        57.2630       796.4428
    1573.07280         8.5000         8.6202         2.4230      0.0196728      -999.2500      -999.2500       102.1395       102.0837       0.261789       0.253487         3.0530      -999.2500      -999.2500      -999.2500      -999.2500      -999.2500        57.2440       797.4257
    1573.22520         8.5000         8.6082         2.4118      0.0228822      -999.2500      -999.2500       101.0427       100.9250       0.256277       0.248376         2.9983      -999.2500      -999.2500      -999.2500      -999.2500      -999.2500        57.2483       799.2859
    1573.37760         8.5000         8.5962         2.4006      0.0260916      -999.2500      -999.2500        99.9460        99.7663       0.250765       0.243264         2.9437      -999.2500      -999.2500      -999.2500      -999.2500      -999.2500        57.2526       801.1462
    1573.53000         8.5000         8.5866         2.3881      0.0286354      -999.2500      -999.2500        99.1026        98.8732       0.249485       0.242204         2.8891      -999.2500      -999.2500      -999.2500      -999.2500      -999.2500        57.2568       802.3101
