~Version Information Block
VERS .                 2.00:  CWLS LOG ASCII STANDARD - VERSION 2.00
WRAP .                   NO:  One line per depth step
~Well Information Block
#MNEM.UNIT        Data Type   Information
#---------- ----------------  -----------
STRT .M           530.50440:  START DEPTH
STOP .M          1878.48240:  STOP DEPTH
STEP .M             0.15240:  STEP
NULL .              -999.25:  NULL VALUE
COMP .                     :  COMPANY
WELL .            Ngatoro-7:  WELL
FLD  .                     :  FIELD
LOC  .                     :  LOCATION
CTRY .                     :  COUNTRY
STAT .                     :  STATE
CNTY .                     :  COUNTY
SRVC .     New Zealand Petroleum Co Ltd:  SERVICE COMPANY
DATE .                     :  DATE
API  .                     :  API NUMBER
UWI  .         100000210191:  UNIQUE WELL ID
LATI .          -39.2039075:  LATITUDE
LONG .          174.1707218:  LONGITUDE
~Curve Information Block
#MNEM.UNIT         API CODE   Curve Description
#---------- ----------------  -----------------
DEPTH.M                    :  
BS   .IN                   :  Bit Size (Created in Geolog)
CALI .IN                   :  Caliper (HCAL)
DENS .G/C3                 :  Bulk Density (RHOZ) and HR Bulk Density (RHO8)
DTC  .US/F                 :  Delta Time (DTC)
GR   .GAPI                 :  Gamma Ray (GR) and HR Gamma Ray (HGR)
NEUT .V/V                  :  Neutron Porosity (NPHI) and HR Neutron Porosity (HTNP)
NEUT_CORR.V/V                  :  Corrected NPHI (limestone units)
PEF  .B/E                  :  HRDD Std Resolution Formation Photoelectric Factor (PEFZ) and (PEF8)
RESD .OHMM                 :  HALS Deep Res. (HLLD) and HR HALS Deep Res. (HRLD)
RESS .OHMM                 :  HALS Shallow Res. (HLLS) and HR HALS Shallow Res. (HRLS)
SP   .MV                   :  Spontaneous Potential (SP)
~Parameter Information Block
#MNEM.UNIT            Value   Description
#---------- ----------------  -----------
CUR_INT_BOT.M                1879:  Current interpolated bottom
PROJECT.     New Zealand Log QC Project:  
SET  .     A0_FINAL_INTER_REF_D:  
ELEVATION_AMSL.M                 327:  Elevation above mean sea level
ELEVATION_REF.                   KB:  Measurement reference
FORMATION_AT_TD.      Mount Messenger:  Formation at TD
GL_ELEVATION_AMSL.M            321.4000:  Ground level elevation above mean sea level
LICENCE_NUMBER.             PPL38706:  Licence number
ONSHORE_OR_OFFSHORE.              Onshore:  Onshore/offshore
PR_NUMBER.               PR2215:  Petroleum report number
SPUD_DATE.           09/04/1996:  Spud date
STATUS_AT_COMPLETION.     Suspended with 7" casing cemented in place:  Status at completion
TD_DATE.           18/04/1996:  Total depth date
TOTAL_DEPTH_DRILLED.M                1879:  Total depth drilled
~Other Information Block
# 
~A       DEPTH             BS           CALI           DENS            DTC             GR           NEUT      NEUT_CORR            PEF           RESD           RESS             SP 
# ...
    1079.14440         8.5000         8.6874         2.3374      -999.2500        88.8211       0.294706       0.292940         3.1110         3.5900         3.4784       138.7788
    1079.29680         8.5000         8.6646         2.3357      -999.2500        90.3750       0.291166       0.289158         3.0993         3.5829         3.4541       138.3696
    1079.44920         8.5000         8.6417         2.3340      -999.2500        91.9288       0.287626       0.285375         3.0877         3.5758         3.4297       137.9604
    1079.60160         8.5000         8.6317         2.3326      -999.2500        91.8082       0.293928       0.291698         3.0897         3.5455         3.4007       138.0524
    1079.75400         8.5000         8.6280         2.3313      -999.2500        90.8504       0.305152       0.303075         3.0986         3.5037         3.3695       138.3951
    1079.90640         8.5000         8.6243         2.3300      -999.2500        89.8927       0.316375       0.314451         3.1076         3.4619         3.3382       138.7377
    1080.05880         8.5000         8.6210         2.3304      -999.2500        89.0211       0.321757       0.319836         3.1147         3.4266         3.3160       139.1197
    1080.21120         8.5000         8.6183         2.3334      -999.2500        88.2868       0.317838       0.315686         3.1189         3.4015         3.3083       139.5644
    1080.36360         8.5000         8.6155         2.3364      -999.2500        87.5525       0.313920       0.311535         3.1232         3.3764         3.3005       140.0091
    1080.51600         8.5000         8.6132         2.3393      -999.2500        87.1425       0.310380       0.307798         3.1290         3.3578         3.2981       140.4380
    1080.66840         8.5000         8.6149         2.3408      -999.2500        89.4965       0.310074       0.307585         3.1479         3.3940         3.3409       140.7327
    1080.82080         8.5000         8.6165         2.3423      -999.2500        91.8506       0.309768       0.307373         3.1669         3.4302         3.3837       141.0273
    1080.97320         8.5000         8.6181         2.3439      -999.2500        94.2047       0.309462       0.307160         3.1859         3.4664         3.4265       141.3220
    1081.12560         8.5000         8.6201         2.3460      -999.2500        95.3763       0.302210       0.299734         3.1868         3.4922         3.4556       141.4368
    1081.27800         8.5000         8.6221         2.3482      -999.2500        96.2957       0.293476       0.290769         3.1837         3.5158         3.4817       141.5132
    1081.43040         8.5000         8.6241         2.3504      -999.2500        97.2150       0.284742       0.281804         3.1807         3.5395         3.5078       141.5896
    1081.58280         8.5000         8.6226         2.3567      -999.2500        95.8358       0.281664       0.278741         3.1559         3.6403         3.6021       141.4773
    1081.73520         8.5000         8.6180         2.3665      -999.2500        92.5245       0.283340       0.280640         3.1127         3.8062         3.7536       141.2063
    1081.88760         8.5000         8.6135         2.3763      -999.2500        89.2131       0.285016       0.282538         3.0695         3.9720         3.9051       140.9353
    1082.04000         8.5000         8.6094         2.3809      -999.2500        86.2958       0.287985       0.285694         3.0425         4.0552         3.9804       140.6187
    1082.19240         8.5000         8.6069         2.3710      -999.2500        84.4857       0.294588       0.292382         3.0610         3.9063         3.8414       140.1741
    1082.34480         8.5000         8.6044         2.3610      -999.2500        82.6755       0.301190       0.299071         3.0795         3.7575         3.7023       139.7296
    1082.49720         8.5000         8.6019         2.3511      -999.2500        80.8654       0.307793       0.305759         3.0979         3.6086         3.5633       139.2851
    1082.64960         8.5000         8.5935         2.3508      -999.2500        81.8222       0.300980       0.298864         3.1039         3.5921         3.5450       138.9002
    1082.80200         8.5000         8.5851         2.3507      -999.2500        82.8308       0.293916       0.291715         3.1096         3.5781         3.5289       138.5164
    1082.95440         8.5000         8.5766         2.3506      -999.2500        83.8394       0.286853       0.284567         3.1153         3.5640         3.5128       138.1326
    1083.10680         8.5000         8.5770         2.3501      -999.2500        85.5821       0.288409       0.286268         3.1127         3.5585         3.5007       138.0768
    1083.25920         8.5000         8.5812         2.3495      -999.2500        87.6382       0.293647       0.291749         3.1066         3.5566         3.4902       138.1610
    1083.41160         8.5000         8.5854         2.3488      -999.2500        89.6943       0.298884       0.297230         3.1005         3.5546         3.4797       138.2452
    1083.56400         8.5000         8.5920         2.3487      -999.2500        90.6609       0.302604       0.301035         3.1039         3.5442         3.4608       138.4277
    1083.71640         8.5000         8.6020         2.3492      -999.2500        90.1229       0.304226       0.302525         3.1206         3.5221         3.4302       138.7458
    1083.86880         8.5000         8.6120         2.3496      -999.2500        89.5849       0.305849       0.304015         3.1373         3.5000         3.3996       139.0640
    1084.02120         8.5000         8.6229         2.3494      -999.2500        89.3267       0.306205       0.304215         3.1519         3.4782         3.3704       139.3892
    1084.17360         8.5000         8.6389         2.3446      -999.2500        90.8007       0.298717       0.296434         3.1534         3.4587         3.3498       139.7580
    1084.32600         8.5000         8.6550         2.3398      -999.2500        92.2747       0.291229       0.288653         3.1549         3.4391         3.3292       140.1268
    1084.47840         8.5000         8.6710         2.3350      -999.2500        93.7487       0.283741       0.280872         3.1563         3.4195         3.3086       140.4956
    1084.63080         8.5000         8.6800         2.3344      -999.2500        93.5295       0.287805       0.285065         3.1514         3.4066         3.2962       140.5660
    1084.78320         8.5000         8.6879         2.3346      -999.2500        93.0306       0.293777       0.291236         3.1454         3.3949         3.2851       140.5870
    1084.93560         8.5000         8.6957         2.3348      -999.2500        92.5317       0.299749       0.297407         3.1395         3.3832         3.2740       140.6081
    1085.08800         8.5000         8.6998         2.3306      -999.2500        91.7297       0.303738       0.301423         3.1320         3.3276         3.2199       140.3273
    1085.24040         8.5000         8.7010         2.3232      -999.2500        90.7059       0.306275       0.303862         3.1235         3.2400         3.1342       139.8257
    1085.39280         8.5000         8.7022         2.3159      -999.2500        89.6822       0.308812       0.306301         3.1151         3.1523         3.0486       139.3240
    1085.54520         8.5000         8.7008         2.3115      -999.2500        89.3338       0.310538       0.307954         3.1120         3.1001         2.9948       138.9209
    1085.69760         8.5000         8.6935         2.3142      -999.2500        90.5872       0.310340       0.307745         3.1216         3.1320         3.0165       138.7516
    1085.85000         8.5000         8.6862         2.3170      -999.2500        91.8406       0.310142       0.307535         3.1313         3.1640         3.0383       138.5822
