~Version Information Block
VERS .                 2.00:  CWLS LOG ASCII STANDARD - VERSION 2.00
WRAP .                   NO:  One line per depth step
~Well Information Block
#MNEM.UNIT        Data Type   Information
#---------- ----------------  -----------
STRT .M           376.58040:  START DEPTH
STOP .M          2000.85960:  STOP DEPTH
STEP .M             0.15240:  STEP
NULL .              -999.25:  NULL VALUE
COMP .                     :  COMPANY
WELL .            Ngatoro-9:  WELL
FLD  .                     :  FIELD
LOC  .                     :  LOCATION
CTRY .                     :  COUNTRY
STAT .                     :  STATE
CNTY .                     :  COUNTY
SRVC .     New Zealand Petroleum Co Ltd:  SERVICE COMPANY
DATE .                     :  DATE
API  .                     :  API NUMBER
UWI  .         100000290639:  UNIQUE WELL ID
LATI .          -39.1948838:  LATITUDE
LONG .          174.1848348:  LONGITUDE
~Curve Information Block
#MNEM.UNIT         API CODE   Curve Description
#---------- ----------------  -----------------
DEPTH.M                    :  
BS   .IN                   :  Bit Size (Created in Geolog)
CALI .IN                   :  Caliper Log (CALI)
DENS .G/C3                 :  Compensated Formation Density Log (RHOB)
DRHO .G/C3                 :  Density Log Correction (DRHO)
DTC  .US/F                 :  3-5 Ft Compensated Sonic (BPB) (DTC1)
GR   .GAPI                 :  Gamma-Ray Log (GR)
GR_CORR.GAPI                 :  Gamma ray corrected
NEUT .V/V                  :  Neutron Log Porosity (NPHI)
NEUT_CORR.V/V                  :  Corrected NPHI (limestone units)
PEF  .B/E                  :  Photoelectric Factor (PEDF)
RESD .OHMM                 :  Laterolog Deep Resistivity (LLD)
RESD_CORR.OHMM                 :  Borehole corrected LLD
RESS .OHMM                 :  Shallow Laterolog (LLS)
RESS_CORR.OHMM                 :  Borehole corrected LLS
SP   .MV                   :  Spontaneous Potential Log (SP)
TEMP .DEGC                 :  Temperature (TEMP)
TENS .KGF                  :  Cable tension at surface (TENS)
~Parameter Information Block
#MNEM.UNIT            Value   Description
#---------- ----------------  -----------
CUR_INT_BOT.M              2001.5:  Current interpolated bottom
PROJECT.     New Zealand Log QC Project:  
SET  .     A0_FINAL_INTER_REF_D:  
ELEVATION_AMSL.M              291.65:  Elevation above mean sea level
ELEVATION_REF.                   KB:  Measurement reference
FORMATION_AT_TD.      Mount Messenger:  Formation at TD
GL_ELEVATION_AMSL.M            286.3000:  Ground level elevation above mean sea level
LICENCE_NUMBER.             PMP38148:  Licence number
ONSHORE_OR_OFFSHORE.              Onshore:  Onshore/offshore
PR_NUMBER.               PR2437:  Petroleum report number
SPUD_DATE.           06/06/1998:  Spud date
STATUS_AT_COMPLETION.     Cased and suspended as a potential oil producer:  Status at completion
TD_DATE.           20/06/1998:  Total depth date
TOTAL_DEPTH_DRILLED.M              2001.5:  Total depth drilled
~Other Information Block
# 
~A       DEPTH             BS           CALI           DENS           DRHO            DTC             GR        GR_CORR           NEUT      NEUT_CORR            PEF           RESD      RESD_CORR           RESS      RESS_CORR             SP           TEMP           TENS 
# ...
    1684.17240         8.5000         8.9821         2.3919      0.0310391        90.9277        99.0430       101.5277       0.260264       0.247709         2.8112         2.5384         2.5478         3.0191         3.1177        21.5731        52.7832       397.0743
    1684.32480         8.5000         8.9652         2.3856      0.0261932        91.8012        96.9853        99.3333       0.252405       0.240529         2.8455         2.6047         2.6149         3.0817         3.1803        21.5325        52.7832       393.5952
    1684.47720         8.5000         8.9483         2.3793      0.0213474        92.6748        94.9275        97.1388       0.244547       0.233350         2.8798         2.6709         2.6819         3.1443         3.2428        21.4918        52.7832       390.1161
    1684.62960         8.5000         8.9927         2.3779      0.0253881        93.3879        95.0154        97.4485       0.245355       0.233362         2.8944         2.5807         2.5913         3.0306         3.1298        21.7190        52.7832       389.5587
    1684.78200         8.5000         9.0479         2.3774      0.0309923        94.0728        95.4807        98.1987       0.247689       0.234639         2.9054         2.4630         2.4728         2.8859         2.9859        21.9934        52.7832       389.5154
    1684.93440         8.5000         9.1030         2.3769      0.0365964        94.7577        95.9460        98.9489       0.250022       0.235916         2.9165         2.3452         2.3544         2.7411         2.8420        22.2678        52.7832       389.4720
    1685.08680         8.5000         9.1181         2.3765      0.0393461        96.0321        96.0188        99.0977       0.246654       0.232479         2.9148         2.3032         2.3119         2.6765         2.7772        22.3889        52.7832       390.2797
    1685.23920         8.5000         9.1029         2.3760      0.0399387        97.7520        95.7947        98.7920       0.238978       0.225479         2.9034         2.3183         2.3269         2.6725         2.7722        22.3943        52.7832       391.7305
    1685.39160         8.5000         9.0877         2.3756      0.0405312        99.4719        95.5707        98.4862       0.231302       0.218480         2.8921         2.3334         2.3419         2.6685         2.7672        22.3996        52.7832       393.1814
    1685.54400         8.5000         9.0673         2.3731      0.0390598       100.2854        95.6306        98.4464       0.227596       0.215322         2.8744         2.3491         2.3574         2.6653         2.7627        22.3416        52.7832       393.8987
    1685.69640         8.5000         9.0342         2.3659      0.0325037        98.8660        96.3899        99.0617       0.233668       0.221625         2.8412         2.3663         2.3738         2.6640         2.7595        22.1273        52.7832       392.8087
    1685.84880         8.5000         9.0012         2.3586      0.0259475        97.4466        97.1492        99.6770       0.239740       0.227928         2.8081         2.3834         2.3902         2.6626         2.7562        21.9131        52.7832       391.7187
    1686.00120         8.5000         8.9681         2.3514      0.0194664        96.0355        97.9068       100.2908       0.245774       0.234195         2.7750         2.3998         2.4058         2.6607         2.7524        21.7021        52.7832       390.6429
    1686.15360         8.5000         8.9431         2.3633      0.0224334        95.6718        98.4531       100.7211       0.247058       0.235853         2.7508         2.3247         2.3284         2.5845         2.6735        21.9116        52.7832       391.3591
    1686.30600         8.5000         8.9181         2.3752      0.0254003        95.3080        98.9995       101.1513       0.248341       0.237512         2.7266         2.2497         2.2510         2.5082         2.5947        22.1210        52.7832       392.0754
    1686.45840         8.5000         8.8931         2.3872      0.0283673        94.9442        99.5458       101.5815       0.249625       0.239170         2.7024         2.1746         2.1736         2.4319         2.5158        22.3305        52.7832       392.7916
    1686.61080         8.5000         8.8944         2.3963      0.0251311        91.6189        98.7334       100.7572       0.238174       0.228218         2.7585         2.2762         2.2773         2.5329         2.6185        22.7223        52.7860       396.1857
    1686.76320         8.5000         8.9056         2.4043      0.0195659        87.1817        97.4107        99.4619       0.221943       0.212532         2.8446         2.4441         2.4490         2.7005         2.7893        23.1825        52.7899       400.5853
    1686.91560         8.5000         8.9168         2.4123      0.0140006        82.7446        96.0881        98.1666       0.205711       0.196846         2.9308         2.6120         2.6207         2.8681         2.9601        23.6428        52.7937       404.9848
    1687.06800         8.5000         8.9028         2.4059      0.0135918        82.6904        96.0362        98.0404       0.199267       0.190907         2.9391         2.6457         2.6546         2.8990         2.9908        23.8538        52.7942       405.5876
    1687.22040         8.5000         8.8575         2.3816      0.0195831        88.0763        97.5615        99.3652       0.204972       0.197067         2.8510         2.5127         2.5175         2.7601         2.8474        23.7554        52.7903       401.4780
    1687.37280         8.5000         8.8123         2.3573      0.0255743        93.4622        99.0867       100.6900       0.210677       0.203227         2.7628         2.3798         2.3803         2.6213         2.7040        23.6570        52.7865       397.3683
    1687.52520         8.5000         8.7787         2.3377      0.0301837        97.7711       100.0669       101.5189       0.217227       0.210015         2.6894         2.2596         2.2566         2.4966         2.5756        23.5362        52.7833       393.9178
    1687.67760         8.5000         8.8037         2.3419      0.0278185        96.6436        98.2955        99.8448       0.228040       0.219973         2.6904         2.2041         2.2007         2.4435         2.5230        23.3020        52.7837       393.7939
    1687.83000         8.5000         8.8288         2.3461      0.0254533        95.5161        96.5242        98.1708       0.238852       0.229931         2.6915         2.1485         2.1448         2.3904         2.4703        23.0677        52.7840       393.6701
    1687.98240         8.5000         8.8538         2.3504      0.0230881        94.3886        94.7529        96.4967       0.249665       0.239889         2.6925         2.0930         2.0890         2.3373         2.4177        22.8335        52.7844       393.5463
    1688.13480         8.5000         8.8797         2.3542      0.0242748        93.0428        94.1703        96.0298       0.249252       0.239051         2.6856         2.0703         2.0666         2.3194         2.4007        22.8194        52.8053       393.7573
    1688.28720         8.5000         8.9057         2.3580      0.0259251        91.6685        93.7430        95.7206       0.247373       0.236805         2.6777         2.0519         2.0486         2.3061         2.3884        22.8340        52.8290       394.0120
    1688.43960         8.5000         8.9318         2.3617      0.0275755        90.2942        93.3156        95.4113       0.245494       0.234558         2.6697         2.0335         2.0305         2.2928         2.3760        22.8486        52.8526       394.2668
    1688.59200         8.5000         8.9619         2.3670      0.0267871        88.6755        94.2589        96.5300       0.239891       0.228735         2.6937         2.0495         2.0478         2.3201         2.4053        22.7855        52.8474       394.9615
