~Version Information Block
VERS .                 2.00:  CWLS LOG ASCII STANDARD - VERSION 2.00
WRAP .                   NO:  One line per depth step
~Well Information Block
#MNEM.UNIT        Data Type   Information
#---------- ----------------  -----------
STRT .M           376.58040:  START DEPTH
STOP .M          2000.85960:  STOP DEPTH
STEP .M             0.15240:  STEP
NULL .              -999.25:  NULL VALUE
COMP .                     :  COMPANY
WELL .            Ngatoro-9:  WELL
FLD  .                     :  FIELD
LOC  .                     :  LOCATION
CTRY .                     :  COUNTRY
STAT .                     :  STATE
CNTY .                     :  COUNTY
SRVC .     New Zealand Petroleum Co Ltd:  SERVICE COMPANY
DATE .                     :  DATE
API  .                     :  API NUMBER
UWI  .         100000290639:  UNIQUE WELL ID
LATI .          -39.1948838:  LATITUDE
LONG .          174.1848348:  LONGITUDE
~Curve Information Block
#MNEM.UNIT         API CODE   Curve Description
#---------- ----------------  -----------------
DEPTH.M                    :  
BS   .IN                   :  Bit Size (Created in Geolog)
CALI .IN                   :  Caliper Log (CALI)
DENS .G/C3                 :  Compensated Formation Density Log (RHOB)
DRHO .G/C3                 :  Density Log Correction (DRHO)
DTC  .US/F                 :  3-5 Ft Compensated Sonic (BPB) (DTC1)
GR   .GAPI                 :  Gamma-Ray Log (GR)
GR_CORR.GAPI                 :  Gamma ray corrected
NEUT .V/V                  :  Neutron Log Porosity (NPHI)
NEUT_CORR.V/V                  :  Corrected NPHI (limestone units)
PEF  .B/E                  :  Photoelectric Factor (PEDF)
RESD .OHMM                 :  Laterolog Deep Resistivity (LLD)
RESD_CORR.OHMM                 :  Borehole corrected LLD
RESS .OHMM                 :  Shallow Laterolog (LLS)
RESS_CORR.OHMM                 :  Borehole corrected LLS
SP   .MV                   :  Spontaneous Potential Log (SP)
TEMP .DEGC                 :  Temperature (TEMP)
TENS .KGF                  :  Cable tension at surface (TENS)
~Parameter Information Block
#MNEM.UNIT            Value   Description
#---------- ----------------  -----------
CUR_INT_BOT.M              2001.5:  Current interpolated bottom
PROJECT.     New Zealand Log QC Project:  
SET  .     A0_FINAL_INTER_REF_D:  
ELEVATION_AMSL.M              291.65:  Elevation above mean sea level
ELEVATION_REF.                   KB:  Measurement reference
FORMATION_AT_TD.      Mount Messenger:  Formation at TD
GL_ELEVATION_AMSL.M            286.3000:  Ground level elevation above mean sea level
LICENCE_NUMBER.             PMP38148:  Licence number
ONSHORE_OR_OFFSHORE.              Onshore:  Onshore/offshore
PR_NUMBER.               PR2437:  Petroleum report number
SPUD_DATE.           06/06/1998:  Spud date
STATUS_AT_COMPLETION.     Cased and suspended as a potential oil producer:  Status at completion
TD_DATE.           20/06/1998:  Total depth date
TOTAL_DEPTH_DRILLED.M              2001.5:  Total depth drilled
~Other Information Block
# 
~A       DEPTH             BS           CALI           DENS           DRHO            DTC             GR        GR_CORR           NEUT      NEUT_CORR            PEF           RESD      RESD_CORR           RESS      RESS_CORR             SP           TEMP           TENS 
# ...
    1857.90840         8.5000         8.4935         2.3566      0.0191297        87.1406        97.7658        97.7087       0.236542       0.233905         2.6488         2.4226         2.4138         2.7703         2.8321        18.0633        55.7117       430.9692
    1858.06080         8.5000         8.4980         2.3655      0.0179979        85.2441        95.8949        95.8576       0.225842       0.223389         2.6516         2.6584         2.6527         3.0199         3.0821        17.7784        55.7129       431.3440
    1858.21320         8.5000         8.5218         2.3943      0.0173102        79.1528        94.1706        94.2502       0.206366       0.203985         2.7410         3.2248         3.2273         3.6279         3.6917        17.2857        55.7129       429.3946
    1858.36560         8.5000         8.5456         2.4230      0.0166226        73.0615        92.4464        92.6429       0.186890       0.184581         2.8304         3.7911         3.8018         4.2358         4.3013        16.7931        55.7129       427.4451
    1858.51800         8.5000         8.5675         2.4466      0.0162024        68.2803        91.3902        91.6964       0.171346       0.169044         2.9063         4.2673         4.2849         4.7459         4.8130        16.3723        55.7129       425.9375
    1858.67040         8.5000         8.5752         2.4319      0.0177793        73.2805        95.3224        95.6842       0.185164       0.182386         2.8811         4.0693         4.0851         4.5259         4.5940        16.4884        55.7129       427.7288
    1858.82280         8.5000         8.5829         2.4172      0.0193563        78.2807        99.2547        99.6721       0.198982       0.195727         2.8558         3.8714         3.8853         4.3059         4.3750        16.6045        55.7129       429.5201
    1858.97520         8.5000         8.5907         2.4025      0.0209333        83.2809       103.1870       103.6600       0.212800       0.209069         2.8306         3.6734         3.6855         4.0859         4.1560        16.7205        55.7129       431.3115
    1859.12760         8.5000         8.5769         2.3988      0.0217608        85.3459       103.4322       103.8310       0.220424       0.216736         2.8296         3.3510         3.3582         3.7469         3.8157        17.1340        55.7129       429.8914
    1859.28000         8.5000         8.5590         2.3971      0.0224426        86.8404       102.9608       103.2601       0.226844       0.223300         2.8333         3.0045         3.0062         3.3848         3.4518        17.6052        55.7129       427.8471
    1859.43240         8.5000         8.5411         2.3954      0.0231244        88.3349       102.4894       102.6893       0.233264       0.229864         2.8370         2.6579         2.6541         3.0227         3.0879        18.0764        55.7129       425.8029
    1859.58480         8.5000         8.5292         2.3991      0.0236408        88.4575       101.4122       101.5460       0.234573       0.231342         2.8479         2.4979         2.4915         2.8506         2.9147        18.1420        55.7129       427.2369
    1859.73720         8.5000         8.5221         2.4070      0.0240252        87.4863        99.8519        99.9464       0.231810       0.228767         2.8646         2.4867         2.4798         2.8301         2.8937        17.8841        55.7129       431.4438
    1859.88960         8.5000         8.5150         2.4149      0.0244097        86.5152        98.2917        98.3467       0.229046       0.226192         2.8813         2.4755         2.4682         2.8095         2.8726        17.6263        55.7129       435.6507
    1860.04200         8.5000         8.5097         2.4146      0.0241203        86.0795        97.1677        97.1940       0.226448       0.223743         2.8801         2.4612         2.4534         2.7864         2.8491        17.4260        55.7129       437.9754
    1860.19440         8.5000         8.5096         2.3926      0.0220599        87.0515        97.1907        97.2159       0.224283       0.221629         2.8321         2.4385         2.4305         2.7564         2.8191        17.3773        55.7129       435.3527
    1860.34680         8.5000         8.5094         2.3706      0.0199994        88.0235        97.2136        97.2377       0.222117       0.219514         2.7840         2.4159         2.4075         2.7264         2.7891        17.3285        55.7129       432.7300
    1860.49920         8.5000         8.5092         2.3485      0.0179389        88.9955        97.2365        97.2596       0.219952       0.217400         2.7360         2.3932         2.3845         2.6964         2.7591        17.2797        55.7129       430.1072
    1860.65160         8.5000         8.5011         2.3485      0.0171803        89.7819        97.0377        97.0188       0.227042       0.224484         2.7674         2.3357         2.3260         2.6268         2.6889        17.2960        55.7129       430.0337
    1860.80400         8.5000         8.4929         2.3485      0.0164286        90.5673        96.8377        96.7766       0.234180       0.231617         2.7993         2.2781         2.2673         2.5569         2.6185        17.3126        55.7129       429.9735
    1860.95640         8.5000         8.4847         2.3485      0.0156769        91.3526        96.6377        96.5344       0.241319       0.238750         2.8312         2.2204         2.2085         2.4871         2.5482        17.3291        55.7129       429.9134
    1861.10880         8.5000         8.4869         2.3589      0.0151794        89.9620        96.3537        96.2619       0.240166       0.237581         2.8365         2.2212         2.2094         2.4776         2.5388        17.1312        55.7129       430.1210
    1861.26120         8.5000         8.4933         2.3733      0.0147837        87.6993        96.0361        95.9772       0.235691       0.233086         2.8312         2.2455         2.2342         2.4924         2.5540        16.8472        55.7129       430.4358
    1861.41360         8.5000         8.4997         2.3878      0.0143881        85.4367        95.7184        95.6925       0.231216       0.228590         2.8259         2.2697         2.2590         2.5071         2.5691        16.5632        55.7129       430.7507
    1861.56600         8.5000         8.5032         2.3991      0.0146322        84.1837        96.9360        96.9278       0.228547       0.225915         2.8397         2.3261         2.3162         2.5542         2.6164        16.4406        55.7129       430.8596
    1861.71840         8.5000         8.5028         2.4062      0.0157139        84.2525       100.1634       100.1528       0.228241       0.225623         2.8787         2.4245         2.4159         2.6437         2.7058        16.5291        55.7129       430.6988
    1861.87080         8.5000         8.5023         2.4133      0.0167957        84.3214       103.3908       103.3777       0.227936       0.225331         2.9177         2.5228         2.5156         2.7331         2.7953        16.6176        55.7129       430.5381
    1862.02320         8.5000         8.5023         2.4171      0.0177757        84.5555       106.0631       106.0497       0.228165       0.225555         2.9419         2.5974         2.5912         2.7999         2.8621        16.7328        55.7129       430.4975
    1862.17560         8.5000         8.5044         2.4023      0.0181897        85.7101       105.6436       105.6420       0.231371       0.228655         2.8839         2.5389         2.5320         2.7408         2.8031        16.9969        55.7129       431.1262
    1862.32800         8.5000         8.5065         2.3875      0.0186037        86.8648       105.2242       105.2342       0.234576       0.231755         2.8260         2.4804         2.4728         2.6817         2.7440        17.2610        55.7129       431.7548
