~Version Information Block
VERS .                 2.00:  CWLS LOG ASCII STANDARD - VERSION 2.00
WRAP .                   NO:  One line per depth step
~Well Information Block
#MNEM.UNIT        Data Type   Information
#---------- ----------------  -----------
STRT .M           530.50440:  START DEPTH
STOP .M          1878.48240:  STOP DEPTH
STEP .M             0.15240:  STEP
NULL .              -999.25:  NULL VALUE
COMP .                     :  COMPANY
WELL .            Ngatoro-7:  WELL
FLD  .                     :  FIELD
LOC  .                     :  LOCATION
CTRY .                     :  COUNTRY
STAT .                     :  STATE
CNTY .                     :  COUNTY
SRVC .     New Zealand Petroleum Co Ltd:  SERVICE COMPANY
DATE .                     :  DATE
API  .                     :  API NUMBER
UWI  .         100000210191:  UNIQUE WELL ID
LATI .          -39.2039075:  LATITUDE
LONG .          174.1707218:  LONGITUDE
~Curve Information Block
#MNEM.UNIT         API CODE   Curve Description
#---------- ----------------  -----------------
DEPTH.M                    :  
BS   .IN                   :  Bit Size (Created in Geolog)
CALI .IN                   :  Caliper (HCAL)
DENS .G/C3                 :  Bulk Density (RHOZ) and HR Bulk Density (RHO8)
DTC  .US/F                 :  Delta Time (DTC)
GR   .GAPI                 :  Gamma Ray (GR) and HR Gamma Ray (HGR)
NEUT .V/V                  :  Neutron Porosity (NPHI) and HR Neutron Porosity (HTNP)
NEUT_CORR.V/V                  :  Corrected NPHI (limestone units)
PEF  .B/E                  :  HRDD Std Resolution Formation Photoelectric Factor (PEFZ) and (PEF8)
RESD .OHMM                 :  HALS Deep Res. (HLLD) and HR HALS Deep Res. (HRLD)
RESS .OHMM                 :  HALS Shallow Res. (HLLS) and HR HALS Shallow Res. (HRLS)
SP   .MV                   :  Spontaneous Potential (SP)
~Parameter Information Block
#MNEM.UNIT            Value   Description
#---------- ----------------  -----------
CUR_INT_BOT.M                1879:  Current interpolated bottom
PROJECT.     New Zealand Log QC Project:  
SET  .     A0_FINAL_INTER_REF_D:  
ELEVATION_AMSL.M                 327:  Elevation above mean sea level
ELEVATION_REF.                   KB:  Measurement reference
FORMATION_AT_TD.      Mount Messenger:  Formation at TD
GL_ELEVATION_AMSL.M            321.4000:  Ground level elevation above mean sea level
LICENCE_NUMBER.             PPL38706:  Licence number
ONSHORE_OR_OFFSHORE.              Onshore:  Onshore/offshore
PR_NUMBER.               PR2215:  Petroleum report number
SPUD_DATE.           09/04/1996:  Spud date
STATUS_AT_COMPLETION.     Suspended with 7" casing cemented in place:  Status at completion
TD_DATE.           18/04/1996:  Total depth date
TOTAL_DEPTH_DRILLED.M                1879:  Total depth drilled
~Other Information Block
# 
~A       DEPTH             BS           CALI           DENS            DTC             GR           NEUT      NEUT_CORR            PEF           RESD           RESS             SP 
# ...
    1168.29840         8.5000         9.2245         2.3693      -999.2500        99.0930       0.292728       0.289359         3.3885         2.6644         2.8193       136.3126
    1168.45080         8.5000         9.2473         2.3804      -999.2500        97.5256       0.286108       0.282414         3.4185         2.7648         2.9227       136.2296
    1168.60320         8.5000         9.2619         2.3824      -999.2500        98.1817       0.292844       0.289388         3.4066         2.7657         2.9253       136.2766
    1168.75560         8.5000         9.2727         2.3802      -999.2500        99.8979       0.305948       0.302997         3.3747         2.7193         2.8799       136.3856
    1168.90800         8.5000         9.2835         2.3779      -999.2500       101.6142       0.319051       0.316606         3.3428         2.6728         2.8345       136.4946
    1169.06040         8.5000         9.2864         2.3738      -999.2500       101.7857       0.323088       0.320855         3.3182         2.6313         2.7925       136.7200
    1169.21280         8.5000         9.2771         2.3669      -999.2500        99.6045       0.313313       0.310848         3.3047         2.5974         2.7555       137.1228
    1169.36520         8.5000         9.2679         2.3600      -999.2500        97.4233       0.303539       0.300840         3.2911         2.5635         2.7184       137.5256
    1169.51760         8.5000         9.2574         2.3542      -999.2500        95.5674       0.294377       0.291425         3.2805         2.5329         2.6847       137.9300
    1169.67000         8.5000         9.2377         2.3562      -999.2500        96.2030       0.289908       0.286557         3.2919         2.5270         2.6758       138.3463
    1169.82240         8.5000         9.2179         2.3581      -999.2500        96.8386       0.285439       0.281689         3.3032         2.5212         2.6669       138.7625
    1169.97480         8.5000         9.1981         2.3601      -999.2500        97.4742       0.280971       0.276821         3.3146         2.5154         2.6580       139.1788
    1170.12720         8.5000         9.1985         2.3574      -999.2500        98.3397       0.288548       0.284438         3.3289         2.5188         2.6558       139.1453
    1170.27960         8.5000         9.2030         2.3537      -999.2500        99.2507       0.298513       0.294528         3.3438         2.5241         2.6550       139.0228
    1170.43200         8.5000         9.2074         2.3500      -999.2500       100.1617       0.308477       0.304618         3.3586         2.5294         2.6542       138.9003
    1170.58440         8.5000         9.2227         2.3471      -999.2500       100.6561       0.311687       0.308043         3.3588         2.5315         2.6522       138.5916
    1170.73680         8.5000         9.2467         2.3448      -999.2500       100.8147       0.309454       0.306098         3.3472         2.5311         2.6494       138.1329
    1170.88920         8.5000         9.2706         2.3425      -999.2500       100.9733       0.307221       0.304153         3.3356         2.5306         2.6465       137.6742
    1171.04160         8.5000         9.2866         2.3413      -999.2500       101.0475       0.305954       0.303038         3.3303         2.5268         2.6409       137.2669
    1171.19400         8.5000         9.2812         2.3433      -999.2500       100.8969       0.307259       0.304134         3.3415         2.5138         2.6280       136.9966
    1171.34640         8.5000         9.2758         2.3452      -999.2500       100.7462       0.308563       0.305230         3.3528         2.5009         2.6151       136.7262
    1171.49880         8.5000         9.2704         2.3472      -999.2500       100.5956       0.309868       0.306326         3.3641         2.4880         2.6022       136.4558
    1171.65120         8.5000         9.2726         2.3515      -999.2500       103.7027       0.311537       0.307799         3.3659         2.4830         2.6037       136.4269
    1171.80360         8.5000         9.2747         2.3559      -999.2500       106.8356       0.313209       0.309275         3.3676         2.4782         2.6052       136.3999
    1171.95600         8.5000         9.2769         2.3602      -999.2500       109.9685       0.314880       0.310751         3.3693         2.4733         2.6068       136.3729
    1172.10840         8.5000         9.2809         2.3593      -999.2500       109.8303       0.313787       0.309796         3.3514         2.4703         2.6096       136.5046
    1172.26080         8.5000         9.2856         2.3563      -999.2500       108.3643       0.311572       0.307854         3.3256         2.4679         2.6130       136.7008
    1172.41320         8.5000         9.2903         2.3532      -999.2500       106.8983       0.309357       0.305912         3.2998         2.4656         2.6163       136.8970
    1172.56560         8.5000         9.2968         2.3517      -999.2500       105.3680       0.309660       0.306373         3.2864         2.4656         2.6210       137.1700
    1172.71800         8.5000         9.3055         2.3521      -999.2500       103.7527       0.313294       0.310015         3.2894         2.4687         2.6275       137.5446
    1172.87040         8.5000         9.3142         2.3524      -999.2500       102.1374       0.316928       0.313657         3.2925         2.4719         2.6340       137.9193
    1173.02280         8.5000         9.3220         2.3534      -999.2500       100.5239       0.318923       0.315675         3.2976         2.4742         2.6396       138.2564
    1173.17520         8.5000         9.3252         2.3577      -999.2500        98.9206       0.311606       0.308460         3.3141         2.4718         2.6405       138.3801
    1173.32760         8.5000         9.3284         2.3621      -999.2500        97.3174       0.304290       0.301245         3.3307         2.4694         2.6414       138.5039
    1173.48000         8.5000         9.3316         2.3664      -999.2500        95.7141       0.296973       0.294030         3.3472         2.4671         2.6424       138.6276
    1173.63240         8.5000         9.3153         2.3853      -999.2500        94.7284       0.291524       0.288190         3.3814         2.6998         2.8802       138.7252
    1173.78480         8.5000         9.2960         2.4063      -999.2500        93.8359       0.286358       0.282558         3.4182         2.9681         3.1539       138.8188
    1173.93720         8.5000         9.2767         2.4274      -999.2500        92.9434       0.281191       0.276927         3.4549         3.2364         3.4275       138.9124
    1174.08960         8.5000         9.2819         2.4234      -999.2500        93.5081       0.279958       0.275640         3.4665         3.2086         3.3953       138.7083
    1174.24200         8.5000         9.3043         2.4017      -999.2500        95.0941       0.281481       0.277398         3.4603         2.9734         3.1487       138.2955
    1174.39440         8.5000         9.3266         2.3801      -999.2500        96.6801       0.283004       0.279157         3.4541         2.7381         2.9021       137.8826
    1174.54680         8.5000         9.3438         2.3643      -999.2500        97.9576       0.286972       0.283221         3.4444         2.5684         2.7246       137.5548
    1174.69920         8.5000         9.3493         2.3620      -999.2500        98.5390       0.296454       0.292487         3.4266         2.5464         2.7030       137.4187
    1174.85160         8.5000         9.3548         2.3596      -999.2500        99.1204       0.305936       0.301753         3.4089         2.5244         2.6814       137.2825
    1175.00400         8.5000         9.3602         2.3572      -999.2500        99.6572       0.315210       0.310826         3.3909         2.5024         2.6597       137.1452
