~Version Information Block
VERS .                 2.00:  CWLS LOG ASCII STANDARD - VERSION 2.00
WRAP .                   NO:  One line per depth step
~Well Information Block
#MNEM.UNIT        Data Type   Information
#---------- ----------------  -----------
STRT .M           527.15160:  START DEPTH
STOP .M          2099.31000:  STOP DEPTH
STEP .M             0.15240:  STEP
NULL .              -999.25:  NULL VALUE
COMP .                     :  COMPANY
WELL .            Ngatoro-8:  WELL
FLD  .                     :  FIELD
LOC  .                     :  LOCATION
CTRY .                     :  COUNTRY
STAT .                     :  STATE
CNTY .                     :  COUNTY
SRVC .     New Zealand Petroleum Co Ltd:  SERVICE COMPANY
DATE .                     :  DATE
API  .                     :  API NUMBER
UWI  .         100000210422:  UNIQUE WELL ID
LATI .          -39.2038856:  LATITUDE
LONG .          174.1703227:  LONGITUDE
~Curve Information Block
#MNEM.UNIT         API CODE   Curve Description
#---------- ----------------  -----------------
DEPTH.M                    :  
BS   .IN                   :  Bit Size (Created in Geolog)
CALI .IN                   :  Caliper (HCAL)
DENS .G/C3                 :  Bulk Density (RHOZ) and HR Bulk Density (RHO8)
DTC  .US/F                 :  Delta Time (DT)
GR   .GAPI                 :  Gamma Ray (GR) and HR Gamma Ray (HGR)
NEUT .V/V                  :  Neutron Porosity (NPHI) and HR Neutron Porosity (HTNP)
NEUT_CORR.V/V                  :  Corrected NPHI (limestone units)
PEF  .B/E                  :  Photoelectric Factor (PEF) and (PEFZ)
RESD .OHMM                 :  HALS Deep Res. (HLLD) and HR HALS Deep Res. (HRLD)
RESS .OHMM                 :  HALS Shallow Res. (HLLS) and HR HALS Shallow Res. (HRLS)
SP   .MV                   :  Spontaneous Potential (SP)
~Parameter Information Block
#MNEM.UNIT            Value   Description
#---------- ----------------  -----------
CUR_INT_BOT.M                2100:  Current interpolated bottom
PROJECT.     New Zealand Log QC Project:  
SET  .     A0_FINAL_INTER_REF_D:  
ELEVATION_AMSL.M                 328:  Elevation above mean sea level
ELEVATION_REF.                   KB:  Measurement reference
FORMATION_AT_TD.             Manganui:  Formation at TD
GL_ELEVATION_AMSL.M            322.5000:  Ground level elevation above mean sea level
LICENCE_NUMBER.             PPL38706:  Licence number
ONSHORE_OR_OFFSHORE.              Onshore:  Onshore/offshore
PR_NUMBER.               PR2216:  Petroleum report number
SPUD_DATE.           22/04/1996:  Spud date
STATUS_AT_COMPLETION.     Suspended with 7" casing cemented to TD:  Status at completion
TD_DATE.           29/04/1996:  Total depth date
TOTAL_DEPTH_DRILLED.M                2100:  Total depth drilled
~Other Information Block
# 
~A       DEPTH             BS           CALI           DENS            DTC             GR           NEUT      NEUT_CORR            PEF           RESD           RESS             SP 
# ...
    2083.91760         8.5000         8.4861         2.5729        82.5546       115.4939       0.223912       0.218401         3.9303         5.1456         5.6210        88.4617
    2084.07000         8.5000         8.4859         2.5790        82.2360       113.4579       0.222298       0.216815         3.9610         5.2185         5.6859        89.0361
    2084.22240         8.5000         8.4842         2.5871        82.1018       108.4114       0.216552       0.211018         3.9898         5.4097         5.8602        89.9377
    2084.37480         8.5000         8.4824         2.5952        81.9675       103.3649       0.210807       0.205221         4.0186         5.6009         6.0344        90.8393
    2084.52720         8.5000         8.4811         2.6007        81.9096        99.7523       0.206222       0.200581         4.0345         5.7368         6.1600        91.6242
    2084.67960         8.5000         8.4813         2.5939        82.2031       102.7400       0.206978       0.201269         3.9908         5.6176         6.0619        91.8717
    2084.83200         8.5000         8.4816         2.5872        82.4967       105.7277       0.207735       0.201958         3.9470         5.4985         5.9639        92.1192
    2084.98440         8.5000         8.4818         2.5805        82.7902       108.7155       0.208491       0.202646         3.9033         5.3794         5.8658        92.3668
    2085.13680         8.5000         8.4812         2.5825        82.9719       108.6563       0.211513       0.205691         3.9105         5.3893         5.8683        91.2432
    2085.28920         8.5000         8.4804         2.5854        83.1409       108.2496       0.214795       0.209006         3.9235         5.4139         5.8821        89.9633
    2085.44160         8.5000         8.4797         2.5884        83.3099       107.8430       0.218076       0.212320         3.9365         5.4385         5.8960        88.6834
    2085.59400         8.5000         8.4792         2.5853        83.5094       109.4869       0.220888       0.215229         3.9219         5.3761         5.8364        88.1495
    2085.74640         8.5000         8.4789         2.5785        83.7278       112.4048       0.223408       0.217887         3.8901         5.2598         5.7312        88.0791
    2085.89880         8.5000         8.4787         2.5716        83.9463       115.3227       0.225928       0.220544         3.8583         5.1434         5.6259        88.0087
    2086.05120         8.5000         8.4791         2.5666        83.9668       117.2153       0.227521       0.222221         3.8412         5.0715         5.5569        87.9827
    2086.20360         8.5000         8.4808         2.5653        83.5962       117.0813       0.227281       0.221959         3.8529         5.0875         5.5596        88.0447
    2086.35600         8.5000         8.4825         2.5640        83.2257       116.9473       0.227040       0.221697         3.8647         5.1036         5.5622        88.1068
    2086.50840         8.5000         8.4841         2.5630        82.8676       116.6633       0.226699       0.221330         3.8765         5.1240         5.5702        88.1662
    2086.66080         8.5000         8.4834         2.5658        82.7242       113.8086       0.224625       0.219156         3.8905         5.2206         5.6691        88.1818
    2086.81320         8.5000         8.4827         2.5686        82.5809       110.9539       0.222552       0.216982         3.9045         5.3171         5.7681        88.1975
    2086.96560         8.5000         8.4821         2.5714        82.4375       108.0993       0.220478       0.214808         3.9185         5.4137         5.8670        88.2131
    2087.11800         8.5000         8.4812         2.5734        82.4684       107.7484       0.220520       0.214849         3.9105         5.4305         5.8857        88.6307
    2087.27040         8.5000         8.4803         2.5752        82.5502       108.1275       0.221178       0.215536         3.8961         5.4241         5.8810        89.1655
    2087.42280         8.5000         8.4794         2.5770        82.6320       108.5065       0.221836       0.216222         3.8817         5.4177         5.8763        89.7002
    2087.57520         8.5000         8.4800         2.5774        82.6180       108.7066       0.223199       0.217656         3.8909         5.4030         5.8690      -999.2500
    2087.72760         8.5000         8.4821         2.5766        82.5057       108.7230       0.225284       0.219858         3.9244         5.3798         5.8592      -999.2500
    2087.88000         8.5000         8.4841         2.5757        82.3934       108.7393       0.227370       0.222060         3.9578         5.3566         5.8494      -999.2500
    2088.03240         8.5000         8.4858         2.5746        82.3388       108.9099       0.229362       0.224167         3.9765         5.3665         5.8688      -999.2500
    2088.18480         8.5000         8.4860         2.5730        82.4976       109.6518       0.231005       0.225928         3.9402         5.4986         5.9964      -999.2500
    2088.33720         8.5000         8.4862         2.5713        82.6565       110.3937       0.232648       0.227688         3.9040         5.6307         6.1239      -999.2500
    2088.48960         8.5000         8.4864         2.5696        82.8154       111.1356       0.234292       0.229448         3.8677         5.7629         6.2515      -999.2500
    2088.64200         8.5000         8.4865         2.5720        82.7626       110.5395       0.233551       0.228655         3.8591         5.6756         6.1581      -999.2500
    2088.79440         8.5000         8.4865         2.5746        82.6943       109.8454       0.232636       0.227675         3.8525         5.5723         6.0486      -999.2500
    2088.94680         8.5000         8.4865         2.5772        82.6261       109.1514       0.231722       0.226695         3.8458         5.4690         5.9390      -999.2500
    2089.09920         8.5000         8.4869         2.5770        82.3385       108.6101       0.227433       0.222202         3.8463         5.4394         5.9039      -999.2500
    2089.25160         8.5000         8.4876         2.5753        81.9333       108.1508       0.221334       0.215823         3.8506         5.4493         5.9088      -999.2500
    2089.40400         8.5000         8.4883         2.5735        81.5281       107.6915       0.215236       0.209445         3.8549         5.4592         5.9138      -999.2500
    2089.55640         8.5000         8.4881         2.5724        81.3298       107.4425       0.211194       0.205230         3.8613         5.4941         5.9474      -999.2500
    2089.70880         8.5000         8.4865         2.5722        81.4836       107.5517       0.210652       0.204698         3.8713         5.5716         6.0299      -999.2500
    2089.86120         8.5000         8.4849         2.5721        81.6374       107.6608       0.210109       0.204165         3.8812         5.6491         6.1125      -999.2500
    2090.01360         8.5000         8.4835         2.5722        81.7905       107.7568       0.210003       0.204080         3.8906         5.7117         6.1794      -999.2500
    2090.16600         8.5000         8.4843         2.5742        81.9367       107.7191       0.214349       0.208553         3.8941         5.6224         6.0866      -999.2500
    2090.31840         8.5000         8.4851         2.5762        82.0828       107.6814       0.218695       0.213026         3.8975         5.5330         5.9938      -999.2500
    2090.47080         8.5000         8.4859         2.5782        82.2290       107.6438       0.223041       0.217498         3.9010         5.4437         5.9010      -999.2500
    2090.62320         8.5000         8.4866         2.5792        82.0299      -999.2500       0.222916       0.217350         3.9146         5.4464         5.8933      -999.2500
