~Version Information Block
VERS .                 2.00:  CWLS LOG ASCII STANDARD - VERSION 2.00
WRAP .                   NO:  One line per depth step
~Well Information Block
#MNEM.UNIT        Data Type   Information
#---------- ----------------  -----------
STRT .M           422.60520:  START DEPTH
STOP .M          2060.90520:  STOP DEPTH
STEP .M             0.15240:  STEP
NULL .              -999.25:  NULL VALUE
COMP .                     :  COMPANY
WELL .           Ngatoro-11:  WELL
FLD  .                     :  FIELD
LOC  .                     :  LOCATION
CTRY .                     :  COUNTRY
STAT .                     :  STATE
CNTY .                     :  COUNTY
SRVC .     New Zealand Petroleum Co Ltd:  SERVICE COMPANY
DATE .                     :  DATE
API  .                     :  API NUMBER
UWI  .         100000290650:  UNIQUE WELL ID
LATI .          -39.1949222:  LATITUDE
LONG .          174.1848583:  LONGITUDE
~Curve Information Block
#MNEM.UNIT         API CODE   Curve Description
#---------- ----------------  -----------------
DEPTH.M                    :  
BS   .IN                   :  Bit Size (Created in Geolog)
CALI .IN                   :  Caliper Log (CALI)
DENS .G/C3                 :  Compensated Formation Density Log (RHOB)
DRHO .G/C3                 :  Density Log Correction (DRHO)
DTC  .US/F                 :  8-10 Ft Compensated Sonic (BPB) (DTC3)
GR   .GAPI                 :  Gamma-Ray Log (GR)
GR_CORR.GAPI                 :  Gamma ray corrected
NEUT .V/V                  :  Neutron Log Porosity (NPHI)
NEUT_CORR.V/V                  :  Corrected NPHI (limestone units)
PEF  .B/E                  :  Photoelectric Factor (PEDF)
RESD .OHMM                 :  Laterolog Deep Resistivity (LLD)
RESD_CORR.OHMM                 :  Borehole corrected LLD
RESS .OHMM                 :  Shallow Laterolog (LLS)
RESS_CORR.OHMM                 :  Borehole corrected LLS
SP   .MV                   :  Spontaneous Potential Log (SP)
TENS .KGF                  :  Cable tension at surface (TENS)
~Parameter Information Block
#MNEM.UNIT            Value   Description
#---------- ----------------  -----------
CUR_INT_BOT.M                2063:  Current interpolated bottom
PROJECT.     New Zealand Log QC Project:  
SET  .     A0_FINAL_INTER_REF_D:  
ELEVATION_AMSL.M              291.65:  Elevation above mean sea level
ELEVATION_REF.                   KB:  Measurement reference
FORMATION_AT_TD.      Mount Messenger:  Formation at TD
GL_ELEVATION_AMSL.M            286.3000:  Ground level elevation above mean sea level
LICENCE_NUMBER.             PMP38148:  Licence number
ONSHORE_OR_OFFSHORE.              Onshore:  Onshore/offshore
PR_NUMBER.               PR2438:  Petroleum report number
SPUD_DATE.           28/06/1998:  Spud date
STATUS_AT_COMPLETION.     Cased and suspended as a future oil producer:  Status at completion
TD_DATE.           15/07/1998:  Total depth date
TOTAL_DEPTH_DRILLED.M                2063:  Total depth drilled
~Other Information Block
# 
~A       DEPTH             BS           CALI           DENS           DRHO            DTC             GR        GR_CORR           NEUT      NEUT_CORR            PEF           RESD      RESD_CORR           RESS      RESS_CORR             SP           TENS 
# ...
     529.89480         8.5000        10.2984         2.2288       0.049305       125.4186       108.5321       118.3122       0.337421       0.292858         2.4492        12.4944        12.8254         7.8190         8.3666       193.6476       891.8032
     530.04720         8.5000        10.3001         2.2349       0.043199       125.4149       108.0816       117.8260       0.344022       0.298615         2.5051        12.8630        13.2010         8.0492         8.6144       193.0976       893.6257
     530.19960         8.5000        10.3316         2.2343       0.041502       125.3333       104.0094       113.5319       0.368444       0.319489         2.5542        12.0159        12.3420         7.6458         8.1879       193.1196       894.7869
     530.35200         8.5000        10.3632         2.2338       0.039805       125.2517        99.9372       109.2378       0.392867       0.340363         2.6033        11.1689        11.4830         7.2423         7.7614       193.1415       895.9482
     530.50440         8.5000        10.3950         2.2330       0.038162       125.1756        96.0390       105.1349       0.416402       0.360453         2.6505        10.3367        10.6391         6.8452         7.3417       193.1753       897.1364
     530.65680         8.5000        10.4348         2.2226       0.038317       125.2843        97.9930       107.4650       0.410107       0.354182         2.6352        10.0019        10.3004         6.6611         7.1515       193.6078       899.2320
     530.80920         8.5000        10.4746         2.2122       0.038473       125.3929        99.9470       109.7951       0.403813       0.347911         2.6199         9.6671         9.9618         6.4769         6.9612       194.0403       901.3276
     530.96160         8.5000        10.5144         2.2018       0.038629       125.5016       101.9010       112.1252       0.397518       0.341640         2.6047         9.3324         9.6231         6.2927         6.7709       194.4728       903.4233
     531.11400         8.5000        10.5813         2.2017       0.047081       125.9251       101.7052       112.2152       0.388836       0.332880         2.5509         9.2013         9.4952         6.2452         6.7337       194.6753       902.6133
     531.26640         8.5000        10.6575         2.2049       0.058329       126.4546       100.7853       111.5506       0.379351       0.323281         2.4842         9.1389         9.4383         6.2438         6.7481       194.8005       900.8247
     531.41880         8.5000        10.7336         2.2082       0.069576       126.9841        99.8654       110.8860       0.369865       0.313682         2.4176         9.0765         9.3813         6.2424         6.7624       194.9256       899.0361
     531.57120         8.5000        10.8203         2.2115       0.071575       127.1793        98.6249       109.8942       0.364325       0.307410         2.3896         9.1882         9.5045         6.3374         6.8854       195.0656       897.0694
     531.72360         8.5000        10.9191         2.2147       0.063026       126.9932        97.0186       108.5294       0.363285       0.304930         2.4058         9.4986         9.8330         6.5423         7.1323       195.2228       894.8997
     531.87600         8.5000        11.0178         2.2179       0.054478       126.8072        95.4124       107.1646       0.362245       0.302451         2.4220         9.8090        10.1616         6.7473         7.3791       195.3799       892.7300
     532.02840         8.5000        11.1148         2.2183       0.049052       126.6652        94.1948       106.2262       0.358967       0.298135         2.4336         9.9876        10.3539         6.8832         7.5494       195.3383       891.3553
     532.18080         8.5000        11.2044         2.2068       0.057263       126.7162        94.6745       107.1494       0.345912       0.285800         2.4253         9.5902         9.9513         6.7177         7.3855       194.4290       893.4510
     532.33320         8.5000        11.2941         2.1953       0.065475       126.7672        95.1543       108.0726       0.332858       0.273465         2.4170         9.1929         9.5486         6.5522         7.2216       193.5197       895.5469
     532.48560         8.5000        11.3837         2.1838       0.073686       126.8182        95.6340       108.9958       0.319804       0.261130         2.4087         8.7956         9.1460         6.3867         7.0576       192.6104       897.6427
     532.63800         8.5000        11.3904         2.1847       0.068359       127.2244        98.5613       112.3590       0.349306       0.285734         2.4501         9.6397        10.0167         6.9261         7.6637       191.6623       897.2018
     532.79040         8.5000        11.3885         2.1870       0.061619       127.6676       101.7441       115.9768       0.383249       0.314192         2.4967        10.6133        11.0203         7.5391         8.3500       190.7103       896.4962
     532.94280         8.5000        11.3866         2.1892       0.054879       128.1108       104.9269       119.5946       0.417192       0.342651         2.5433        11.5870        12.0238         8.1521         9.0364       189.7582       895.7906
     533.09520         8.5000        11.3302         2.1969       0.050220       128.1501       105.8556       120.3902       0.421404       0.347111         2.6182        12.1013        12.5472         8.5418         9.4556       188.8215       896.2643
     533.24760         8.5000        11.2411         2.2078       0.046811       127.9465       105.4299       119.4900       0.407753       0.337151         2.7101        12.3395        12.7820         8.7974         9.7144       187.8940       897.4465
     533.40000         8.5000        11.1519         2.2188       0.043402       127.7430       105.0043       118.5899       0.394102       0.327192         2.8021        12.5777        13.0168         9.0530         9.9732       186.9665       898.6287
     533.55240         8.5000        11.0897         2.2264       0.041311       127.3073       104.6805       117.9319       0.392638       0.327062         2.8516        12.7511        13.1879         9.2634        10.1894       186.1394       899.5355
     533.70480         8.5000        11.0789         2.2279       0.041738       126.4287       104.5508       117.7359       0.414432       0.345690         2.8202        12.8006        13.2373         9.3876        10.3243       185.5040       899.9170
     533.85720         8.5000        11.0680         2.2293       0.042165       125.5500       104.4212       117.5399       0.436225       0.364318         2.7887        12.8502        13.2867         9.5117        10.4592       184.8687       900.2985
     534.00960         8.5000        11.0567         2.2306       0.042547       124.7992       104.3051       117.3566       0.457022       0.382113         2.7582        12.8786        13.3144         9.6191        10.5753       184.2992       900.6895
     534.16200         8.5000        11.0375         2.2297       0.042261       125.9492       104.3896       117.3609       0.462987       0.387525         2.7399        12.5920        13.0190         9.4769        10.4103       184.7112       901.2228
     534.31440         8.5000        11.0184         2.2289       0.041976       127.0992       104.4741       117.3653       0.468952       0.392938         2.7217        12.3054        12.7236         9.3348        10.2453       185.1232       901.7560
     534.46680         8.5000        10.9993         2.2280       0.041690       128.2492       104.5586       117.3697       0.474918       0.398350         2.7035        12.0188        12.4282         9.1926        10.0803       185.5352       902.2894
     534.61920         8.5000        10.9811         2.2314       0.041516       128.5731       106.3412       119.2799       0.461236       0.387104         2.6884        12.3218        12.7356         9.4629        10.3744       185.5950       902.1085
