~Version Information Block
VERS .                 2.00:  CWLS LOG ASCII STANDARD - VERSION 2.00
WRAP .                   NO:  One line per depth step
~Well Information Block
#MNEM.UNIT        Data Type   Information
#---------- ----------------  -----------
STRT .M           535.07640:  START DEPTH
STOP .M          2419.95960:  STOP DEPTH
STEP .M             0.15240:  STEP
NULL .              -999.25:  NULL VALUE
COMP .                     :  COMPANY
WELL .            Ngatoro-3:  WELL
FLD  .                     :  FIELD
LOC  .                     :  LOCATION
CTRY .                     :  COUNTRY
STAT .                     :  STATE
CNTY .                     :  COUNTY
SRVC .     New Zealand Petroleum Co Ltd:  SERVICE COMPANY
DATE .                     :  DATE
API  .                     :  API NUMBER
UWI  .         100000158215:  UNIQUE WELL ID
LATI .          -39.1846093:  LATITUDE
LONG .          174.1883769:  LONGITUDE
~Curve Information Block
#MNEM.UNIT         API CODE   Curve Description
#---------- ----------------  -----------------
DEPTH.M                    :  
BS   .IN                   :  Bit Size (Created in Geolog)
CALI .IN                   :  Caliper Log (CALI)
DENS .G/C3                 :  Compensated Formation Density Log (RHOB)
DRHO .G/C3                 :  Density Log Correction (DRHO)
DTC  .US/F                 :  Delta T (DT)
GR   .GAPI                 :  Gamma-Ray Log (GR)
GR_CORR.GAPI                 :  Gamma ray corrected
NEUT .V/V                  :  Neutron Log Porosity (NPHI)
NEUT_CORR.V/V                  :  Corrected NPHI (limestone units)
PEF  .B/E                  :  Photoelectric Factor (PEDF)
RESD .OHMM                 :  Laterolog Deep Resistivity (LLD)
RESD_CORR.OHMM                 :  Borehole corrected LLD
RESS .OHMM                 :  Shallow Laterolog (LLS)
RESS_CORR.OHMM                 :  Borehole corrected LLS
SP   .MV                   :  Spontaneous Potential Log (SP)
TEMP .DEGC                 :  Temperature (TEMP)
TENS .KGF                  :  Cable tension at surface (TENS)
~Parameter Information Block
#MNEM.UNIT            Value   Description
#---------- ----------------  -----------
CUR_INT_BOT.M                2420:  Current interpolated bottom
PROJECT.     New Zealand Log QC Project:  
SET  .     A0_FINAL_INTER_REF_D:  
ELEVATION_AMSL.M              267.94:  Elevation above mean sea level
ELEVATION_REF.                   KB:  Measurement reference
FORMATION_AT_TD.             Manganui:  Formation at TD
GL_ELEVATION_AMSL.M            263.2000:  Ground level elevation above mean sea level
LICENCE_NUMBER.             PPL38706:  Licence number
ONSHORE_OR_OFFSHORE.              Onshore:  Onshore/offshore
PR_NUMBER.               PR1863:  Petroleum report number
SPUD_DATE.           14/01/1993:  Spud date
STATUS_AT_COMPLETION.     Suspended as a potential oil producer:  Status at completion
TD_DATE.           08/02/1993:  Total depth date
TOTAL_DEPTH_DRILLED.M                2420:  Total depth drilled
~Other Information Block
# 
~A       DEPTH             BS           CALI           DENS           DRHO            DTC             GR        GR_CORR           NEUT      NEUT_CORR            PEF           RESD      RESD_CORR           RESS      RESS_CORR             SP           TEMP           TENS 
# ...
     676.80840         8.5000         8.5524         2.1928      0.0029717       108.3565        78.9105        78.8483       0.303449       0.294029         2.5169        17.8874        17.8529         8.3106         8.3645        79.0828        43.3246       832.0965
     676.96080         8.5000         8.5524         2.1909      0.0025038       108.4121        76.7892        76.7287       0.290336       0.281303         2.5006        17.7604        17.7280         8.3044         8.3584        79.0338        43.3292       831.6978
     677.11320         8.5000         8.5525         2.1928      0.0026299       108.3934        78.1634        78.1021       0.297096       0.287863         2.5001        17.7288        17.6968         8.2573         8.3115        79.0889        43.3385       832.7626
     677.26560         8.5000         8.5526         2.1962      0.0029619       108.3491        80.7481        80.6852       0.310737       0.301101         2.5050        17.7301        17.6981         8.1961         8.2506        79.1801        43.3495       834.3342
     677.41800         8.5000         8.5527         2.1995      0.0032938       108.3048        83.3328        83.2682       0.324378       0.314339         2.5100        17.7314        17.6993         8.1348         8.1896        79.2712        43.3604       835.9058
     677.57040         8.5000         8.5527         2.2001      0.0034103       108.2663        82.9332        82.8691       0.341134       0.330607         2.5044        17.5292        17.5001         8.0552         8.1104        79.3063        43.3666       837.2717
     677.72280         8.5000         8.5526         2.1976      0.0032759       108.2345        79.0578        78.9965       0.361519       0.350403         2.4864        17.0900        17.0672         7.9543         8.0100        79.2759        43.3672       838.3981
     677.87520         8.5000         8.5526         2.1951      0.0031415       108.2027        75.1824        75.1238       0.381903       0.370199         2.4685        16.6508        16.6343         7.8534         7.9095        79.2455        43.3678       839.5245
     678.02760         8.5000         8.5525         2.1935      0.0031939       108.1810        71.8606        71.8044       0.398938       0.386742         2.4642        16.3531        16.3409         7.7786         7.8350        79.1943        43.3692       840.3234
     678.18000         8.5000         8.5525         2.1959      0.0040914       108.2051        71.0423        70.9866       0.400825       0.388576         2.5217        16.6951        16.6780         7.8215         7.8777        79.0489        43.3739       839.6414
     678.33240         8.5000         8.5524         2.1984      0.0049888       108.2292        70.2240        70.1689       0.402713       0.390411         2.5792        17.0371        17.0151         7.8645         7.9205        78.9034        43.3786       838.9594
     678.48480         8.5000         8.5524         2.2008      0.0058862       108.2534        69.4058        69.3511       0.404600       0.392246         2.6367        17.3792        17.3521         7.9074         7.9632        78.7580        43.3833       838.2773
     678.63720         8.5000         8.5524         2.1988      0.0056134       108.2940        71.0501        70.9941       0.395639       0.383544         2.5959        17.7014        17.6693         7.9643         8.0198        78.7304        43.3838       837.2001
     678.78960         8.5000         8.5524         2.1962      0.0052110       108.3364        72.9673        72.9098       0.385475       0.373675         2.5443        18.0214        17.9843         8.0226         8.0778        78.7158        43.3838       836.0792
     678.94200         8.5000         8.5524         2.1937      0.0048085       108.3788        74.8845        74.8255       0.375312       0.363806         2.4926        18.3414        18.2993         8.0810         8.1359        78.7012        43.3838       834.9583
     679.09440         8.5000         8.5524         2.1904      0.0043523       108.3172        76.0768        76.0169       0.364670       0.353473         2.4720        18.0953        18.0569         8.0022         8.0575        78.6692        43.3838       834.2737
     679.24680         8.5000         8.5524         2.1867      0.0038630       108.1915        76.8239        76.7633       0.353733       0.342854         2.4704        17.5015        17.4720         7.8391         7.8951        78.6266        43.3838       833.8572
     679.39920         8.5000         8.5524         2.1830      0.0033737       108.0658        77.5709        77.5098       0.342797       0.332236         2.4688        16.9076        16.8871         7.6759         7.7327        78.5839        43.3838       833.4409
     679.55160         8.5000         8.5524         2.1817      0.0037463       107.9897        78.0876        78.0261       0.336839       0.326451         2.4724        16.5980        16.5822         7.5676         7.6248        78.4985        43.3838       833.2975
     679.70400         8.5000         8.5524         2.1852      0.0058028       108.0101        78.1545        78.0929       0.340607       0.330110         2.4863        16.8437        16.8244         7.5661         7.6234        78.3294        43.3838       833.6877
     679.85640         8.5000         8.5524         2.1887      0.0078593       108.0306        78.2213        78.1597       0.344374       0.333768         2.5002        17.0895        17.0666         7.5647         7.6220        78.1603        43.3838       834.0778
     680.00880         8.5000         8.5524         2.1921      0.0097511       108.0551        78.3299        78.2682       0.348227       0.337510         2.5138        17.3152        17.2891         7.5597         7.6170        77.9872        43.3838       834.4306
     680.16120         8.5000         8.5524         2.1927      0.0089539       108.1453        79.1212        79.0588       0.353474       0.342605         2.5220        17.2135        17.1888         7.4957         7.5533        77.7481        43.3838       834.1741
     680.31360         8.5000         8.5524         2.1933      0.0081567       108.2356        79.9124        79.8495       0.358720       0.347700         2.5302        17.1118        17.0885         7.4318         7.4896        77.5089        43.3838       833.9175
     680.46600         8.5000         8.5524         2.1940      0.0073595       108.3258        80.7037        80.6401       0.363967       0.352795         2.5384        17.0101        16.9882         7.3679         7.4260        77.2698        43.3838       833.6609
     680.61840         8.5000         8.5524         2.1929      0.0068583       108.1335        80.6060        80.5425       0.355368       0.344448         2.5202        16.3385        16.3250         7.2316         7.2902        77.3170        43.3838       833.7511
     680.77080         8.5000         8.5524         2.1913      0.0064422       107.8600        80.2530        80.1898       0.342793       0.332239         2.4945        15.5033        15.5001         7.0745         7.1337        77.4465        43.3838       833.9408
     680.92320         8.5000         8.5524         2.1897      0.0060260       107.5866        79.9001        79.8371       0.330218       0.320031         2.4687        14.6680        14.6752         6.9174         6.9773        77.5759        43.3838       834.1305
     681.07560         8.5000         8.5524         2.1897      0.0052621       107.3184        79.2172        79.1548       0.323161       0.313181         2.4752        14.2963        14.3081         6.8499         6.9101        77.6518        43.3838       834.1703
     681.22800         8.5000         8.5524         2.1913      0.0041449       107.0555        78.1993        78.1377       0.321710       0.311772         2.5144        14.3954        14.4062         6.8735         6.9336        77.6732        43.3838       834.0578
