~Version Information Block
VERS .                 2.00:  CWLS LOG ASCII STANDARD - VERSION 2.00
WRAP .                   NO:  One line per depth step
~Well Information Block
#MNEM.UNIT        Data Type   Information
#---------- ----------------  -----------
STRT .M           530.50440:  START DEPTH
STOP .M          1878.48240:  STOP DEPTH
STEP .M             0.15240:  STEP
NULL .              -999.25:  NULL VALUE
COMP .                     :  COMPANY
WELL .            Ngatoro-7:  WELL
FLD  .                     :  FIELD
LOC  .                     :  LOCATION
CTRY .                     :  COUNTRY
STAT .                     :  STATE
CNTY .                     :  COUNTY
SRVC .     New Zealand Petroleum Co Ltd:  SERVICE COMPANY
DATE .                     :  DATE
API  .                     :  API NUMBER
UWI  .         100000210191:  UNIQUE WELL ID
LATI .          -39.2039075:  LATITUDE
LONG .          174.1707218:  LONGITUDE
~Curve Information Block
#MNEM.UNIT         API CODE   Curve Description
#---------- ----------------  -----------------
DEPTH.M                    :  
BS   .IN                   :  Bit Size (Created in Geolog)
CALI .IN                   :  Caliper (HCAL)
DENS .G/C3                 :  Bulk Density (RHOZ) and HR Bulk Density (RHO8)
DTC  .US/F                 :  Delta Time (DTC)
GR   .GAPI                 :  Gamma Ray (GR) and HR Gamma Ray (HGR)
NEUT .V/V                  :  Neutron Porosity (NPHI) and HR Neutron Porosity (HTNP)
NEUT_CORR.V/V                  :  Corrected NPHI (limestone units)
PEF  .B/E                  :  HRDD Std Resolution Formation Photoelectric Factor (PEFZ) and (PEF8)
RESD .OHMM                 :  HALS Deep Res. (HLLD) and HR HALS Deep Res. (HRLD)
RESS .OHMM                 :  HALS Shallow Res. (HLLS) and HR HALS Shallow Res. (HRLS)
SP   .MV                   :  Spontaneous Potential (SP)
~Parameter Information Block
#MNEM.UNIT            Value   Description
#---------- ----------------  -----------
CUR_INT_BOT.M                1879:  Current interpolated bottom
PROJECT.     New Zealand Log QC Project:  
SET  .     A0_FINAL_INTER_REF_D:  
ELEVATION_AMSL.M                 327:  Elevation above mean sea level
ELEVATION_REF.                   KB:  Measurement reference
FORMATION_AT_TD.      Mount Messenger:  Formation at TD
GL_ELEVATION_AMSL.M            321.4000:  Ground level elevation above mean sea level
LICENCE_NUMBER.             PPL38706:  Licence number
ONSHORE_OR_OFFSHORE.              Onshore:  Onshore/offshore
PR_NUMBER.               PR2215:  Petroleum report number
SPUD_DATE.           09/04/1996:  Spud date
STATUS_AT_COMPLETION.     Suspended with 7" casing cemented in place:  Status at completion
TD_DATE.           18/04/1996:  Total depth date
TOTAL_DEPTH_DRILLED.M                1879:  Total depth drilled
~Other Information Block
# 
~A       DEPTH             BS           CALI           DENS            DTC             GR           NEUT      NEUT_CORR            PEF           RESD           RESS             SP 
# ...
     818.54040         8.5000         8.8427         2.2248      -999.2500        70.7166       0.315479       0.312331         2.8785         4.9986         3.8816       160.0174
     818.69280         8.5000         8.8871         2.2687      -999.2500        67.9995       0.289807       0.285655         2.9456         5.6705         4.4005       159.9932
     818.84520         8.5000         8.9315         2.3125      -999.2500        65.2823       0.264136       0.258979         3.0127         6.3423         4.9195       159.9691
     818.99760         8.5000         8.9759         2.3564      -999.2500        62.5652       0.238464       0.232303         3.0797         7.0142         5.4384       159.9449
     819.15000         8.5000         8.9342         2.3331      -999.2500        62.3574       0.262487       0.256825         3.0740         6.6822         5.2007       159.8972
     819.30240         8.5000         8.8910         2.3088      -999.2500        62.1897       0.287304       0.282167         3.0670         6.3342         4.9510       159.8492
     819.45480         8.5000         8.8479         2.2845      -999.2500        62.0220       0.312122       0.307508         3.0601         5.9862         4.7012       159.8012
     819.60720         8.5000         8.9128         2.2654      -999.2500        64.0320       0.316359       0.311829         3.0179         5.6737         4.5042       159.4706
     819.75960         8.5000         9.0232         2.2485      -999.2500        66.9601       0.311918       0.307287         2.9609         5.3761         4.3295       159.0208
     819.91200         8.5000         9.1337         2.2317      -999.2500        69.8882       0.307476       0.302745         2.9039         5.0785         4.1547       158.5709
     820.06440         8.5000         9.1824         2.2246      -999.2500        71.8837       0.302893       0.298026         2.8698         5.0047         4.1289       158.1831
     820.21680         8.5000         9.1470         2.2308      -999.2500        72.6048       0.298114       0.293066         2.8670         5.2368         4.3067       157.8801
     820.36920         8.5000         9.1115         2.2371      -999.2500        73.3259       0.293335       0.288105         2.8641         5.4689         4.4844       157.5771
     820.52160         8.5000         9.0891         2.2438      -999.2500        74.2144       0.290024       0.284643         2.8688         5.7246         4.6727       157.3196
     820.67400         8.5000         9.1461         2.2533      -999.2500        76.1163       0.295606       0.290256         2.9192         6.1232         4.9245       157.3376
     820.82640         8.5000         9.2030         2.2627      -999.2500        78.0182       0.301188       0.295870         2.9696         6.5217         5.1764       157.3556
     820.97880         8.5000         9.2600         2.2722      -999.2500        79.9201       0.306769       0.301484         3.0199         6.9202         5.4283       157.3736
     821.13120         8.5000         9.3278         2.2793      -999.2500        80.2331       0.308921       0.303432         3.0187         6.8606         5.3729       157.7536
     821.28360         8.5000         9.3974         2.2860      -999.2500        80.2893       0.310518       0.304787         3.0091         6.7269         5.2678       158.1921
     821.43600         8.5000         9.4669         2.2928      -999.2500        80.3455       0.312115       0.306142         2.9995         6.5933         5.1627       158.6306
     821.58840         8.5000         9.5022         2.2805      -999.2500        78.0890       0.312620       0.306448         2.9707         6.3485         4.9881       158.8794
     821.74080         8.5000         9.5126         2.2544      -999.2500        74.1581       0.312335       0.305993         2.9282         6.0232         4.7630       158.9909
     821.89320         8.5000         9.5230         2.2284      -999.2500        70.2273       0.312050       0.305538         2.8857         5.6979         4.5379       159.1023
     822.04560         8.5000         9.5091         2.2078      -999.2500        67.0323       0.314229       0.307950         2.8548         5.3947         4.3315       159.2825
     822.19800         8.5000         9.4381         2.1999      -999.2500        65.5611       0.322179       0.317077         2.8512         5.1430         4.1689       159.6237
     822.35040         8.5000         9.3671         2.1921      -999.2500        64.0899       0.330129       0.326203         2.8477         4.8914         4.0063       159.9649
     822.50280         8.5000         9.2969         2.1845      -999.2500        62.6917       0.337991       0.335207         2.8447         4.6444         3.8474       160.3026
     822.65520         8.5000         9.2641         2.1877      -999.2500        65.1961       0.341191       0.337732         2.8750         4.6416         3.8821       160.4579
     822.80760         8.5000         9.2314         2.1909      -999.2500        67.7005       0.344390       0.340256         2.9053         4.6388         3.9168       160.6131
     822.96000         8.5000         9.1987         2.1941      -999.2500        70.2049       0.347590       0.342781         2.9356         4.6360         3.9514       160.7684
     823.11240         8.5000         9.1607         2.1944      -999.2500        71.0438       0.338959       0.334006         2.9414         4.6351         3.9298       159.9465
     823.26480         8.5000         9.1208         2.1937      -999.2500        71.2900       0.326119       0.321211         2.9385         4.6350         3.8881       158.7770
     823.41720         8.5000         9.0809         2.1930      -999.2500        71.5362       0.313278       0.308416         2.9357         4.6348         3.8465       157.6074
     823.56960         8.5000         9.0125         2.2097      -999.2500        70.7897       0.300745       0.295647         2.9315         4.8757         3.9848       156.6467
     823.72200         8.5000         8.9103         2.2471      -999.2500        68.8620       0.288580       0.282909         2.9259         5.4035         4.3374       155.9345
     823.87440         8.5000         8.8081         2.2845      -999.2500        66.9344       0.276414       0.270172         2.9203         5.9313         4.6899       155.2222
     824.02680         8.5000         8.7288         2.3106      -999.2500        65.7000       0.268822       0.262206         2.9157         6.2945         4.9379       154.7377
     824.17920         8.5000         8.7566         2.2842      -999.2500        67.7147       0.282664       0.276603         2.9156         5.8859         4.6955       155.3200
     824.33160         8.5000         8.7845         2.2577      -999.2500        69.7293       0.296506       0.291000         2.9154         5.4774         4.4532       155.9023
     824.48400         8.5000         8.8124         2.2313      -999.2500        71.7440       0.310348       0.305398         2.9153         5.0689         4.2108       156.4847
     824.63640         8.5000         8.7967         2.2207      -999.2500        73.6881       0.311436       0.306705         2.9410         4.9643         4.1812       157.2101
     824.78880         8.5000         8.7759         2.2119      -999.2500        75.6239       0.311028       0.306478         2.9698         4.8953         4.1764       157.9524
     824.94120         8.5000         8.7551         2.2031      -999.2500        77.5597       0.310620       0.306250         2.9986         4.8264         4.1717       158.6946
     825.09360         8.5000         8.7226         2.2117      -999.2500        81.5424       0.310464       0.306217         3.0507         4.9327         4.2692       159.0675
     825.24600         8.5000         8.6829         2.2314      -999.2500        86.8110       0.310466       0.306306         3.1175         5.1490         4.4309       159.2083
