~Version Information Block
VERS .                 2.00:  CWLS LOG ASCII STANDARD - VERSION 2.00
WRAP .                   NO:  One line per depth step
~Well Information Block
#MNEM.UNIT        Data Type   Information
#---------- ----------------  -----------
STRT .M           422.60520:  START DEPTH
STOP .M          2060.90520:  STOP DEPTH
STEP .M             0.15240:  STEP
NULL .              -999.25:  NULL VALUE
COMP .                     :  COMPANY
WELL .           Ngatoro-11:  WELL
FLD  .                     :  FIELD
LOC  .                     :  LOCATION
CTRY .                     :  COUNTRY
STAT .                     :  STATE
CNTY .                     :  COUNTY
SRVC .     New Zealand Petroleum Co Ltd:  SERVICE COMPANY
DATE .                     :  DATE
API  .                     :  API NUMBER
UWI  .         100000290650:  UNIQUE WELL ID
LATI .          -39.1949222:  LATITUDE
LONG .          174.1848583:  LONGITUDE
~Curve Information Block
#MNEM.UNIT         API CODE   Curve Description
#---------- ----------------  -----------------
DEPTH.M                    :  
BS   .IN                   :  Bit Size (Created in Geolog)
CALI .IN                   :  Caliper Log (CALI)
DENS .G/C3                 :  Compensated Formation Density Log (RHOB)
DRHO .G/C3                 :  Density Log Correction (DRHO)
DTC  .US/F                 :  8-10 Ft Compensated Sonic (BPB) (DTC3)
GR   .GAPI                 :  Gamma-Ray Log (GR)
GR_CORR.GAPI                 :  Gamma ray corrected
NEUT .V/V                  :  Neutron Log Porosity (NPHI)
NEUT_CORR.V/V                  :  Corrected NPHI (limestone units)
PEF  .B/E                  :  Photoelectric Factor (PEDF)
RESD .OHMM                 :  Laterolog Deep Resistivity (LLD)
RESD_CORR.OHMM                 :  Borehole corrected LLD
RESS .OHMM                 :  Shallow Laterolog (LLS)
RESS_CORR.OHMM                 :  Borehole corrected LLS
SP   .MV                   :  Spontaneous Potential Log (SP)
TENS .KGF                  :  Cable tension at surface (TENS)
~Parameter Information Block
#MNEM.UNIT            Value   Description
#---------- ----------------  -----------
CUR_INT_BOT.M                2063:  Current interpolated bottom
PROJECT.     New Zealand Log QC Project:  
SET  .     A0_FINAL_INTER_REF_D:  
ELEVATION_AMSL.M              291.65:  Elevation above mean sea level
ELEVATION_REF.                   KB:  Measurement reference
FORMATION_AT_TD.      Mount Messenger:  Formation at TD
GL_ELEVATION_AMSL.M            286.3000:  Ground level elevation above mean sea level
LICENCE_NUMBER.             PMP38148:  Licence number
ONSHORE_OR_OFFSHORE.              Onshore:  Onshore/offshore
PR_NUMBER.               PR2438:  Petroleum report number
SPUD_DATE.           28/06/1998:  Spud date
STATUS_AT_COMPLETION.     Cased and suspended as a future oil producer:  Status at completion
TD_DATE.           15/07/1998:  Total depth date
TOTAL_DEPTH_DRILLED.M                2063:  Total depth drilled
~Other Information Block
# 
~A       DEPTH             BS           CALI           DENS           DRHO            DTC             GR        GR_CORR           NEUT      NEUT_CORR            PEF           RESD      RESD_CORR           RESS      RESS_CORR             SP           TENS 
# ...
    1807.61640         8.5000         8.8506         2.5059       0.018704        78.7506       106.0522       107.9688       0.210058       0.203422         3.1042         4.0785         4.1196         4.5059         4.5966       232.2180      2029.5209
    1807.76880         8.5000         8.9391         2.5365       0.019112        75.7820       104.5592       106.9242       0.196143       0.188832         3.1659         4.2290         4.2777         4.6612         4.7681       231.8469      2037.9292
    1807.92120         8.5000         9.0276         2.5671       0.019520        72.8133       103.0661       105.8797       0.182227       0.174243         3.2275         4.3796         4.4358         4.8165         4.9396       231.4758      2046.3374
    1808.07360         8.5000         9.0902         2.5730       0.020970        72.9342       103.4624       106.6375       0.176924       0.168271         3.2081         4.3225         4.3814         4.7563         4.8871       231.2655      2054.0681
    1808.22600         8.5000         9.1250         2.5523       0.023536        76.3628       105.8815       109.3250       0.180843       0.171526         3.1016         4.0432         4.0996         4.4654         4.5949       231.2274      2061.0730
    1808.37840         8.5000         9.1598         2.5317       0.026101        79.7914       108.3005       112.0126       0.184762       0.174781         2.9952         3.7638         3.8178         4.1744         4.3026       231.1893      2068.0779
    1808.53080         8.5000         9.1825         2.5138       0.027897        82.7842       110.2708       114.1697       0.189908       0.179361         2.9094         3.5403         3.5920         3.9437         4.0702       231.1750      2072.4126
    1808.68320         8.5000         9.1572         2.5062       0.026651        84.0564       110.4696       114.2325       0.199896       0.189172         2.9050         3.5371         3.5874         3.9509         4.0743       231.2548      2066.2051
    1808.83560         8.5000         9.1320         2.4987       0.025405        85.3286       110.6684       114.2952       0.209885       0.198983         2.9006         3.5338         3.5828         3.9581         4.0784       231.3346      2059.9976
    1808.98800         8.5000         9.1067         2.4912       0.024160        86.6008       110.8672       114.3580       0.219874       0.208794         2.8962         3.5306         3.5782         3.9654         4.0825       231.4145      2053.7900
    1809.14040         8.5000         9.0808         2.4948       0.025291        85.7323       109.0282       112.3221       0.217050       0.206485         2.8692         3.5698         3.6167         4.0185         4.1333       231.4769      2069.1450
    1809.29280         8.5000         9.0549         2.4994       0.026625        84.6808       107.0150       110.1068       0.213130       0.203141         2.8402         3.6126         3.6588         4.0756         4.1880       231.5378      2086.3428
    1809.44520         8.5000         9.0290         2.5040       0.027960        83.6294       105.0018       107.8916       0.209211       0.199797         2.8112         3.6554         3.7010         4.1327         4.2428       231.5987      2103.5405
    1809.59760         8.5000         9.0405         2.5024       0.026789        83.0583       103.9173       106.8339       0.212376       0.202630         2.8105         3.6859         3.7326         4.1819         4.2948       231.6030      2102.2957
    1809.75000         8.5000         9.0729         2.4973       0.024211        82.7568       103.3542       106.4262       0.219519       0.208931         2.8257         3.7093         3.7582         4.2267         4.3451       231.5757      2090.6956
    1809.90240         8.5000         9.1054         2.4922       0.021634        82.4554       102.7911       106.0185       0.226662       0.215232         2.8408         3.7328         3.7839         4.2716         4.3955       231.5483      2079.0955
    1810.05480         8.5000         9.1419         2.4895       0.019698        82.1275       104.1095       107.5852       0.231523       0.219297         2.8560         3.7484         3.8017         4.3094         4.4395       231.4945      2075.9036
    1810.20720         8.5000         9.1855         2.4911       0.018904        81.7524       108.7790       112.6684       0.232321       0.219379         2.8713         3.7497         3.8055         4.3347         4.4719       231.3936      2087.6868
    1810.35960         8.5000         9.2291         2.4927       0.018110        81.3773       113.4485       117.7517       0.233119       0.219462         2.8865         3.7511         3.8092         4.3601         4.5044       231.2927      2099.4700
    1810.51200         8.5000         9.2663         2.4943       0.017266        80.9672       117.6757       122.3393       0.233597       0.219341         2.9042         3.7531         3.8133         4.3848         4.5352       231.1866      2109.4751
    1810.66440         8.5000         9.2279         2.4951       0.015834        80.1482       116.7269       121.1292       0.230328       0.216839         2.9511         3.7630         3.8213         4.4014         4.5465       231.0198      2098.6760
    1810.81680         8.5000         9.1895         2.4959       0.014402        79.3292       115.7782       119.9191       0.227059       0.214337         2.9980         3.7728         3.8292         4.4181         4.5578       230.8531      2087.8770
    1810.96920         8.5000         9.1511         2.4967       0.012970        78.5103       114.8294       118.7090       0.223790       0.211835         3.0449         3.7827         3.8371         4.4347         4.5690       230.6863      2077.0779
    1811.12160         8.5000         9.0521         2.5126       0.014761        78.9225       114.9674       118.2556       0.224031       0.213621         3.0905         3.9439         3.9941         4.6167         4.7367       230.5119      2088.9924
    1811.27400         8.5000         8.9378         2.5322       0.017368        79.6466       115.3806       117.9939       0.225160       0.216493         3.1357         4.1434         4.1888         4.8404         4.9440       230.3355      2106.6599
    1811.42640         8.5000         8.8234         2.5519       0.019975        80.3706       115.7938       117.7321       0.226290       0.219365         3.1809         4.3429         4.3836         5.0642         5.1513       230.1592      2124.3274
    1811.57880         8.5000         8.7546         2.5826       0.021242        78.2490       114.7086       116.2270       0.219399       0.213747         3.2127         5.2719         5.3088         6.0944         6.1698       229.9319      2131.3054
    1811.73120         8.5000         8.7284         2.6235       0.021258        73.4694       112.2239       113.5604       0.205016       0.200199         3.2320         6.8822         6.9163         7.8776         7.9460       229.6569      2128.2998
    1811.88360         8.5000         8.7022         2.6645       0.021274        68.6898       109.7392       110.8939       0.190634       0.186651         3.2513         8.4925         8.5238         9.6609         9.7222       229.3820      2125.2939
    1812.03600         8.5000         8.6903         2.6901       0.021789        64.9550       105.8302       106.8612       0.176277       0.172939         3.2638         9.4831         9.5138        10.7699        10.8287       229.1831      2121.9270
    1812.18840         8.5000         8.7248         2.6660       0.023921        64.5981        97.3157        98.4114       0.162001       0.158696         3.2541         8.4699         8.5072         9.6990         9.7700       229.2301      2117.3914
    1812.34080         8.5000         8.7592         2.6420       0.026052        64.2412        88.8013        89.9616       0.147725       0.144454         3.2443         7.4567         7.5007         8.6281         8.7112       229.2772      2112.8557
