~Version Information Block
VERS .                 2.00:  CWLS LOG ASCII STANDARD - VERSION 2.00
WRAP .                   NO:  One line per depth step
~Well Information Block
#MNEM.UNIT        Data Type   Information
#---------- ----------------  -----------
STRT .M           535.07640:  START DEPTH
STOP .M          2419.95960:  STOP DEPTH
STEP .M             0.15240:  STEP
NULL .              -999.25:  NULL VALUE
COMP .                     :  COMPANY
WELL .            Ngatoro-3:  WELL
FLD  .                     :  FIELD
LOC  .                     :  LOCATION
CTRY .                     :  COUNTRY
STAT .                     :  STATE
CNTY .                     :  COUNTY
SRVC .     New Zealand Petroleum Co Ltd:  SERVICE COMPANY
DATE .                     :  DATE
API  .                     :  API NUMBER
UWI  .         100000158215:  UNIQUE WELL ID
LATI .          -39.1846093:  LATITUDE
LONG .          174.1883769:  LONGITUDE
~Curve Information Block
#MNEM.UNIT         API CODE   Curve Description
#---------- ----------------  -----------------
DEPTH.M                    :  
BS   .IN                   :  Bit Size (Created in Geolog)
CALI .IN                   :  Caliper Log (CALI)
DENS .G/C3                 :  Compensated Formation Density Log (RHOB)
DRHO .G/C3                 :  Density Log Correction (DRHO)
DTC  .US/F                 :  Delta T (DT)
GR   .GAPI                 :  Gamma-Ray Log (GR)
GR_CORR.GAPI                 :  Gamma ray corrected
NEUT .V/V                  :  Neutron Log Porosity (NPHI)
NEUT_CORR.V/V                  :  Corrected NPHI (limestone units)
PEF  .B/E                  :  Photoelectric Factor (PEDF)
RESD .OHMM                 :  Laterolog Deep Resistivity (LLD)
RESD_CORR.OHMM                 :  Borehole corrected LLD
RESS .OHMM                 :  Shallow Laterolog (LLS)
RESS_CORR.OHMM                 :  Borehole corrected LLS
SP   .MV                   :  Spontaneous Potential Log (SP)
TEMP .DEGC                 :  Temperature (TEMP)
TENS .KGF                  :  Cable tension at surface (TENS)
~Parameter Information Block
#MNEM.UNIT            Value   Description
#---------- ----------------  -----------
CUR_INT_BOT.M                2420:  Current interpolated bottom
PROJECT.     New Zealand Log QC Project:  
SET  .     A0_FINAL_INTER_REF_D:  
ELEVATION_AMSL.M              267.94:  Elevation above mean sea level
ELEVATION_REF.                   KB:  Measurement reference
FORMATION_AT_TD.             Manganui:  Formation at TD
GL_ELEVATION_AMSL.M            263.2000:  Ground level elevation above mean sea level
LICENCE_NUMBER.             PPL38706:  Licence number
ONSHORE_OR_OFFSHORE.              Onshore:  Onshore/offshore
PR_NUMBER.               PR1863:  Petroleum report number
SPUD_DATE.           14/01/1993:  Spud date
STATUS_AT_COMPLETION.     Suspended as a potential oil producer:  Status at completion
TD_DATE.           08/02/1993:  Total depth date
TOTAL_DEPTH_DRILLED.M                2420:  Total depth drilled
~Other Information Block
# 
~A       DEPTH             BS           CALI           DENS           DRHO            DTC             GR        GR_CORR           NEUT      NEUT_CORR            PEF           RESD      RESD_CORR           RESS      RESS_CORR             SP           TEMP           TENS 
# ...
    1659.78840         8.5000         8.5879         2.4252      0.0134115        75.4556        93.1082        93.2018       0.214726       0.211100         3.0824         3.0196         3.0339         3.4100         3.4584        68.4968        59.8633      1260.3452
    1659.94080         8.5000         8.6068         2.4463      0.0141968        72.1753        90.7480        90.9330       0.204134       0.200463         3.1062         3.2350         3.2526         3.6440         3.6943        68.5894        59.8633      1256.1014
    1660.09320         8.5000         8.6022         2.4470      0.0141465        72.1096        92.1758        92.3376       0.206886       0.203224         3.0966         3.1678         3.1844         3.5757         3.6255        68.6003        59.8633      1253.4656
    1660.24560         8.5000         8.5827         2.4347      0.0135653        74.0860        96.0095        96.0756       0.218114       0.214495         3.0657         2.9211         2.9341         3.3153         3.3632        68.5593        59.8633      1251.8511
    1660.39800         8.5000         8.5631         2.4224      0.0129842        76.0623        99.8432        99.8136       0.229341       0.225767         3.0348         2.6745         2.6837         3.0549         3.1009        68.5182        59.8633      1250.2366
    1660.55040         8.5000         8.5502         2.4112      0.0127558        78.0552       103.0571       102.9636       0.239620       0.236012         3.0043         2.4982         2.5048         2.8677         2.9125        68.5388        59.8633      1248.9570
    1660.70280         8.5000         8.5505         2.4022      0.0132412        80.0817       105.0167       104.9236       0.247979       0.244180         2.9744         2.4643         2.4705         2.8287         2.8735        68.6841        59.8633      1248.3552
    1660.85520         8.5000         8.5509         2.3932      0.0137267        82.1083       106.9763       106.8836       0.256338       0.252348         2.9446         2.4304         2.4362         2.7896         2.8346        68.8293        59.8633      1247.7534
    1661.00760         8.5000         8.5513         2.3847      0.0142170        84.0316       108.7160       108.6239       0.264105       0.259937         2.9163         2.4008         2.4063         2.7559         2.8009        68.9702        59.8634      1247.1121
    1661.16000         8.5000         8.5516         2.3858      0.0148006        83.9891       106.2662       106.1780       0.260603       0.256506         2.9173         2.4544         2.4606         2.8229         2.8679        69.0287        59.8658      1245.7157
    1661.31240         8.5000         8.5520         2.3869      0.0153842        83.9466       103.8164       103.7321       0.257101       0.253074         2.9184         2.5080         2.5148         2.8900         2.9349        69.0872        59.8681      1244.3193
    1661.46480         8.5000         8.5523         2.3880      0.0159678        83.9041       101.3666       101.2862       0.253598       0.249643         2.9195         2.5616         2.5691         2.9570         3.0019        69.1457        59.8705      1242.9230
    1661.61720         8.5000         8.5524         2.3925      0.0160739        83.7784       101.0474       100.9678       0.256566       0.252545         2.9230         2.6287         2.6370         3.0259         3.0706        68.9869        59.8820      1242.4340
    1661.76960         8.5000         8.5524         2.3979      0.0160365        83.6277       101.3682       101.2883       0.261477       0.257348         2.9273         2.6999         2.7090         3.0953         3.1400        68.7628        59.8962      1242.2175
    1661.92200         8.5000         8.5524         2.4034      0.0159992        83.4769       101.6889       101.6088       0.266387       0.262152         2.9316         2.7711         2.7810         3.1647         3.2093        68.5388        59.9105      1242.0011
    1662.07440         8.5000         8.5524         2.4078      0.0166428        83.4348       102.1384       102.0579       0.266796       0.262552         2.9274         2.8084         2.8187         3.1985         3.2430        68.4799        59.9121      1242.1559
    1662.22680         8.5000         8.5524         2.4112      0.0180001        83.5064       102.7227       102.6418       0.262485       0.258336         2.9144         2.8101         2.8204         3.1949         3.2393        68.5943        59.9005      1242.7000
    1662.37920         8.5000         8.5524         2.4147      0.0193575        83.5780       103.3071       103.2257       0.258173       0.254120         2.9014         2.8118         2.8221         3.1912         3.2357        68.7086        59.8890      1243.2441
    1662.53160         8.5000         8.5524         2.4166      0.0198487        83.6274       103.7943       103.7125       0.255372       0.251381         2.8990         2.8115         2.8219         3.1862         3.2307        68.8032        59.8833      1243.7518
    1662.68400         8.5000         8.5523         2.4128      0.0170287        83.5918       103.9104       103.8281       0.258343       0.254288         2.9370         2.8040         2.8143         3.1757         3.2202        68.8225        59.9000      1244.1205
    1662.83640         8.5000         8.5523         2.4089      0.0142087        83.5561       104.0264       103.9438       0.261314       0.257195         2.9751         2.7964         2.8067         3.1652         3.2097        68.8418        59.9168      1244.4890
    1662.98880         8.5000         8.5522         2.4051      0.0113887        83.5205       104.1425       104.0595       0.264284       0.260102         3.0131         2.7889         2.7990         3.1547         3.1992        68.8611        59.9335      1244.8577
    1663.14120         8.5000         8.5514         2.4025      0.0121780        83.5960       103.6687       103.5815       0.262999       0.258861         3.0084         2.7389         2.7484         3.1040         3.1486        69.1626        59.9342      1243.0344
    1663.29360         8.5000         8.5505         2.4000      0.0132536        83.6803       103.1482       103.0564       0.261376       0.257291         3.0004         2.6856         2.6945         3.0502         3.0948        69.4864        59.9336      1241.0375
    1663.44600         8.5000         8.5495         2.3975      0.0143292        83.7646       102.6277       102.5313       0.259753       0.255721         2.9923         2.6322         2.6405         2.9965         3.0410        69.8102        59.9331      1239.0404
    1663.59840         8.5000         8.5538         2.3976      0.0154020        83.7762       102.6205       102.5471       0.257485       0.253428         2.9767         2.6419         2.6504         3.0081         3.0530        69.9322        59.9418      1240.8439
    1663.75080         8.5000         8.5608         2.3991      0.0164733        83.7479       102.8950       102.8597       0.254863       0.250737         2.9569         2.6862         2.6955         3.0556         3.1011        69.9434        59.9556      1244.7329
    1663.90320         8.5000         8.5679         2.4006      0.0175446        83.7195       103.1695       103.1724       0.252241       0.248047         2.9371         2.7304         2.7406         3.1031         3.1492        69.9546        59.9695      1248.6221
    1664.05560         8.5000         8.5711         2.4029      0.0183608        83.6278       102.8186       102.8389       0.250649       0.246432         2.9330         2.7814         2.7923         3.1568         3.2031        69.8722        59.9771      1250.3783
    1664.20800         8.5000         8.5676         2.4068      0.0187328        83.4258       101.3787       101.3807       0.250849       0.246689         2.9563         2.8442         2.8556         3.2211         3.2670        69.6271        59.9737      1248.4214
