~Version Information Block
VERS .                 2.00:  CWLS LOG ASCII STANDARD - VERSION 2.00
WRAP .                   NO:  One line per depth step
~Well Information Block
#MNEM.UNIT        Data Type   Information
#---------- ----------------  -----------
STRT .M           514.50240:  START DEPTH
STOP .M          1925.26920:  STOP DEPTH
STEP .M             0.15240:  STEP
NULL .              -999.25:  NULL VALUE
COMP .                     :  COMPANY
WELL .            Ngatoro-6:  WELL
FLD  .                     :  FIELD
LOC  .                     :  LOCATION
CTRY .                     :  COUNTRY
STAT .                     :  STATE
CNTY .                     :  COUNTY
SRVC .     New Zealand Petroleum Co Ltd:  SERVICE COMPANY
DATE .                     :  DATE
API  .                     :  API NUMBER
UWI  .         100000210185:  UNIQUE WELL ID
LATI .          -39.2039386:  LATITUDE
LONG .          174.1707675:  LONGITUDE
~Curve Information Block
#MNEM.UNIT         API CODE   Curve Description
#---------- ----------------  -----------------
DEPTH.M                    :  
BS   .IN                   :  Bit Size (Created in Geolog)
CALI .IN                   :  CALIPER (HCAL)
DENS .G/C3                 :  Bulk Density (RHOZ) and HR Bulk Density (RHO8)
DTC  .US/F                 :  Delta Time Compressional (DTCO)
DTS  .US/F                 :  Delta-T Shear (DTSM)
GR   .GAPI                 :  Gamma Ray (GR) and HR Gamma Ray (HGR)
NEUT .V/V                  :  Neutron Porosity (NPHI) and HR Neutron Porosity (HTNP)
NEUT_CORR.V/V                  :  Corrected NPHI (limestone units)
PEF  .B/E                  :  HRDD Std Resolution Formation Photoelectric Factor (PEFZ) and (PEF8)
RESD .OHMM                 :  HALS Deep Res. (HLLD) and HR HALS Deep Res. (HRLD)
RESS .OHMM                 :  HALS Shallow Res. (HLLS) and HR HALS Shallow Res. (HRLS)
SP   .MV                   :  Spontaneous Potential (SP)
~Parameter Information Block
#MNEM.UNIT            Value   Description
#---------- ----------------  -----------
CUR_INT_BOT.M                1930:  Current interpolated bottom
PROJECT.     New Zealand Log QC Project:  
SET  .     A0_FINAL_INTER_REF_D:  
ELEVATION_AMSL.M                 328:  Elevation above mean sea level
ELEVATION_REF.                   KB:  Measurement reference
FORMATION_AT_TD.      Mount Messenger:  Formation at TD
GL_ELEVATION_AMSL.M            322.5000:  Ground level elevation above mean sea level
LICENCE_NUMBER.             PPL38706:  Licence number
ONSHORE_OR_OFFSHORE.              Onshore:  Onshore/offshore
PR_NUMBER.               PR2214:  Petroleum report number
SPUD_DATE.           27/03/1996:  Spud date
STATUS_AT_COMPLETION.     Suspended with 7" casing cemented in place:  Status at completion
TD_DATE.           04/04/1996:  Total depth date
TOTAL_DEPTH_DRILLED.M                1930:  Total depth drilled
~Other Information Block
# 
~A       DEPTH             BS           CALI           DENS            DTC            DTS             GR           NEUT      NEUT_CORR            PEF           RESD           RESS             SP 
# ...
    1180.18560         8.5000         9.0322         2.3560      -999.2500      -999.2500       110.4846       0.336475       0.334543         3.2591         2.3182         2.4482       208.2103
    1180.33800         8.5000         9.0047         2.3583      -999.2500      -999.2500       110.1537       0.341162       0.338483         3.2589         2.3476         2.4740       208.4030
    1180.49040         8.5000         8.9773         2.3606      -999.2500      -999.2500       109.8229       0.345849       0.342424         3.2587         2.3771         2.4998       208.5958
    1180.64280         8.5000         9.0063         2.3581      -999.2500      -999.2500       111.6933       0.328516       0.325447         3.2722         2.3704         2.4861       208.7742
    1180.79520         8.5000         9.0391         2.3554      -999.2500      -999.2500       113.7118       0.309702       0.307065         3.2865         2.3613         2.4697       208.9516
    1180.94760         8.5000         9.0719         2.3526      -999.2500      -999.2500       115.7302       0.290889       0.288682         3.3009         2.3523         2.4533       209.1290
    1181.10000         8.5000         9.0582         2.3515      -999.2500      -999.2500       115.4510       0.292457       0.290279         3.2970         2.3474         2.4411       209.2332
    1181.25240         8.5000         9.0202         2.3512      -999.2500      -999.2500       113.9679       0.304706       0.302344         3.2836         2.3448         2.4311       209.2991
    1181.40480         8.5000         8.9821         2.3509      -999.2500      -999.2500       112.4848       0.316955       0.314409         3.2702         2.3422         2.4211       209.3649
    1181.55720         8.5000         8.9566         2.3522      -999.2500      -999.2500       111.3087       0.318673       0.315940         3.2618         2.3541         2.4289       209.3750
    1181.70960         8.5000         8.9518         2.3559      -999.2500      -999.2500       110.6434       0.302864       0.299937         3.2616         2.3904         2.4663       209.2921
    1181.86200         8.5000         8.9470         2.3597      -999.2500      -999.2500       109.9780       0.287055       0.283935         3.2614         2.4266         2.5037       209.2093
    1182.01440         8.5000         8.9445         2.3630      -999.2500      -999.2500       109.3761       0.274336       0.271066         3.2663         2.4573         2.5359       209.1250
    1182.16680         8.5000         8.9633         2.3613      -999.2500      -999.2500       109.3824       0.291225       0.288219         3.3201         2.4347         2.5186       209.0275
    1182.31920         8.5000         8.9821         2.3597      -999.2500      -999.2500       109.3886       0.308115       0.305372         3.3738         2.4121         2.5014       208.9299
    1182.47160         8.5000         9.0008         2.3580      -999.2500      -999.2500       109.3949       0.325005       0.322525         3.4276         2.3895         2.4842       208.8323
    1182.62400         8.5000         9.0151         2.3588      -999.2500      -999.2500       110.1620       0.331124       0.329088         3.4347         2.3771         2.4747       208.9463
    1182.77640         8.5000         9.0283         2.3601      -999.2500      -999.2500       111.1035       0.334776       0.333225         3.4311         2.3670         2.4669       209.1088
    1182.92880         8.5000         9.0416         2.3614      -999.2500      -999.2500       112.0449       0.338429       0.337362         3.4275         2.3570         2.4592       209.2713
    1183.08120         8.5000         9.0400         2.3619      -999.2500      -999.2500       112.3768       0.337889       0.336922         3.4149         2.3502         2.4534       209.5281
    1183.23360         8.5000         9.0253         2.3618      -999.2500      -999.2500       112.1740       0.333674       0.332469         3.3945         2.3464         2.4492       209.8674
    1183.38600         8.5000         9.0106         2.3616      -999.2500      -999.2500       111.9713       0.329458       0.328016         3.3741         2.3426         2.4451       210.2068
    1183.53840         8.5000         9.0041         2.3628      -999.2500      -999.2500       111.2967       0.321387       0.319498         3.3605         2.3513         2.4534       210.5447
    1183.69080         8.5000         9.0214         2.3680      -999.2500      -999.2500       109.2213       0.301870       0.298911         3.3671         2.3973         2.4990       210.8783
    1183.84320         8.5000         9.0388         2.3733      -999.2500      -999.2500       107.1460       0.282354       0.278324         3.3737         2.4434         2.5446       211.2120
    1183.99560         8.5000         9.0562         2.3785      -999.2500      -999.2500       105.0706       0.262837       0.257737         3.3803         2.4894         2.5901       211.5456
    1184.14800         8.5000         9.0469         2.3837      -999.2500      -999.2500       106.2603       0.271008       0.266585         3.4013         2.5060         2.6039       211.5737
    1184.30040         8.5000         9.0368         2.3889      -999.2500      -999.2500       107.5471       0.280003       0.276307         3.4227         2.5218         2.6167       211.5927
    1184.45280         8.5000         9.0267         2.3941      -999.2500      -999.2500       108.8339       0.288997       0.286030         3.4441         2.5375         2.6295       211.6117
    1184.60520         8.5000         9.0274         2.3889      -999.2500      -999.2500       107.9578       0.296959       0.294180         3.4139         2.5060         2.5964       211.6750
    1184.75760         8.5000         9.0329         2.3790      -999.2500      -999.2500       106.1113       0.304458       0.301625         3.3605         2.4533         2.5427       211.7581
    1184.91000         8.5000         9.0384         2.3691      -999.2500      -999.2500       104.2649       0.311957       0.309069         3.3071         2.4006         2.4890       211.8412
    1185.06240         8.5000         9.0403         2.3608      -999.2500      -999.2500       104.0188       0.313761       0.311001         3.2770         2.3683         2.4571       211.7681
    1185.21480         8.5000         9.0368         2.3548      -999.2500      -999.2500       106.0810       0.307352       0.304981         3.2807         2.3652         2.4567       211.4697
    1185.36720         8.5000         9.0333         2.3489      -999.2500      -999.2500       108.1432       0.300943       0.298962         3.2843         2.3622         2.4562       211.1713
    1185.51960         8.5000         9.0299         2.3439      -999.2500      -999.2500       109.9449       0.296763       0.295160         3.2873         2.3598         2.4558       210.9070
    1185.67200         8.5000         9.0276         2.3456      -999.2500      -999.2500       109.9816       0.307688       0.306383         3.2854         2.3619         2.4553       210.8734
    1185.82440         8.5000         9.0252         2.3473      -999.2500      -999.2500       110.0183       0.318614       0.317606         3.2836         2.3640         2.4548       210.8399
    1185.97680         8.5000         9.0228         2.3490      -999.2500      -999.2500       110.0550       0.329540       0.328828         3.2817         2.3661         2.4544       210.8064
    1186.12920         8.5000         9.0254         2.3517      -999.2500      -999.2500       109.6245       0.332303       0.331825         3.2673         2.3739         2.4572       210.8929
    1186.28160         8.5000         9.0289         2.3545      -999.2500      -999.2500       109.1101       0.333599       0.333345         3.2507         2.3827         2.4606       211.0010
    1186.43400         8.5000         9.0324         2.3574      -999.2500      -999.2500       108.5957       0.334896       0.334865         3.2340         2.3915         2.4640       211.1090
