~Version Information Block
VERS .                 2.00:  CWLS LOG ASCII STANDARD - VERSION 2.00
WRAP .                   NO:  One line per depth step
~Well Information Block
#MNEM.UNIT        Data Type   Information
#---------- ----------------  -----------
STRT .M            16.61160:  START DEPTH
STOP .M          1898.90400:  STOP DEPTH
STEP .M             0.15240:  STEP
NULL .              -999.25:  NULL VALUE
COMP .                     :  COMPANY
WELL .         Ngatoro-3ST1:  WELL
FLD  .                     :  FIELD
LOC  .                     :  LOCATION
CTRY .                     :  COUNTRY
STAT .                     :  STATE
CNTY .                     :  COUNTY
SRVC .     Greymouth Petroleum Ltd:  SERVICE COMPANY
DATE .                     :  DATE
API  .                     :  API NUMBER
UWI  .         100000787700:  UNIQUE WELL ID
LATI .          -39.1846084:  LATITUDE
LONG .          174.1883756:  LONGITUDE
~Curve Information Block
#MNEM.UNIT         API CODE   Curve Description
#---------- ----------------  -----------------
DEPTH.M                    :  
BS   .IN                   :  Bit Size (Created in Geolog)
CALI .IN                   :  HRCC Cal. Caliper (HCAL)
DENS .G/C3                 :  HRDD High Resolution Formation Density (RHO8)
DRHO .G/C3                 :  HRDD Density Correction (HDRA)
GR   .GAPI                 :  HiRes Gamma-Ray (EHGR)
NEUT .V/V                  :  HiRes Thermal Neutron Porosity (HTNP)
PEF  .B/E                  :  HRDD High Resolution Formation Photoelectric Factor (PEF8)
RESD .OHMM                 :  Array Induction Two Foot Resistivity A90 (AHT90)
RESM .OHMM                 :  Array Induction Two Foot Resistivity A30 (AHT30)
RESS .OHMM                 :  Array Induction Two Foot Resistivity A10 (AHT10)
SP   .MV                   :  SP Shifted (SP)
TEMP .DEGC                 :  HTC Temperature (HTEM)
TENS .KGF                  :  Cable Tension (TENS)
~Parameter Information Block
#MNEM.UNIT            Value   Description
#---------- ----------------  -----------
CUR_INT_BOT.M                1899:  Current interpolated bottom
PROJECT.     New Zealand Log QC Project:  
SET  .     A0_FINAL_INTER_REF_D:  
ELEVATION_AMSL.M              262.91:  Elevation above mean sea level
ELEVATION_REF.                   DF:  Measurement reference
FORMATION_AT_TD.             Manganui:  Formation at TD
GL_ELEVATION_AMSL.M            259.3000:  Ground level elevation above mean sea level
KICK_OFF_DATE.           26/09/2005:  Kick off date
KICK_OFF_DEPTH.M                 645:  Kick off depth
LICENCE_NUMBER.             PMP38148:  Licence number
ONSHORE_OR_OFFSHORE.              Onshore:  Onshore/offshore
PARENT_WELL.            Ngatoro-3:  Parent well
PR_NUMBER.               PR3237:  Petroleum report number
STATUS_AT_COMPLETION.     Completed ready for perforating:  Status at completion
TD_DATE.           05/10/2005:  Total depth date
TOTAL_DEPTH_DRILLED.M             1898.82:  Total depth drilled
~Other Information Block
# 
~A       DEPTH             BS           CALI           DENS           DRHO             GR           NEUT            PEF           RESD           RESM           RESS             SP           TEMP           TENS 
# ...
    1894.78920         6.0000         6.0005         2.3072   -999.2500000       100.1601       0.322626      -999.2500         1.8782         2.1923         2.4397       350.8226        55.2003      1451.5760
    1894.94160         6.0000         5.9983         2.3166   -999.2500000       101.8330       0.322880      -999.2500         1.8069         2.0226         2.1949       351.8730        55.2003      1449.0558
    1895.09400         6.0000         5.9974         2.3180   -999.2500000       102.1930       0.322739      -999.2500         1.7938         1.9386         2.0829       353.7840        55.2003      1454.4333
    1895.24640         6.0000         5.9972         2.3146   -999.2500000       101.7373       0.322354      -999.2500         1.8168         1.9080         2.0534       356.2296        55.2003      1464.7175
    1895.39880         6.0000         5.9970         2.3112   -999.2500000       101.2817       0.321968      -999.2500         1.8398         1.8774         2.0238       358.6753        55.2003      1475.0018
    1895.55120         6.0000         5.9968         2.3074   -999.2500000       101.0143       0.321445      -999.2500      -999.2500         1.8748         2.0176       359.9970        55.2003      1479.8260
    1895.70360         6.0000         5.9967         2.3028   -999.2500000       101.1192       0.320649      -999.2500      -999.2500         1.9277         2.0574       359.0973        55.2003      1473.8583
    1895.85600         6.0000         5.9966         2.2983   -999.2500000       101.2241       0.319854      -999.2500      -999.2500         1.9805         2.0972       358.1976        55.2003      1467.8906
    1896.00840         6.0000      -999.2500         2.2942   -999.2500000       101.3774       0.319096      -999.2500      -999.2500         2.0305         2.1344       357.0229        55.2003      1461.9270
    1896.16080         6.0000      -999.2500         2.2963   -999.2500000       102.3599       0.318999      -999.2500      -999.2500         2.0311         2.1258       351.1352        55.2003      1456.0342
    1896.31320         6.0000      -999.2500         2.2985   -999.2500000       103.3424       0.318902      -999.2500      -999.2500         2.0316         2.1172       345.2474        55.2003      1450.1412
    1896.46560         6.0000      -999.2500         2.3006   -999.2500000       104.3249       0.318805      -999.2500      -999.2500         2.0321         2.1086       339.3596        55.2003      1444.2484
    1896.61800         6.0000      -999.2500         2.3012   -999.2500000       103.3365       0.319001      -999.2500      -999.2500         2.0350      -999.2500       332.6240        55.2003      1447.2000
    1896.77040         6.0000      -999.2500         2.3013   -999.2500000       101.7735       0.319281      -999.2500      -999.2500         2.0387      -999.2500       325.6412        55.2003      1452.7299
    1896.92280         6.0000      -999.2500         2.3014   -999.2500000       100.2106       0.319562      -999.2500      -999.2500         2.0423      -999.2500       318.6584        55.2003      1458.2598
    1897.07520         6.0000      -999.2500         2.3026   -999.2500000        99.4420       0.320369      -999.2500      -999.2500         2.0370      -999.2500       312.7086        55.2003      1452.2222
    1897.22760         6.0000      -999.2500         2.3050   -999.2500000        99.4890       0.321715      -999.2500      -999.2500         2.0226      -999.2500       307.8195        55.2003      1434.3092
    1897.38000         6.0000      -999.2500         2.3074   -999.2500000        99.5360       0.323061      -999.2500      -999.2500         2.0081      -999.2500       302.9303        55.2003      1416.3962
    1897.53240         6.0000      -999.2500         2.3085   -999.2500000        99.3540       0.322965      -999.2500      -999.2500         1.9972      -999.2500       300.3509        55.2003      1403.1224
    1897.68480         6.0000      -999.2500         2.3051   -999.2500000        98.3235       0.317522      -999.2500      -999.2500         1.9994      -999.2500       306.3262        55.2003      1407.0306
    1897.83720         6.0000      -999.2500         2.3017   -999.2500000        97.2931       0.312080      -999.2500      -999.2500         2.0016      -999.2500       312.3015        55.2003      1410.9387
    1897.98960         6.0000      -999.2500         2.2983   -999.2500000        96.2626       0.306638      -999.2500      -999.2500         2.0039      -999.2500       318.2769        55.2003      1414.8468
    1898.14200         6.0000      -999.2500      -999.2500   -999.2500000        98.4124       0.310921      -999.2500      -999.2500         2.0046      -999.2500       319.6418        55.2003      -999.2500
    1898.29440         6.0000      -999.2500      -999.2500   -999.2500000       100.7952       0.315915      -999.2500      -999.2500         2.0052      -999.2500       320.6692        55.2003      -999.2500
    1898.44680         6.0000      -999.2500      -999.2500   -999.2500000       103.1779       0.320910      -999.2500      -999.2500         2.0058      -999.2500       321.6965        55.2003      -999.2500
    1898.59920         6.0000      -999.2500      -999.2500   -999.2500000       105.0781       0.321253      -999.2500      -999.2500      -999.2500      -999.2500       328.0592        55.2003      -999.2500
    1898.75160         6.0000      -999.2500      -999.2500   -999.2500000       106.7194       0.319100      -999.2500      -999.2500      -999.2500      -999.2500       337.2832        55.2003      -999.2500
    1898.90400         6.0000      -999.2500      -999.2500   -999.2500000       108.3608       0.316947      -999.2500      -999.2500      -999.2500      -999.2500       346.5073        55.2003      -999.2500
