~Version Information Block
VERS .                 2.00:  CWLS LOG ASCII STANDARD - VERSION 2.00
WRAP .                   NO:  One line per depth step
~Well Information Block
#MNEM.UNIT        Data Type   Information
#---------- ----------------  -----------
STRT .M           527.15160:  START DEPTH
STOP .M          2099.31000:  STOP DEPTH
STEP .M             0.15240:  STEP
NULL .              -999.25:  NULL VALUE
COMP .                     :  COMPANY
WELL .            Ngatoro-8:  WELL
FLD  .                     :  FIELD
LOC  .                     :  LOCATION
CTRY .                     :  COUNTRY
STAT .                     :  STATE
CNTY .                     :  COUNTY
SRVC .     New Zealand Petroleum Co Ltd:  SERVICE COMPANY
DATE .                     :  DATE
API  .                     :  API NUMBER
UWI  .         100000210422:  UNIQUE WELL ID
LATI .          -39.2038856:  LATITUDE
LONG .          174.1703227:  LONGITUDE
~Curve Information Block
#MNEM.UNIT         API CODE   Curve Description
#---------- ----------------  -----------------
DEPTH.M                    :  
BS   .IN                   :  Bit Size (Created in Geolog)
CALI .IN                   :  Caliper (HCAL)
DENS .G/C3                 :  Bulk Density (RHOZ) and HR Bulk Density (RHO8)
DTC  .US/F                 :  Delta Time (DT)
GR   .GAPI                 :  Gamma Ray (GR) and HR Gamma Ray (HGR)
NEUT .V/V                  :  Neutron Porosity (NPHI) and HR Neutron Porosity (HTNP)
NEUT_CORR.V/V                  :  Corrected NPHI (limestone units)
PEF  .B/E                  :  Photoelectric Factor (PEF) and (PEFZ)
RESD .OHMM                 :  HALS Deep Res. (HLLD) and HR HALS Deep Res. (HRLD)
RESS .OHMM                 :  HALS Shallow Res. (HLLS) and HR HALS Shallow Res. (HRLS)
SP   .MV                   :  Spontaneous Potential (SP)
~Parameter Information Block
#MNEM.UNIT            Value   Description
#---------- ----------------  -----------
CUR_INT_BOT.M                2100:  Current interpolated bottom
PROJECT.     New Zealand Log QC Project:  
SET  .     A0_FINAL_INTER_REF_D:  
ELEVATION_AMSL.M                 328:  Elevation above mean sea level
ELEVATION_REF.                   KB:  Measurement reference
FORMATION_AT_TD.             Manganui:  Formation at TD
GL_ELEVATION_AMSL.M            322.5000:  Ground level elevation above mean sea level
LICENCE_NUMBER.             PPL38706:  Licence number
ONSHORE_OR_OFFSHORE.              Onshore:  Onshore/offshore
PR_NUMBER.               PR2216:  Petroleum report number
SPUD_DATE.           22/04/1996:  Spud date
STATUS_AT_COMPLETION.     Suspended with 7" casing cemented to TD:  Status at completion
TD_DATE.           29/04/1996:  Total depth date
TOTAL_DEPTH_DRILLED.M                2100:  Total depth drilled
~Other Information Block
# 
~A       DEPTH             BS           CALI           DENS            DTC             GR           NEUT      NEUT_CORR            PEF           RESD           RESS             SP 
# ...
    1164.94560         8.5000         8.4457         2.3168        99.2502        91.6163       0.282181       0.276797         3.1553         2.0380         2.1420        57.5229
    1165.09800         8.5000         8.4604         2.3054        99.3810        91.5950       0.280795       0.275480         3.1227         1.9268         2.0312        57.7555
    1165.25040         8.5000         8.4792         2.3060        99.3660        93.0184       0.284036       0.278821         3.1131         1.9703         2.0763        57.9195
    1165.40280         8.5000         8.4980         2.3067        99.3511        94.4417       0.287277       0.282162         3.1034         2.0138         2.1213        58.0835
    1165.55520         8.5000         8.5061         2.3067        99.3361        95.6088       0.291545       0.286488         3.1206         2.0507         2.1575        58.2017
    1165.70760         8.5000         8.4955         2.3057        99.3211        96.3245       0.297622       0.292549         3.1849         2.0762         2.1782        58.2391
    1165.86000         8.5000         8.4849         2.3048        99.3061        97.0403       0.303699       0.298611         3.2492         2.1016         2.1988        58.2766
    1166.01240         8.5000         8.4767         2.3044        99.2911        97.8490       0.309419       0.304319         3.3086         2.1320         2.2240        58.2895
    1166.16480         8.5000         8.4951         2.3112        99.2761        99.7076       0.311102       0.306042         3.3133         2.2199         2.3005        58.0263
    1166.31720         8.5000         8.5135         2.3179        99.2611       101.5661       0.312785       0.307765         3.3179         2.3078         2.3770        57.7632
    1166.46960         8.5000         8.5320         2.3246        99.2462       103.4247       0.314468       0.309487         3.3225         2.3957         2.4535        57.5000
    1166.62200         8.5000         8.5411         2.3305        99.2312       104.6163       0.311571       0.306537         3.3137         2.4254         2.4839        57.2332
    1166.77440         8.5000         8.5479         2.3362        99.2162       105.6417       0.307533       0.302421         3.3015         2.4407         2.5028        56.9655
    1166.92680         8.5000         8.5547         2.3418        99.2012       106.6672       0.303495       0.298306         3.2893         2.4559         2.5217        56.6978
    1167.07920         8.5000         8.5590         2.3441        99.1862       106.4480       0.304194       0.299041         3.2826         2.4633         2.5350        56.6308
    1167.23160         8.5000         8.5608         2.3431        99.1712       105.0786       0.309270       0.304260         3.2810         2.4634         2.5434        56.7494
    1167.38400         8.5000         8.5627         2.3422        99.1562       103.7092       0.314347       0.309479         3.2794         2.4635         2.5517        56.8679
    1167.53640         8.5000         8.5640         2.3413        99.1413       102.5393       0.319177       0.314504         3.2875         2.4636         2.5594        56.9627
    1167.68880         8.5000         8.5637         2.3404        99.1263       102.0051       0.323220       0.318909         3.3263         2.4634         2.5656        56.9815
    1167.84120         8.5000         8.5635         2.3396        99.1113       101.4710       0.327263       0.323314         3.3651         2.4632         2.5717        57.0003
    1167.99360         8.5000         8.5632         2.3387        99.0963       100.9368       0.331305       0.327719         3.4040         2.4630         2.5778        57.0191
    1168.14600         8.5000         8.5704         2.3430        99.0813       103.0751       0.327079       0.322942         3.4250         2.4927         2.6096        57.4386
    1168.29840         8.5000         8.5779         2.3474        99.0663       105.3305       0.322490       0.317763         3.4452         2.5236         2.6424        57.8756
    1168.45080         8.5000         8.5854         2.3519        99.0513       107.5860       0.317900       0.312584         3.4653         2.5546         2.6752        58.3127
    1168.60320         8.5000         8.5896         2.3531        99.0364       108.1015       0.318551       0.313429         3.4457         2.5353         2.6586        58.4910
    1168.75560         8.5000         8.5921         2.3527        99.0214       107.7875       0.321699       0.317145         3.4070         2.4919         2.6184        58.5460
    1168.90800         8.5000         8.5945         2.3523        99.0064       107.4735       0.324847       0.320862         3.3683         2.4486         2.5781        58.6010
    1169.06040         8.5000         8.5989         2.3527        98.9914       106.9545       0.325132       0.321238         3.3378         2.4300         2.5617        58.6180
    1169.21280         8.5000         8.6061         2.3543        98.9764       106.1231       0.321058       0.316525         3.3200         2.4492         2.5814        58.5772
    1169.36520         8.5000         8.6133         2.3558        98.9614       105.2918       0.316983       0.311813         3.3022         2.4683         2.6011        58.5363
    1169.51760         8.5000         8.6193         2.3574        98.9464       104.7354       0.313005       0.307287         3.2868         2.4883         2.6211        58.4704
    1169.67000         8.5000         8.6154         2.3596        98.9314       106.2851       0.309766       0.304187         3.2903         2.5143         2.6426        58.2127
    1169.82240         8.5000         8.6116         2.3617        98.9165       107.8348       0.306527       0.301086         3.2939         2.5402         2.6641        57.9550
    1169.97480         8.5000         8.6078         2.3638        98.9015       109.3845       0.303288       0.297986         3.2974         2.5662         2.6857        57.6973
    1170.12720         8.5000         8.6066         2.3621        96.8787       109.7268       0.301586       0.296363         3.3199         2.5631         2.6779        57.4688
    1170.27960         8.5000         8.6061         2.3596        94.4581       109.8299       0.300188       0.295033         3.3462         2.5542         2.6643        57.2460
    1170.43200         8.5000         8.6055         2.3571        92.0376       109.9330       0.298790       0.293703         3.3725         2.5452         2.6506        57.0232
    1170.58440         8.5000         8.6008         2.3529        87.0520       110.1700       0.299629       0.294535         3.3748         2.5264         2.6302        56.9713
    1170.73680         8.5000         8.5929         2.3475        79.9999       110.5151       0.302269       0.297108         3.3578         2.4994         2.6043        57.0571
    1170.88920         8.5000         8.5850         2.3421        72.9477       110.8601       0.304910       0.299681         3.3409         2.4725         2.5784        57.1429
    1171.04160         8.5000         8.5783         2.3378        70.3479       111.4819       0.304356       0.299056         3.3340         2.4486         2.5566        57.2648
    1171.19400         8.5000         8.5747         2.3363        79.6068       112.8407       0.295295       0.289913         3.3539         2.4327         2.5455        57.4829
    1171.34640         8.5000         8.5711         2.3349        88.8657       114.1995       0.286233       0.280770         3.3739         2.4168         2.5345        57.7011
    1171.49880         8.5000         8.5675         2.3335        98.1246       115.5583       0.277172       0.271627         3.3938         2.4008         2.5235        57.9192
    1171.65120         8.5000         8.5731         2.3355        98.2000       114.3990       0.291409       0.286225         3.3785         2.4190         2.5480        58.2104
