~Version Information Block
VERS .                 2.00:  CWLS LOG ASCII STANDARD - VERSION 2.00
WRAP .                   NO:  One line per depth step
~Well Information Block
#MNEM.UNIT        Data Type   Information
#---------- ----------------  -----------
STRT .M           514.50240:  START DEPTH
STOP .M          1925.26920:  STOP DEPTH
STEP .M             0.15240:  STEP
NULL .              -999.25:  NULL VALUE
COMP .                     :  COMPANY
WELL .            Ngatoro-6:  WELL
FLD  .                     :  FIELD
LOC  .                     :  LOCATION
CTRY .                     :  COUNTRY
STAT .                     :  STATE
CNTY .                     :  COUNTY
SRVC .     New Zealand Petroleum Co Ltd:  SERVICE COMPANY
DATE .                     :  DATE
API  .                     :  API NUMBER
UWI  .         100000210185:  UNIQUE WELL ID
LATI .          -39.2039386:  LATITUDE
LONG .          174.1707675:  LONGITUDE
~Curve Information Block
#MNEM.UNIT         API CODE   Curve Description
#---------- ----------------  -----------------
DEPTH.M                    :  
BS   .IN                   :  Bit Size (Created in Geolog)
CALI .IN                   :  CALIPER (HCAL)
DENS .G/C3                 :  Bulk Density (RHOZ) and HR Bulk Density (RHO8)
DTC  .US/F                 :  Delta Time Compressional (DTCO)
DTS  .US/F                 :  Delta-T Shear (DTSM)
GR   .GAPI                 :  Gamma Ray (GR) and HR Gamma Ray (HGR)
NEUT .V/V                  :  Neutron Porosity (NPHI) and HR Neutron Porosity (HTNP)
NEUT_CORR.V/V                  :  Corrected NPHI (limestone units)
PEF  .B/E                  :  HRDD Std Resolution Formation Photoelectric Factor (PEFZ) and (PEF8)
RESD .OHMM                 :  HALS Deep Res. (HLLD) and HR HALS Deep Res. (HRLD)
RESS .OHMM                 :  HALS Shallow Res. (HLLS) and HR HALS Shallow Res. (HRLS)
SP   .MV                   :  Spontaneous Potential (SP)
~Parameter Information Block
#MNEM.UNIT            Value   Description
#---------- ----------------  -----------
CUR_INT_BOT.M                1930:  Current interpolated bottom
PROJECT.     New Zealand Log QC Project:  
SET  .     A0_FINAL_INTER_REF_D:  
ELEVATION_AMSL.M                 328:  Elevation above mean sea level
ELEVATION_REF.                   KB:  Measurement reference
FORMATION_AT_TD.      Mount Messenger:  Formation at TD
GL_ELEVATION_AMSL.M            322.5000:  Ground level elevation above mean sea level
LICENCE_NUMBER.             PPL38706:  Licence number
ONSHORE_OR_OFFSHORE.              Onshore:  Onshore/offshore
PR_NUMBER.               PR2214:  Petroleum report number
SPUD_DATE.           27/03/1996:  Spud date
STATUS_AT_COMPLETION.     Suspended with 7" casing cemented in place:  Status at completion
TD_DATE.           04/04/1996:  Total depth date
TOTAL_DEPTH_DRILLED.M                1930:  Total depth drilled
~Other Information Block
# 
~A       DEPTH             BS           CALI           DENS            DTC            DTS             GR           NEUT      NEUT_CORR            PEF           RESD           RESS             SP 
# ...
    1634.64240         8.5000         8.0437         2.3770        95.6176       177.1268       101.5781       0.263914       0.264923         3.2317         3.6186         3.6483       254.1147
    1634.79480         8.5000         8.0523         2.3634        96.4515       174.4750       100.6468       0.267330       0.268668         3.2145         3.5299         3.5606       254.2449
    1634.94720         8.5000         8.0609         2.3499        97.2853       171.8231        99.7156       0.270746       0.272413         3.1973         3.4411         3.4728       254.3751
    1635.09960         8.5000         8.0670         2.3504        97.5648       171.0079       100.0020       0.269279       0.270749         3.2100         3.3982         3.4440       254.1232
    1635.25200         8.5000         8.0719         2.3585        97.5504       171.1662       100.9338       0.265225       0.266217         3.2384         3.3796         3.4464       253.6687
    1635.40440         8.5000         8.0769         2.3665        97.5359       171.3245       101.8656       0.261170       0.261685         3.2668         3.3611         3.4489       253.2142
    1635.55680         8.5000         8.0822         2.3731        97.5392       172.8482       101.9567       0.258677       0.258877         3.2771         3.3615         3.4757       253.1416
    1635.70920         8.5000         8.0884         2.3772        97.5723       176.6701       100.6326       0.258813       0.258969         3.2569         3.3941         3.5437       253.7116
    1635.86160         8.5000         8.0946         2.3813        97.6054       180.4919        99.3085       0.258949       0.259061         3.2367         3.4266         3.6117       254.2816
    1636.01400         8.5000         8.1028         2.3854        97.6012       183.8321        98.2768       0.259591       0.259725         3.2184         3.4548         3.6739       254.8703
    1636.16640         8.5000         8.1319         2.3897        97.2277       182.4105       100.1350       0.265242       0.266038         3.2195         3.4401         3.6800       255.6440
    1636.31880         8.5000         8.1610         2.3939        96.8542       180.9889       101.9933       0.270892       0.272351         3.2206         3.4253         3.6861       256.4177
    1636.47120         8.5000         8.1901         2.3982        96.4807       179.5673       103.8516       0.276543       0.278665         3.2217         3.4106         3.6921       257.1914
    1636.62360         8.5000         8.1997         2.4008        94.7160       176.6423       102.8808       0.266577       0.268095         3.2226         3.5541         3.8384       257.3336
    1636.77600         8.5000         8.2047         2.4031        92.6272       173.3669       101.2507       0.252972       0.253592         3.2235         3.7344         4.0174       257.3287
    1636.92840         8.5000         8.2098         2.4053        90.5385       170.0916        99.6206       0.239367       0.239089         3.2243         3.9148         4.1964       257.3238
    1637.08080         8.5000         8.2075         2.4222        88.1630       167.6436        98.3421       0.229909       0.228944         3.2609         4.4126         4.6854       256.9782
    1637.23320         8.5000         8.1986         2.4519        85.5336       165.9288        97.3752       0.224125       0.222662         3.3291         5.1919         5.4493       256.3308
    1637.38560         8.5000         8.1898         2.4816        82.9041       164.2140        96.4082       0.218342       0.216380         3.3974         5.9711         6.2132       255.6834
    1637.53800         8.5000         8.1935         2.4967        81.6821       164.2333        96.4246       0.217804       0.215603         3.4366         6.3187         6.5523       254.9450
    1637.69040         8.5000         8.2350         2.4676        84.6972       169.4730        99.4012       0.233057       0.231400         3.3884         5.3668         5.6129       253.9324
    1637.84280         8.5000         8.2765         2.4385        87.7123       174.7127       102.3778       0.248310       0.247197         3.3401         4.4149         4.6736       252.9197
    1637.99520         8.5000         8.3179         2.4094        90.7274       179.9524       105.3544       0.263563       0.262994         3.2919         3.4630         3.7342       251.9071
    1638.14760         8.5000         8.3241         2.4010        91.5684       180.2212       105.7793       0.265031       0.264557         3.2736         3.3943         3.6756       251.8244
    1638.30000         8.5000         8.3291         2.3934        92.3387       180.3284       106.1212       0.266050       0.265657         3.2562         3.3543         3.6458       251.7720
    1638.45240         8.5000         8.3341         2.3857        93.1090       180.4355       106.4632       0.267069       0.266757         3.2388         3.3143         3.6159       251.7195
    1638.60480         8.5000         8.3414         2.3916        93.4677       180.6706       106.3297       0.267471       0.267161         3.2590         3.2857         3.5692       251.2110
    1638.75720         8.5000         8.3497         2.4037        93.6394       180.9639       105.9804       0.267594       0.267249         3.2962         3.2622         3.5149       250.4954
    1638.90960         8.5000         8.3580         2.4158        93.8110       181.2571       105.6311       0.267717       0.267337         3.3334         3.2388         3.4607       249.7798
    1639.06200         8.5000         8.3693         2.4233        93.5307       181.1543       105.5062       0.267280       0.266818         3.3582         3.2724         3.4664       249.1603
    1639.21440         8.5000         8.3852         2.4242        92.5911       180.4742       105.7086       0.266027       0.265416         3.3646         3.3894         3.5595       248.6808
    1639.36680         8.5000         8.4011         2.4251        91.6516       179.7940       105.9111       0.264774       0.264013         3.3711         3.5063         3.6526       248.2014
    1639.51920         8.5000         8.4176         2.4255        90.8567       179.3308       105.8779       0.264024       0.263175         3.3758         3.5961         3.7210       247.7827
    1639.67160         8.5000         8.4383         2.4224        91.0646       180.3727       104.2104       0.266763       0.266255         3.3680         3.4973         3.6187       247.7846
    1639.82400         8.5000         8.4589         2.4194        91.2725       181.4145       102.5428       0.269503       0.269334         3.3602         3.3985         3.5163       247.7866
    1639.97640         8.5000         8.4795         2.4163        91.4805       182.4564       100.8753       0.272242       0.272414         3.3525         3.2997         3.4140       247.7885
    1640.12880         8.5000         8.4942         2.4120        91.3474       182.7660       101.9400       0.278073       0.278941         3.3419         3.2386         3.3539       247.9537
    1640.28120         8.5000         8.5079         2.4074        91.1518       182.9414       103.5053       0.284470       0.286101         3.3309         3.1843         3.3016       248.1488
    1640.43360         8.5000         8.5215         2.4028        90.9563       183.1168       105.0707       0.290868       0.293260         3.3199         3.1300         3.2493       248.3438
    1640.58600         8.5000         8.5267         2.4058        90.9413       182.7537       105.9163       0.289375       0.291543         3.3257         3.1617         3.2861       248.2413
    1640.73840         8.5000         8.5255         2.4146        91.0658       181.9748       106.2063       0.281791       0.282973         3.3445         3.2598         3.3917       247.9090
    1640.89080         8.5000         8.5244         2.4235        91.1903       181.1959       106.4962       0.274206       0.274403         3.3633         3.3580         3.4973       247.5767
