~Version Information Block
VERS .                 2.00:  CWLS LOG ASCII STANDARD - VERSION 2.00
WRAP .                   NO:  One line per depth step
~Well Information Block
#MNEM.UNIT        Data Type   Information
#---------- ----------------  -----------
STRT .M           514.50240:  START DEPTH
STOP .M          1925.26920:  STOP DEPTH
STEP .M             0.15240:  STEP
NULL .              -999.25:  NULL VALUE
COMP .                     :  COMPANY
WELL .            Ngatoro-6:  WELL
FLD  .                     :  FIELD
LOC  .                     :  LOCATION
CTRY .                     :  COUNTRY
STAT .                     :  STATE
CNTY .                     :  COUNTY
SRVC .     New Zealand Petroleum Co Ltd:  SERVICE COMPANY
DATE .                     :  DATE
API  .                     :  API NUMBER
UWI  .         100000210185:  UNIQUE WELL ID
LATI .          -39.2039386:  LATITUDE
LONG .          174.1707675:  LONGITUDE
~Curve Information Block
#MNEM.UNIT         API CODE   Curve Description
#---------- ----------------  -----------------
DEPTH.M                    :  
BS   .IN                   :  Bit Size (Created in Geolog)
CALI .IN                   :  CALIPER (HCAL)
DENS .G/C3                 :  Bulk Density (RHOZ) and HR Bulk Density (RHO8)
DTC  .US/F                 :  Delta Time Compressional (DTCO)
DTS  .US/F                 :  Delta-T Shear (DTSM)
GR   .GAPI                 :  Gamma Ray (GR) and HR Gamma Ray (HGR)
NEUT .V/V                  :  Neutron Porosity (NPHI) and HR Neutron Porosity (HTNP)
NEUT_CORR.V/V                  :  Corrected NPHI (limestone units)
PEF  .B/E                  :  HRDD Std Resolution Formation Photoelectric Factor (PEFZ) and (PEF8)
RESD .OHMM                 :  HALS Deep Res. (HLLD) and HR HALS Deep Res. (HRLD)
RESS .OHMM                 :  HALS Shallow Res. (HLLS) and HR HALS Shallow Res. (HRLS)
SP   .MV                   :  Spontaneous Potential (SP)
~Parameter Information Block
#MNEM.UNIT            Value   Description
#---------- ----------------  -----------
CUR_INT_BOT.M                1930:  Current interpolated bottom
PROJECT.     New Zealand Log QC Project:  
SET  .     A0_FINAL_INTER_REF_D:  
ELEVATION_AMSL.M                 328:  Elevation above mean sea level
ELEVATION_REF.                   KB:  Measurement reference
FORMATION_AT_TD.      Mount Messenger:  Formation at TD
GL_ELEVATION_AMSL.M            322.5000:  Ground level elevation above mean sea level
LICENCE_NUMBER.             PPL38706:  Licence number
ONSHORE_OR_OFFSHORE.              Onshore:  Onshore/offshore
PR_NUMBER.               PR2214:  Petroleum report number
SPUD_DATE.           27/03/1996:  Spud date
STATUS_AT_COMPLETION.     Suspended with 7" casing cemented in place:  Status at completion
TD_DATE.           04/04/1996:  Total depth date
TOTAL_DEPTH_DRILLED.M                1930:  Total depth drilled
~Other Information Block
# 
~A       DEPTH             BS           CALI           DENS            DTC            DTS             GR           NEUT      NEUT_CORR            PEF           RESD           RESS             SP 
# ...
    1365.80880         8.5000         9.0504         2.3861        92.5278       183.8974        91.3739       0.250323       0.247464         3.3239         3.4217         3.6192       230.9161
    1365.96120         8.5000         9.0608         2.4055        90.9338       182.4063        90.7446       0.234771       0.231745         3.3372         3.8028         4.0261       231.1186
    1366.11360         8.5000         9.0719         2.4115        90.0794       182.1036        92.7181       0.235777       0.232530         3.3446         3.8353         4.0513       231.3436
    1366.26600         8.5000         9.0831         2.4130        89.4778       182.2069        95.5805       0.242438       0.238954         3.3500         3.7487         3.9462       231.5762
    1366.41840         8.5000         9.0943         2.4145        88.8761       182.3102        98.4429       0.249098       0.245378         3.3555         3.6621         3.8411       231.8088
    1366.57080         8.5000         9.1029         2.4133        89.2856       182.8226       100.5999       0.254113       0.250224         3.3506         3.5013         3.6690       232.2024
    1366.72320         8.5000         9.1084         2.4089        90.8606       183.8065       101.9439       0.257230       0.253254         3.3337         3.2550         3.4196       232.7815
    1366.87560         8.5000         9.1139         2.4044        92.4356       184.7904       103.2878       0.260347       0.256284         3.3169         3.0087         3.1702       233.3605
    1367.02800         8.5000         9.1164         2.4005        93.8568       185.6281       104.7363       0.265577       0.261566         3.3078         2.7961         2.9566       233.9285
    1367.18040         8.5000         9.1057         2.3989        94.5946       185.8162       106.6491       0.280199       0.276857         3.3330         2.7332         2.9023       234.4472
    1367.33280         8.5000         9.0950         2.3973        95.3323       186.0042       108.5620       0.294820       0.292147         3.3582         2.6703         2.8479       234.9659
    1367.48520         8.5000         9.0843         2.3957        96.0701       186.1922       110.4749       0.309441       0.307437         3.3834         2.6075         2.7935       235.4845
    1367.63760         8.5000         9.0644         2.3961        96.4755       185.8403       109.4124       0.308954       0.307429         3.3959         2.5990         2.7814       235.6559
    1367.79000         8.5000         9.0435         2.3968        96.8452       185.4302       108.0300       0.306841       0.305775         3.4070         2.5964         2.7738       235.7898
    1367.94240         8.5000         9.0226         2.3975        97.2149       185.0201       106.6475       0.304729       0.304121         3.4182         2.5938         2.7663       235.9238
    1368.09480         8.5000         9.0419         2.3983        97.3147       184.9223       106.3030       0.303642       0.303160         3.4284         2.5913         2.7592       236.2153
    1368.24720         8.5000         9.0855         2.3992        97.2505       185.0143       106.5893       0.303177       0.302619         3.4380         2.5889         2.7526       236.6026
    1368.39960         8.5000         9.1292         2.4000        97.1863       185.1062       106.8755       0.302713       0.302078         3.4476         2.5864         2.7459       236.9899
    1368.55200         8.5000         9.1480         2.4011        97.4701       184.8044       107.9926       0.303294       0.302458         3.4485         2.5883         2.7448       237.2015
    1368.70440         8.5000         9.1190         2.4025        98.4256       183.7423       110.7138       0.305895       0.304615         3.4327         2.5984         2.7542       237.0738
    1368.85680         8.5000         9.0899         2.4039        99.3811       182.6802       113.4350       0.308496       0.306772         3.4168         2.6085         2.7637       236.9461
    1369.00920         8.5000         9.0627         2.4053       100.2021       181.7231       115.8819       0.310768       0.308645         3.4025         2.6173         2.7719       236.8677
    1369.16160         8.5000         9.0649         2.4065        98.9297       182.4001       114.0588       0.307926       0.306108         3.4125         2.6053         2.7604       237.5565
    1369.31400         8.5000         9.0671         2.4078        97.6573       183.0770       112.2358       0.305084       0.303571         3.4225         2.5934         2.7489       238.2453
    1369.46640         8.5000         9.0694         2.4090        96.3848       183.7540       110.4127       0.302242       0.301034         3.4325         2.5815         2.7374       238.9341
    1369.61880         8.5000         9.0714         2.4079        96.3157       183.1643       110.8402       0.297362       0.296095         3.4394         2.5786         2.7347       240.0121
    1369.77120         8.5000         9.0735         2.4061        96.5868       182.2164       111.9043       0.291906       0.290477         3.4455         2.5783         2.7345       241.2002
    1369.92360         8.5000         9.0756         2.4043        96.8580       181.2686       112.9684       0.286450       0.284859         3.4516         2.5779         2.7343       242.3883
    1370.07600         8.5000         9.0538         2.4025        97.1036       180.7132       111.4061       0.285349       0.283924         3.4429         2.5724         2.7284       243.9029
    1370.22840         8.5000         9.0080         2.4009        97.3236       180.5523       107.2037       0.288624       0.287695         3.4194         2.5616         2.7167       245.7456
    1370.38080         8.5000         8.9622         2.3992        97.5436       180.3915       103.0013       0.291900       0.291467         3.3959         2.5508         2.7050       247.5883
    1370.53320         8.5000         8.9312         2.3973        97.9535       180.2526       100.7179       0.294854       0.294791         3.3820         2.5420         2.6949       249.3215
    1370.68560         8.5000         8.9531         2.3947        99.0454       180.1927       105.3245       0.296654       0.296505         3.4027         2.5403         2.6902       250.6613
    1370.83800         8.5000         8.9751         2.3922       100.1373       180.1328       109.9311       0.298454       0.298220         3.4235         2.5386         2.6855       252.0011
    1370.99040         8.5000         8.9971         2.3896       101.2291       180.0730       114.5377       0.300255       0.299935         3.4442         2.5368         2.6809       253.3409
    1371.14280         8.5000         9.0094         2.3942       100.7404       181.7237       115.4602       0.297735       0.297466         3.4353         2.5959         2.7457       254.1743
    1371.29520         8.5000         9.0210         2.3993       100.1454       183.4894       116.1350       0.294925       0.294716         3.4244         2.6590         2.8151       254.9738
    1371.44760         8.5000         9.0326         2.4044        99.5505       185.2551       116.8099       0.292115       0.291966         3.4135         2.7222         2.8845       255.7733
    1371.60000         8.5000         9.0305         2.4040        99.2252       187.2225       116.6918       0.290455       0.290139         3.4034         2.7315         2.8931       255.3423
    1371.75240         8.5000         9.0211         2.4008        99.0413       189.2957       116.1584       0.289396       0.288795         3.3938         2.7125         2.8698       254.2667
    1371.90480         8.5000         9.0117         2.3976        98.8573       191.3688       115.6250       0.288338       0.287452         3.3841         2.6936         2.8466       253.1911
    1372.05720         8.5000         9.0037         2.3960        98.8347       192.6272       115.0835       0.286774       0.285595         3.3822         2.6860         2.8355       252.1637
