~Version Information Block
VERS .                 2.00:  CWLS LOG ASCII STANDARD - VERSION 2.00
WRAP .                   NO:  One line per depth step
~Well Information Block
#MNEM.UNIT        Data Type   Information
#---------- ----------------  -----------
STRT .M           387.55320:  START DEPTH
STOP .M          1999.48800:  STOP DEPTH
STEP .M             0.15240:  STEP
NULL .              -999.25:  NULL VALUE
COMP .                     :  COMPANY
WELL .           Ngatoro-13:  WELL
FLD  .                     :  FIELD
LOC  .                     :  LOCATION
CTRY .                     :  COUNTRY
STAT .                     :  STATE
CNTY .                     :  COUNTY
SRVC .     Greymouth Petroleum Ltd:  SERVICE COMPANY
DATE .                     :  DATE
API  .                     :  API NUMBER
UWI  .         100000787699:  UNIQUE WELL ID
LATI .            -39.21139:  LATITUDE
LONG .            174.18349:  LONGITUDE
~Curve Information Block
#MNEM.UNIT         API CODE   Curve Description
#---------- ----------------  -----------------
DEPTH.M                    :  
BS   .IN                   :  Bit Size (Created in Geolog)
CALI .IN                   :  HRCC Cal. Caliper (HCAL)
DENS .G/C3                 :  HRDD Standard Resolution Formation Density (RHOZ) and (RHO8)
DRHO .G/C3                 :  HRDD Density Correction (HDRA)
DTC  .US/F                 :  Delta-T Compressional (DTCO)
DTS  .US/F                 :  Delta-T Shear (DTSM)
GR   .GAPI                 :  Gamma-Ray (GR) and HiRes Gamma-Ray (EHGR)
NEUT .V/V                  :  Enhanced Thermal Neutron Porosity(NPOR) and (HNPO)
PEF  .B/E                  :  HRDD Std Resolution Formation Photoelectric Factor (PEFZ) and (PEF8)
RESD .OHMM                 :  HALS Laterolog Deep R (HLLD) and HALS HiRes Deep Res (HRLD)
RESS .OHMM                 :  HALS Shallow Res. (HLLS) and HR HALS Shallow Res. (HRLS)
SP   .MV                   :  SP Shifted (SP)
TENS .KGF                  :  Cable Tension (TENS)
~Parameter Information Block
#MNEM.UNIT            Value   Description
#---------- ----------------  -----------
CUR_INT_BOT.M                2032:  Current interpolated bottom
PROJECT.     New Zealand Log QC Project:  
SET  .     A0_FINAL_INTER_REF_D:  
ELEVATION_AMSL.M              323.75:  Elevation above mean sea level
ELEVATION_REF.                   DF:  Measurement reference
FORMATION_AT_TD.                 Moki:  Formation at TD
GL_ELEVATION_AMSL.M            323.3000:  Ground level elevation above mean sea level
LICENCE_NUMBER.             PMP38148:  Licence number
ONSHORE_OR_OFFSHORE.              Onshore:  Onshore/offshore
PR_NUMBER.               PR3545:  Petroleum report number
SPUD_DATE.           28/10/2006:  Spud date
STATUS_AT_COMPLETION.     Completed ready for perforating:  Status at completion
TD_DATE.           10/11/2006:  Total depth date
TOTAL_DEPTH_DRILLED.M                2032:  Total depth drilled
~Other Information Block
# 
~A       DEPTH             BS           CALI           DENS           DRHO            DTC            DTS             GR           NEUT            PEF           RESD           RESS             SP           TENS 
# ...
    1992.32520         8.5000         8.3700         2.3883         0.0249        91.3776       166.0566       102.8303    -999.250000         2.9951         5.1620         5.2354       211.8069      1566.9574
    1992.47760         8.5000         8.3564         2.3766         0.0208        91.3426       167.1052       101.6824    -999.250000         2.9372         5.2575         5.3475       211.9474      1556.4474
    1992.63000         8.5000         8.3553         2.3794         0.0226        91.6705       167.2449       101.9729    -999.250000         2.9512         5.2229         5.3275       211.9568      1551.5555
    1992.78240         8.5000         8.3563         2.3846         0.0254        92.0609       167.2280       102.5112    -999.250000         2.9776         5.1658         5.2847       211.9437      1547.6318
    1992.93480         8.5000         8.3573         2.3899         0.0282        92.4513       167.2111       103.0496    -999.250000         3.0040         5.1088         5.2420       211.9305      1543.7081
    1993.08720         8.5000         8.3542         2.3938         0.0333        92.4234       165.8647       102.5352    -999.250000         3.0283         5.1086         5.2592       211.6729      1544.6208
    1993.23960         8.5000         8.3480         2.3969         0.0400        92.0827       163.5241       101.2336    -999.250000         3.0511         5.1509         5.3214       211.2323      1549.1499
    1993.39200         8.5000         8.3418         2.4000         0.0467        91.7420       161.1836        99.9320    -999.250000         3.0738         5.1933         5.3836       210.7918      1553.6788
    1993.54440         8.5000         8.3438         2.4039         0.0520        91.1022       158.7122        99.4254    -999.250000         3.0960         5.2962         5.4952       210.3087      1557.1642
    1993.69680         8.5000         8.3660         2.4101         0.0538        89.7346       155.9225       100.8528    -999.250000         3.1170         5.5464         5.7270       209.7221      1558.1110
    1993.84920         8.5000         8.3881         2.4163         0.0555        88.3671       153.1328       102.2802    -999.250000         3.1379         5.7967         5.9588       209.1355      1559.0579
    1994.00160         8.5000         8.4105         2.4225         0.0573        87.0235       150.4049       103.6981    -999.250000         3.1588         6.0477         6.1916       208.5541      1560.1431
    1994.15400         8.5000         8.4533         2.4265         0.0531        87.9417       153.5015       104.2166    -999.250000         3.1758         6.3623         6.5138       208.4698      1574.2731
    1994.30640         8.5000         8.4961         2.4306         0.0490        88.8600       156.5981       104.7351    -999.250000         3.1928         6.6770         6.8360       208.3855      1588.4030
    1994.45880         8.5000         8.5389         2.4346         0.0449        89.7782       159.6947       105.2536    -999.250000         3.2098         6.9917         7.1582       208.3012      1602.5328
    1994.61120         8.5000         8.5209         2.4262         0.0424      -999.2500       159.7229       104.4437    -999.250000         3.1706         6.9309         7.1017       208.5325      1595.8330
    1994.76360         8.5000         8.4804         2.4130         0.0405      -999.2500       158.6144       103.1418    -999.250000         3.1106         6.7312         6.9048       208.8807      1581.4155
    1994.91600         8.5000         8.4399         2.3999         0.0386      -999.2500       157.5058       101.8399    -999.250000         3.0505         6.5314         6.7080       209.2289      1566.9980
    1995.06840         8.5000         8.4090         2.3994         0.0406      -999.2500      -999.2500        99.4594    -999.250000         3.0341         6.3946         6.5688       209.5280      1559.9172
    1995.22080         8.5000         8.3898         2.4144         0.0473      -999.2500      -999.2500        95.7545    -999.250000         3.0711         6.3352         6.5006       209.7668      1561.8464
    1995.37320         8.5000         8.3707         2.4294         0.0539      -999.2500      -999.2500        92.0495    -999.250000         3.1082         6.2758         6.4323       210.0056      1563.7756
    1995.52560         8.5000         8.3471         2.4379         0.0585      -999.2500      -999.2500        89.3211    -999.250000         3.1346         6.1857         6.3343       210.2366      1565.4758
    1995.67800         8.5000         8.3019         2.4141         0.0529      -999.2500      -999.2500        91.4293    -999.250000         3.1086         5.9433         6.0886       210.4286      1566.0424
    1995.83040         8.5000         8.2567         2.3903         0.0473      -999.2500      -999.2500        93.5375    -999.250000         3.0826         5.7010         5.8430       210.6207      1566.6088
    1995.98280         8.5000         8.2115         2.3664         0.0416      -999.2500      -999.2500        95.6457    -999.250000         3.0566         5.4587         5.5974       210.8127      1567.1752
    1996.13520         8.5000         8.2241         2.3531         0.0382      -999.2500      -999.2500        95.0840    -999.250000         3.0140         5.2332         5.3429       211.4815      1569.0730
    1996.28760         8.5000         8.2440         2.3411         0.0350      -999.2500      -999.2500        94.1828    -999.250000         2.9693         5.0099         5.0872       212.2109      1571.1400
    1996.44000         8.5000         8.2640         2.3290         0.0318      -999.2500      -999.2500        93.2815    -999.250000         2.9247         4.7866         4.8316       212.9403      1573.2072
    1996.59240         8.5000         8.2727         2.3249         0.0278      -999.2500      -999.2500        94.7773    -999.250000         2.9664         4.6961         4.7247       213.3504      1579.9889
    1996.74480         8.5000         8.2741         2.3260         0.0233      -999.2500      -999.2500        97.8297    -999.250000         3.0642         4.6920         4.7145       213.5532      1589.8322
    1996.89720         8.5000         8.2756         2.3270         0.0188      -999.2500      -999.2500       100.8821    -999.250000         3.1620         4.6878         4.7042       213.7560      1599.6754
    1997.04960         8.5000         8.2819         2.3275         0.0169      -999.2500      -999.2500       102.9510    -999.250000         3.2350         4.7353         4.7363       213.9216      1606.4935
    1997.20200         8.5000         8.2984         2.3267         0.0204      -999.2500      -999.2500       102.9817    -999.250000         3.2564         4.8900         4.8559       214.0101      1607.0420
    1997.35440         8.5000         8.3148         2.3259         0.0240      -999.2500      -999.2500       103.0124    -999.250000         3.2778         5.0447         4.9755       214.0986      1607.5903
    1997.50680         8.5000         8.3303         2.3252      -999.2500      -999.2500      -999.2500       103.1199    -999.250000         3.2983         5.1867         5.0834       214.1821      1607.5676
    1997.65920         8.5000         8.3252         2.3253      -999.2500      -999.2500      -999.2500       104.8725    -999.250000         3.2982         5.0593         4.9421       214.1606      1595.3168
    1997.81160         8.5000         8.3200         2.3255      -999.2500      -999.2500      -999.2500       106.6251    -999.250000         3.2982         4.9319         4.8008       214.1391      1583.0658
    1997.96400         8.5000         8.3149         2.3257      -999.2500      -999.2500      -999.2500       108.3777    -999.250000         3.2981         4.8045         4.6596       214.1176      1570.8149
    1998.11640         8.5000         8.3040         2.3272      -999.2500      -999.2500      -999.2500       108.7917    -999.250000         3.2981         4.9076         4.7782       214.1765      1567.0673
